;pos_time;latitude;longitude;altitude;alt_time;pitch;roll;yaw
0;1666364502.1019247;46.975533999999996;7.1803557;0.02800000086426735;1666364502.2678459;0.10702962428331375;0.26636606454849243;89.11878204345703
1;1666364502.2961488;46.975533999999996;7.1803557;0.02500000037252903;1666364502.4796352;0.22782249748706818;-0.1718236356973648;89.42082214355469
2;1666364502.519654;46.975533999999996;7.1803557;0.026000000536441803;1666364502.6982625;0.1641668677330017;-0.1464899480342865;89.43685150146484
3;1666364502.7363262;46.975533999999996;7.1803555999999995;0.024000000208616257;1666364502.9159095;0.13508561253547668;-0.04669193550944328;89.12793731689453
4;1666364502.9315236;46.975533999999996;7.1803555;0.02200000174343586;1666364503.1130629;-0.003240924561396241;0.18701492249965668;89.00006103515625
5;1666364503.1413665;46.9755341;7.1803555;0.017000000923871994;1666364503.315096;0.0427374467253685;0.21341024339199066;89.05496978759766
6;1666364503.3599908;46.9755342;7.1803555;0.012000000104308128;1666364503.523958;0.06542211771011353;0.16923516988754272;88.87637329101562
7;1666364503.5551896;46.9755342;7.1803554;0.004000000189989805;1666364503.7269645;0.23489993810653687;0.18771684169769287;88.83000946044922
8;1666364503.763079;46.9755342;7.1803554;-0.0020000000949949026;1666364503.931926;0.04312371090054512;0.0017653126269578934;88.9428482055664
9;1666364503.9729164;46.9755342;7.1803554;-0.0010000000474974513;1666364504.1300526;0.0969267189502716;0.25905776023864746;88.85818481445312
10;1666364504.1622624;46.9755342;7.1803552999999996;0.0010000000474974513;1666364504.3389184;0.12775322794914246;0.23253820836544037;88.92671966552734
11;1666364504.3847902;46.9755343;7.1803552999999996;0.004000000189989805;1666364504.559495;0.16992858052253723;0.023589761927723885;89.09961700439453
12;1666364504.5907269;46.9755343;7.1803552999999996;0.010000000707805157;1666364504.7585998;0.19092418253421783;0.08116503059864044;88.79244232177734
13;1666364504.8005662;46.9755343;7.1803552999999996;0.01100000087171793;1666364504.9840546;0.004037016071379185;0.007794345263391733;89.02981567382812
14;1666364505.021143;46.9755344;7.1803554;0.00800000037997961;1666364505.190977;-0.013524840585887432;-0.12609921395778656;89.0101547241211
15;1666364505.217327;46.9755344;7.1803554;-0.005000000353902578;1666364505.406671;0.13266529142856598;-0.1911187618970871;88.9576187133789
16;1666364505.4486384;46.975534499999995;7.1803555;-0.014000000432133675;1666364505.626271;0.06674535572528839;-0.22188425064086914;88.94216918945312
17;1666364505.6604302;46.975534499999995;7.1803554;-0.01900000125169754;1666364505.8468494;0.13836076855659485;-0.300325870513916;88.64124298095703
18;1666364505.884912;46.975534499999995;7.1803552999999996;-0.027000000700354576;1666364506.042047;0.05314575135707855;-0.27236199378967285;88.72148132324219
19;1666364506.0723026;46.975534599999996;7.1803552999999996;-0.03200000151991844;1666364506.236272;0.20886068046092987;-0.24038560688495636;88.75948333740234
20;1666364506.2723835;46.9755347;7.1803552999999996;-0.03700000047683716;1666364506.4666095;0.14099788665771484;0.013622265309095383;88.66590118408203
21;1666364506.5124831;46.9755347;7.180355199999999;0.0010000000474974513;1666364506.6949937;0.04833761230111122;-0.29121333360671997;88.87962341308594
22;1666364506.7311037;46.9755347;7.180355199999999;-0.0020000000949949026;1666364506.8989782;0.11826550960540771;-0.09069185703992844;88.7445068359375
23;1666364506.9292324;46.9755348;7.180355199999999;-0.0020000000949949026;1666364507.0894778;0.15114066004753113;0.02123204991221428;88.72251892089844
24;1666364507.1236382;46.9755348;7.1803551;-0.005000000353902578;1666364507.2924979;0.2662848234176636;0.6758185625076294;89.16071319580078
25;1666364507.323729;46.9755348;7.1803551;-0.007000000216066837;1666364507.519905;-0.5643029808998108;3.1085939407348633;89.3467788696289
26;1666364507.665923;46.975534599999996;7.180355199999999;-0.004000000189989805;1666364507.8269653;5.978427886962891;0.7603126764297485;88.9183578491211
27;1666364507.858197;46.975534499999995;7.1803552999999996;0.03700000047683716;1666364508.029973;3.376098871231079;1.9178802967071533;88.8299789428711
28;1666364508.0670626;46.9755342;7.1803555;0.11700000613927841;1666364508.2505515;2.5258629322052;-0.24878613650798798;88.41818237304688
29;1666364508.2817805;46.975533899999995;7.1803558;0.23800000548362732;1666364508.4545317;1.6574804782867432;-0.7446695566177368;88.30001831054688
30;1666364508.4974756;46.9755336;7.1803561;0.398000031709671;1666364508.6829174;-1.031309723854065;-1.3462287187576294;88.123046875
31;1666364508.7161033;46.975533299999995;7.1803564;0.5879999995231628;1666364508.8849485;-2.3897969722747803;-2.1864407062530518;88.22686767578125
32;1666364508.9239883;46.9755331;7.1803566;0.812000036239624;1666364509.0867822;-2.1215884685516357;-1.5509145259857178;87.87598419189453
33;1666364509.1189897;46.9755331;7.1803567;1.0660001039505005;1666364509.2878382;-3.4387199878692627;-0.9479033350944519;87.26849365234375
34;1666364509.3180952;46.9755332;7.180356199999999;1.3530000448226929;1666364509.4840147;-2.1883962154388428;-1.2570005655288696;93.89717102050781
35;1666364509.5357432;46.9755332;7.1803555;1.6720000505447388;1666364509.6963198;-2.211682081222534;-0.7358506321907043;92.45338439941406
36;1666364509.7324307;46.975533399999996;7.1803547;2.002000093460083;1666364509.9032323;-1.6038130521774292;-0.9227445125579834;91.05538177490234
37;1666364509.9295826;46.9755336;7.1803541;2.3360002040863037;1666364510.1013603;-0.4639950096607208;0.40251287817955017;90.49971771240234
38;1666364510.1403992;46.9755338;7.1803536999999995;2.6690001487731934;1666364510.3180344;1.3571935892105103;0.10573980957269669;89.83789825439453
39;1666364510.3600018;46.9755341;7.1803536;3.000000238418579;1666364510.5337303;3.9664413928985596;0.27881428599357605;89.6070327758789
40;1666364510.5639834;46.9755344;7.1803541;3.3390002250671387;1666364510.7425926;2.718289852142334;1.4972598552703857;89.32373046875
41;1666364510.7787037;46.975534599999996;7.180354899999999;3.6730000972747803;1666364510.9719517;5.652892112731934;1.8808602094650269;88.9972915649414
42;1666364511.0109916;46.9755348;7.1803557;4.015000343322754;1666364511.199363;2.223464012145996;1.8850685358047485;89.06354522705078
43;1666364511.226688;46.9755349;7.1803564;4.360000133514404;1666364511.3955364;2.7078988552093506;4.64553165435791;89.0752182006836
44;1666364511.4238427;46.975535;7.1803567;4.698000431060791;1666364511.5839052;1.755374789237976;1.4776780605316162;89.25440979003906
45;1666364511.6209922;46.9755349;7.180356799999999;5.034000396728516;1666364511.897203;-1.8274123668670654;1.7802562713623047;89.92206573486328
46;1666364511.9372165;46.975535;7.1803563;5.38100004196167;1666364512.130466;-2.764364004135132;1.7570881843566895;90.0490493774414
47;1666364512.164625;46.975535;7.1803555;5.729000091552734;1666364512.3334742;-5.85253381729126;0.879241943359375;88.99279022216797
48;1666364512.3773923;46.975535;7.1803548;6.074000358581543;1666364512.543316;-5.050050735473633;0.8472099900245667;89.07707214355469
49;1666364512.5833328;46.975535099999995;7.1803542;6.420000076293945;1666364512.757057;-3.1841320991516113;1.0272438526153564;89.93879699707031
50;1666364512.7921932;46.975535099999995;7.1803539999999995;6.76200008392334;1666364512.9590905;-6.7702178955078125;-1.690294861793518;89.76014709472656
51;1666364512.9854414;46.975535099999995;7.1803539;7.100000381469727;1666364513.1474588;-0.7048746347427368;0.08744019269943237;88.83182525634766
52;1666364513.1806443;46.975535;7.1803541;7.440000534057617;1666364513.3777957;-0.9102090001106262;1.9309405088424683;89.00897216796875
53;1666364513.4070737;46.9755348;7.180354299999999;7.783000469207764;1666364513.5720198;0.10360889136791229;-3.7062926292419434;89.88516235351562
54;1666364513.6022773;46.975534499999995;7.180354599999999;8.124000549316406;1666364513.7838116;8.794175148010254;-0.8250064849853516;89.75281524658203
55;1666364513.820901;46.9755343;7.180354899999999;8.46500015258789;1666364513.984871;0.6169785261154175;1.5974875688552856;89.89974212646484
56;1666364514.0161002;46.9755342;7.180355;8.803000450134277;1666364514.1878757;5.131190299987793;-3.0540874004364014;88.93375396728516
57;1666364514.2269154;46.9755341;7.1803551;9.136000633239746;1666364514.4094296;6.047662734985352;0.863370418548584;88.87958526611328
58;1666364514.448469;46.9755341;7.1803555999999995;9.473000526428223;1666364514.6163402;0.6869206428527832;1.556355357170105;89.3690414428711
59;1666364514.651477;46.9755342;7.180356199999999;9.8100004196167;1666364514.8320374;6.503719329833984;1.1451284885406494;89.25000762939453
60;1666364514.8583872;46.9755343;7.180356799999999;10.144000053405762;1666364515.0526154;-1.3660719394683838;2.730436086654663;89.35578918457031
61;1666364515.0906787;46.9755343;7.1803571999999996;10.480000495910645;1666364515.2605038;-0.8607179522514343;3.889925718307495;89.46870422363281
62;1666364515.2917392;46.9755344;7.1803574;10.812000274658203;1666364515.451796;1.0487172603607178;0.6242609024047852;88.55422973632812
63;1666364515.4849796;46.9755344;7.1803574;11.142000198364258;1666364515.6850598;-4.75322961807251;1.7931402921676636;88.45469665527344
64;1666364515.7289817;46.9755343;7.180356799999999;11.482000350952148;1666364515.9017324;-0.8808707594871521;-0.7866826057434082;89.39371490478516
65;1666364515.9388227;46.9755342;7.1803561;11.822000503540039;1666364516.104742;-6.622368335723877;1.2616703510284424;89.36868286132812
66;1666364516.134996;46.9755342;7.1803552999999996;12.16100025177002;1666364516.3321514;-5.050360202789307;-1.2908437252044678;88.36980438232422
67;1666364516.3692393;46.9755341;7.1803548;12.504000663757324;1666364516.530279;-1.9718616008758545;0.33938539028167725;88.95821380615234
68;1666364516.5615203;46.975533999999996;7.180354599999999;12.847001075744629;1666364516.7410958;-6.121087551116943;-0.8535394072532654;89.96419525146484
69;1666364516.770376;46.9755341;7.1803545;13.1850004196167;1666364516.9441018;1.467747449874878;-1.4425615072250366;89.23403930664062
70;1666364516.9821653;46.975533999999996;7.1803548;13.523000717163086;1666364517.1627262;-2.516934871673584;-0.06181255355477333;88.44840240478516
71;1666364517.1998134;46.9755338;7.1803551;13.860000610351562;1666364517.3667097;1.5176670551300049;-1.3904374837875366;88.39273834228516
72;1666364517.4067266;46.9755336;7.1803554;14.200000762939453;1666364517.5853353;2.0229547023773193;-1.2850741147994995;89.24382781982422
73;1666364517.6116886;46.9755335;7.1803555;14.539000511169434;1666364517.7824879;2.70497727394104;-3.831974983215332;89.77894592285156
74;1666364517.8390954;46.975533299999995;7.1803555999999995;14.879000663757324;1666364518.001111;6.75410270690918;-1.2856886386871338;89.12599182128906
75;1666364518.0313659;46.975533399999996;7.1803555;15.2160005569458;1666364518.2060735;2.0246613025665283;-1.6446324586868286;89.23868560791016
76;1666364518.2441373;46.9755335;7.1803558999999995;15.551000595092773;1666364518.4090805;5.118143558502197;0.7210727334022522;88.98102569580078
77;1666364518.445191;46.9755336;7.1803564;15.881000518798828;1666364518.617942;7.191653251647949;-0.11876154690980911;89.10409545898438
78;1666364518.6511269;46.9755336;7.180357;16.216001510620117;1666364518.8238795;4.719600200653076;-0.5149312615394592;89.10393524169922
79;1666364518.8599913;46.9755336;7.1803574;16.55000114440918;1666364519.0317671;5.88278341293335;2.23966383934021;88.17198944091797
80;1666364519.0659292;46.9755336;7.1803574999999995;16.87900161743164;1666364519.26406;4.883321762084961;1.7035541534423828;88.7718276977539
81;1666364519.3021197;46.9755336;7.1803576;17.213001251220703;1666364519.4895122;2.6114890575408936;-0.6403306126594543;89.46128845214844
82;1666364519.5275843;46.9755336;7.1803574;17.54400062561035;1666364519.697402;4.295352935791016;0.5539008378982544;88.65228271484375
83;1666364519.7286327;46.9755336;7.1803571999999996;17.878000259399414;1666364519.8984568;1.22053062915802;2.0220768451690674;88.53178405761719
84;1666364519.9355445;46.9755337;7.1803569;18.216001510620117;1666364520.1317208;0.9763256311416626;1.0166707038879395;89.26280975341797
85;1666364520.172712;46.9755338;7.180356799999999;18.553001403808594;1666364520.3493707;1.5666816234588623;2.021242380142212;88.91216278076172
86;1666364520.3913364;46.975533899999995;7.1803567;18.89000129699707;1666364520.559209;-2.799307107925415;1.267727255821228;88.43566131591797
87;1666364520.5962994;46.975533899999995;7.1803566;19.227001190185547;1666364520.7710028;-0.9477334022521973;1.630769968032837;88.65960693359375
88;1666364520.805162;46.975533999999996;7.1803564;19.56100082397461;1666364520.9857228;-5.408764362335205;1.3257485628128052;89.23783874511719
89;1666364521.0140276;46.9755341;7.1803558999999995;19.9010009765625;1666364521.1770191;-2.42807674407959;1.8861883878707886;89.05908203125
90;1666364521.212154;46.9755341;7.1803554;20.24100112915039;1666364521.3722172;-5.931243896484375;0.32284578680992126;89.29369354248047
91;1666364521.414187;46.9755341;7.180354899999999;20.58100128173828;1666364521.6064591;-5.006333827972412;-0.5817156434059143;89.31868743896484
92;1666364521.6367135;46.9755341;7.180354599999999;20.92300033569336;1666364521.9099956;-4.036431789398193;1.2592535018920898;89.41116333007812
93;1666364521.9509885;46.9755342;7.1803545;21.262001037597656;1666364522.12374;-5.754971981048584;1.4429842233657837;88.98440551757812
94;1666364522.1530204;46.9755342;7.1803547;21.600000381469727;1666364522.304299;-3.553771734237671;0.7588627934455872;88.58683776855469
95;1666364522.3374846;46.9755342;7.180354899999999;21.933000564575195;1666364522.515114;-2.453570604324341;-0.13176874816417694;88.9139175415039
96;1666364522.5609887;46.9755341;7.1803551;22.269001007080078;1666364522.7259314;-5.182475566864014;-1.2667171955108643;89.65460205078125
97;1666364522.7600913;46.975533999999996;7.180355199999999;22.608001708984375;1666364522.9289393;0.5429765582084656;-1.0699021816253662;89.2469711303711
98;1666364522.9679785;46.975533899999995;7.1803552999999996;22.948001861572266;1666364523.1563466;-1.0475484132766724;-0.860599160194397;89.53030395507812
99;1666364523.1895308;46.9755338;7.1803554;23.285001754760742;1666364523.357405;-2.303828001022339;-2.6858065128326416;89.08975219726562
100;1666364523.3866858;46.9755338;7.1803554;23.624000549316406;1666364523.5643165;0.9278357625007629;-1.2695603370666504;88.687744140625
101;1666364523.5994537;46.975533899999995;7.1803554;23.9580020904541;1666364523.7634223;-0.24131417274475098;-0.914895236492157;89.5843276977539
102;1666364523.8024607;46.975533899999995;7.1803558;24.290000915527344;1666364523.9820454;1.3559504747390747;-1.0017101764678955;89.14093780517578
103;1666364524.0162077;46.975533899999995;7.180356199999999;24.621000289916992;1666364524.1831021;3.372177839279175;-1.8936820030212402;89.07159423828125
104;1666364524.2143328;46.975533899999995;7.1803567;24.957000732421875;1666364524.381231;4.090325355529785;-0.06164003163576126;88.8174819946289
105;1666364524.4173396;46.975533899999995;7.1803569;25.292001724243164;1666364524.6008298;4.975374221801758;-0.6869191527366638;88.69164276123047
106;1666364524.6320622;46.975533899999995;7.180356799999999;25.630001068115234;1666364524.8018842;3.4665186405181885;-1.6742510795593262;89.87515258789062
107;1666364524.8360467;46.975533999999996;7.1803566;25.965002059936523;1666364525.012703;5.258151054382324;-1.1360329389572144;89.37635040283203
108;1666364525.0497894;46.9755341;7.1803567;26.304000854492188;1666364525.2108314;5.244621276855469;0.2733270525932312;88.45914459228516
109;1666364525.2459674;46.9755341;7.180357;26.64200210571289;1666364525.4235985;3.8173770904541016;0.24823549389839172;89.16273498535156
110;1666364525.4577591;46.9755342;7.1803573;26.97800064086914;1666364525.6168473;7.704884052276611;-0.3287506103515625;88.9737319946289
111;1666364525.651007;46.9755342;7.1803574999999995;27.317001342773438;1666364525.8413296;3.0417258739471436;-0.04703791067004204;88.6837158203125
112;1666364525.8715837;46.9755342;7.1803574999999995;27.654001235961914;1666364526.0345733;7.454191207885742;0.4602665603160858;88.75959777832031
113;1666364526.0687335;46.9755342;7.1803571999999996;27.98600196838379;1666364526.2249007;2.6271440982818604;1.7333163022994995;89.3558578491211
114;1666364526.255153;46.9755342;7.1803571999999996;28.32000160217285;1666364526.4298537;3.0554699897766113;-2.607328414916992;89.25823974609375
115;1666364526.470847;46.9755342;7.1803571999999996;28.652000427246094;1666364526.6377423;7.957182884216309;1.98602294921875;88.83749389648438
116;1666364526.6748328;46.9755343;7.1803574;28.988000869750977;1666364526.881744;-0.07266949117183685;2.7668609619140625;88.51488494873047
117;1666364526.9178562;46.9755343;7.1803574;29.32400131225586;1666364527.0837765;3.2630510330200195;0.06523697078227997;89.18830871582031
118;1666364527.1169586;46.9755342;7.1803574999999995;29.655000686645508;1666364527.3072827;3.513514280319214;1.2081109285354614;89.35009002685547
119;1666364527.3433917;46.9755342;7.1803573;29.987001419067383;1666364527.5083363;-0.11320950090885162;1.5779448747634888;89.24417877197266
120;1666364527.5415192;46.9755343;7.180356799999999;30.323001861572266;1666364527.7132952;0.7899793982505798;1.567807912826538;89.20748901367188
121;1666364527.7474556;46.9755343;7.180356199999999;30.657001495361328;1666364527.9153285;1.672339677810669;0.9021302461624146;89.1650390625
122;1666364527.9524148;46.9755344;7.1803558999999995;30.99300193786621;1666364528.1115036;-1.3377182483673096;0.7946943044662476;89.16815948486328
123;1666364528.1427372;46.975534499999995;7.1803558;31.329002380371094;1666364528.3145125;1.750778079032898;2.837552070617676;89.37490844726562
124;1666364528.3506258;46.975534599999996;7.1803557;31.663002014160156;1666364528.5263052;-6.7087788581848145;3.3353681564331055;88.79497528076172
125;1666364528.5585127;46.975534599999996;7.1803558;32.00100326538086;1666364528.7341926;-0.7060205936431885;0.7092589735984802;89.03377532958984
126;1666364528.7761633;46.975534499999995;7.1803558999999995;32.33399963378906;1666364528.9362247;-0.5158612132072449;2.0316476821899414;89.04781341552734
127;1666364528.9694097;46.975534499999995;7.1803557;32.66600036621094;1666364529.156805;-6.978542804718018;1.06383216381073;89.43038177490234
128;1666364529.1880322;46.975534499999995;7.1803554;33.005001068115234;1666364529.353956;-2.2017629146575928;0.8471461534500122;89.38159942626953
129;1666364529.3861625;46.9755344;7.180355199999999;33.34100341796875;1666364529.5569625;-3.2246766090393066;2.2963078022003174;88.4085922241211
130;1666364529.593074;46.9755344;7.1803551;33.678001403808594;1666364529.7589953;-6.167732238769531;-0.3223869800567627;89.09919738769531
131;1666364529.7990108;46.9755344;7.1803551;34.0160026550293;1666364529.973714;-3.0771052837371826;0.17907485365867615;89.39773559570312
132;1666364530.0147078;46.9755343;7.1803551;34.34800338745117;1666364530.1816027;-2.9439539909362793;-0.060410045087337494;88.88021087646484
133;1666364530.212833;46.9755343;7.1803551;34.680999755859375;1666364530.3797305;-6.371297359466553;-0.12191035598516464;89.25480651855469
134;1666364530.412914;46.9755343;7.1803551;35.02000045776367;1666364530.5944521;-1.0124428272247314;-1.0855950117111206;89.44863891601562
135;1666364530.6237302;46.9755342;7.180355;35.358001708984375;1666364530.7935538;-6.192444801330566;0.04225198179483414;89.6452865600586
136;1666364530.8277166;46.9755343;7.180355;35.69300079345703;1666364530.9975395;-3.9595940113067627;-0.9389153122901917;89.33439636230469
137;1666364531.035602;46.9755344;7.1803551;36.031002044677734;1666364531.2015228;-1.0510749816894531;0.6691799163818359;88.88739776611328
138;1666364531.235685;46.9755344;7.1803552999999996;36.367000579833984;1666364531.4113657;-5.611968994140625;0.7017017602920532;89.69438934326172
139;1666364531.443573;46.975534499999995;7.1803554;36.698001861572266;1666364531.6046116;0.9378632307052612;-1.521965503692627;89.39891052246094
140;1666364531.6407237;46.9755344;7.1803558;37.03000259399414;1666364531.8288507;-1.2048873901367188;0.6979921460151672;88.34184265136719
141;1666364531.8708198;46.9755344;7.180356;37.3640022277832;1666364532.0455236;-0.9642962217330933;-1.0757954120635986;88.2541275024414
142;1666364532.1001832;46.9755343;7.180356199999999;37.69900131225586;1666364532.257315;5.551415920257568;-0.816798210144043;88.71553802490234
143;1666364532.2836697;46.9755342;7.1803563;38.03200149536133;1666364532.4534922;0.05847843736410141;-1.0060474872589111;89.71401977539062
144;1666364532.5032692;46.9755341;7.1803563;38.36300277709961;1666364532.666258;2.5173075199127197;-3.0026514530181885;89.97660064697266
145;1666364532.6994426;46.975533999999996;7.180356199999999;38.69000244140625;1666364532.8907402;5.878398895263672;-2.4362146854400635;89.13488006591797
146;1666364532.9239235;46.975533999999996;7.180356799999999;39.02300262451172;1666364533.0937467;5.5725483894348145;0.021053021773695946;88.77432250976562
147;1666364533.1308367;46.9755341;7.1803574;39.35200119018555;1666364533.3094504;3.931260347366333;-1.1642993688583374;89.02500915527344
148;1666364533.341657;46.9755342;7.1803577999999995;39.68000030517578;1666364533.5105042;10.473495483398438;0.28167009353637695;89.37112426757812
149;1666364533.5417333;46.9755342;7.180358099999999;40.012001037597656;1666364533.720341;3.1938509941101074;1.2245290279388428;88.68904876708984
150;1666364533.7535233;46.9755342;7.180358099999999;40.342002868652344;1666364533.9135904;5.963144779205322;-0.5279898047447205;88.26677703857422
151;1666364533.9565325;46.9755342;7.1803577999999995;40.66800308227539;1666364534.1117191;7.343061923980713;0.8461315631866455;89.0892562866211
152;1666364534.1429493;46.9755343;7.1803577;41.00100326538086;1666364534.3069184;2.6453917026519775;0.7806050181388855;89.85733032226562
153;1666364534.3508382;46.9755344;7.1803576;41.33500289916992;1666364534.5069964;7.197970390319824;-0.46878573298454285;89.21077728271484
154;1666364534.5382333;46.9755344;7.1803574999999995;41.6670036315918;1666364534.706101;3.5638315677642822;1.2539783716201782;88.95838928222656
155;1666364534.737333;46.975534499999995;7.1803574;42.00200271606445;1666364534.9188702;2.8709867000579834;1.6824328899383545;89.57828521728516
156;1666364534.954983;46.975534499999995;7.1803573;42.332000732421875;1666364535.13847;6.591597080230713;0.01219437550753355;89.0648422241211
157;1666364535.1677504;46.9755344;7.180357099999999;42.6670036315918;1666364535.3336694;0.6368202567100525;0.7804267406463623;89.06526184082031
158;1666364535.3756375;46.975534499999995;7.180356799999999;43.012001037597656;1666364535.5425365;5.751613616943359;1.1926685571670532;89.2592544555664
159;1666364535.5766933;46.975534499999995;7.180356499999999;43.33400344848633;1666364535.753351;1.2277746200561523;1.7217113971710205;89.52964782714844
160;1666364535.7904418;46.975534599999996;7.180356199999999;43.67000198364258;1666364535.9553833;1.5585439205169678;1.6159584522247314;89.08187103271484
161;1666364535.9905202;46.975534599999996;7.1803558999999995;44.00200271606445;1666364536.1671755;4.620124816894531;1.0772404670715332;89.1876449584961
162;1666364536.1974297;46.975534599999996;7.1803558999999995;44.336002349853516;1666364536.361398;-0.3541514575481415;1.4649105072021484;89.69766235351562
163;1666364536.39556;46.975534599999996;7.1803558;44.669002532958984;1666364536.5761206;1.9947373867034912;0.9790682792663574;89.28845977783203
164;1666364536.6073534;46.975534599999996;7.1803558;44.996002197265625;1666364536.7849834;3.168991804122925;1.1135437488555908;89.00846099853516
165;1666364536.8142629;46.975534599999996;7.1803555;45.329002380371094;1666364536.9792085;-0.8764609098434448;0.840793251991272;89.22325897216797
166;1666364537.0104396;46.9755347;7.1803551;45.669002532958984;1666364537.1822162;0.07548865675926208;1.9077680110931396;88.4984130859375
167;1666364537.2212548;46.9755347;7.180354899999999;46.00400161743164;1666364537.3920565;0.2663615643978119;1.9692721366882324;88.81779479980469
168;1666364537.4281673;46.9755347;7.1803548;46.34300231933594;1666364537.6018949;-3.960756540298462;1.1525356769561768;89.69537353515625
169;1666364537.6370313;46.9755347;7.1803548;46.68300247192383;1666364537.8097837;-1.408379316329956;1.4215126037597656;89.34666442871094
170;1666364537.8488262;46.9755347;7.1803548;47.018001556396484;1666364538.023528;-1.1237082481384277;1.9431955814361572;89.68624114990234
171;1666364538.0674484;46.9755347;7.1803545;47.35200119018555;1666364538.2314181;-6.855000972747803;0.9311802387237549;90.03553771972656
172;1666364538.2811944;46.975534599999996;7.1803541;47.69300079345703;1666364538.445161;-2.248699426651001;0.20080743730068207;89.0675277709961
173;1666364538.4822488;46.975534499999995;7.1803538;48.034000396728516;1666364538.6598809;-6.350351810455322;1.6260002851486206;88.76908874511719
174;1666364538.6891618;46.975534499999995;7.1803536999999995;48.38100051879883;1666364538.8492255;-3.9353601932525635;0.8740823864936829;88.9134750366211
175;1666364538.8814347;46.975534499999995;7.1803538;48.72700119018555;1666364539.053211;-1.1107237339019775;1.3948019742965698;89.29335021972656
176;1666364539.0883489;46.975534499999995;7.1803541;49.07100296020508;1666364539.2640264;-8.247170448303223;-1.0395965576171875;89.98284912109375
177;1666364539.3050182;46.975534499999995;7.180354299999999;49.410003662109375;1666364539.4699626;-0.7844223976135254;0.7716606855392456;88.9449462890625
178;1666364539.5050974;46.9755344;7.1803544;49.750003814697266;1666364539.6866357;-5.550612926483154;0.9844521880149841;88.62628173828125
179;1666364539.721773;46.9755343;7.180354299999999;50.0890007019043;1666364539.8945248;-3.7907402515411377;-0.5894144177436829;89.60926055908203
180;1666364539.93649;46.9755343;7.1803542;50.42900085449219;1666364540.1141236;-2.339937925338745;0.4346311688423157;89.96730041503906
181;1666364540.1512105;46.9755343;7.1803542;50.759002685546875;1666364540.3220098;-6.570469379425049;-0.6664038896560669;89.57769012451172
182;1666364540.3620265;46.9755343;7.180354299999999;51.083003997802734;1666364540.5542989;-0.5459887385368347;-0.7512219548225403;89.5589599609375
183;1666364540.5923622;46.9755343;7.1803544;51.39800262451172;1666364540.758283;-4.20163631439209;0.597003698348999;89.52076721191406
184;1666364540.798299;46.9755343;7.1803547;51.711002349853516;1666364540.9700747;-3.4713621139526367;-0.6055501103401184;89.0106201171875
185;1666364541.003262;46.9755342;7.1803551;52.02700424194336;1666364541.17894;1.8880146741867065;-0.7655050158500671;89.3675765991211
186;1666364541.2179806;46.9755342;7.1803552999999996;52.342002868652344;1666364541.3799958;-2.7870097160339355;-0.2450036257505417;89.49384307861328
187;1666364541.4131804;46.9755341;7.1803552999999996;52.65900421142578;1666364541.5839784;0.6214708685874939;-1.395133137702942;89.26619720458984
188;1666364541.6152108;46.9755341;7.1803552999999996;52.97800064086914;1666364541.7762518;0.6826480627059937;-0.5479812026023865;89.07445526123047
189;1666364541.8279812;46.9755341;7.180355199999999;53.29300308227539;1666364541.9841387;-3.07232928276062;-1.247762680053711;89.5489730834961
190;1666364542.0251327;46.9755341;7.1803551;53.605003356933594;1666364542.1959314;2.82645845413208;-1.1984163522720337;89.19727325439453
191;1666364542.2291172;46.9755341;7.1803555;53.92400360107422;1666364542.3930833;-0.0744146928191185;-0.2161584198474884;88.2768325805664
192;1666364542.4301736;46.9755341;7.180356;54.243003845214844;1666364542.5941398;2.7703824043273926;-2.040109395980835;88.74040222167969
193;1666364542.624397;46.9755341;7.1803563;54.56300354003906;1666364542.789343;4.382919788360596;-0.23333889245986938;88.9742202758789
194;1666364542.8361924;46.9755341;7.1803564;54.884002685546875;1666364543.0099196;2.1950790882110596;0.14919570088386536;89.2855224609375
195;1666364543.0421262;46.9755341;7.1803564;55.204002380371094;1666364543.2158551;3.988635540008545;-1.769201636314392;89.38478088378906
196;1666364543.2461107;46.9755341;7.1803563;55.51900100708008;1666364543.422765;4.806815147399902;0.11427639424800873;88.81635284423828
197;1666364543.4549787;46.9755342;7.180356499999999;55.840003967285156;1666364543.640417;3.059504270553589;-0.8171416521072388;88.833740234375
198;1666364543.671647;46.9755342;7.180356799999999;56.15900421142578;1666364543.8434267;6.127813816070557;-0.9430488348007202;89.49737548828125
199;1666364543.875631;46.9755342;7.180357;56.47900390625;1666364544.038624;4.923653602600098;0.07191941887140274;89.09932708740234
200;1666364544.0854774;46.9755342;7.180357099999999;56.802001953125;1666364544.2445252;3.5803301334381104;0.26839330792427063;88.52278137207031
201;1666364544.2806387;46.9755342;7.1803569;57.12300109863281;1666364544.4563172;5.4748101234436035;-0.03885168582201004;88.40592193603516
202;1666364544.4885254;46.9755342;7.1803567;57.43800354003906;1666364544.653471;4.113948822021484;0.1555590033531189;88.36614990234375
203;1666364544.686654;46.9755342;7.1803563;57.70900344848633;1666364544.8691669;5.409287929534912;0.15156403183937073;88.39883422851562
204;1666364544.9033267;46.9755342;7.180356199999999;57.948001861572266;1666364545.075106;1.1675231456756592;0.13868117332458496;88.26566314697266
205;1666364545.1102397;46.9755342;7.180356199999999;58.150001525878906;1666364545.2810414;8.025829315185547;-0.08713112771511078;88.2671890258789
206;1666364545.3151994;46.9755342;7.1803563;58.31900405883789;1666364545.482096;14.759010314941406;-16.136857986450195;83.0079574584961
207;1666364545.5113766;46.9755344;7.180356;58.47200393676758;1666364545.6727448;29.419628143310547;-38.728477478027344;71.2755126953125
208;1666364545.70691;46.9755356;7.180354299999999;58.60900115966797;1666364545.8767328;29.645347595214844;-50.870460510253906;62.475189208984375
209;1666364545.9226017;46.9755387;7.180349499999999;58.678001403808594;1666364546.0934026;14.824357986450195;-39.518619537353516;62.481510162353516
210;1666364546.1285393;46.9755435;7.180342;58.686004638671875;1666364546.2983637;4.508939266204834;-34.57313919067383;49.217796325683594
211;1666364546.329595;46.9755496;7.180333;58.69700241088867;1666364546.4935622;-4.030945301055908;-37.33049392700195;36.23646545410156
212;1666364546.5296743;46.9755569;7.180322899999999;58.721004486083984;1666364546.7151139;-13.987408638000488;-39.59937286376953;24.492671966552734
213;1666364546.843949;46.9755653;7.1803116;58.74800109863281;1666364547.0284104;-23.183856964111328;-35.030853271484375;8.948065757751465
214;1666364547.0703795;46.975574699999996;7.1802987;58.76700210571289;1666364547.2314188;-30.366657257080078;-29.260990142822266;-11.462034225463867
215;1666364547.261674;46.9755848;7.1802841;58.78400421142578;1666364547.4256434;-38.34180450439453;-19.650588989257812;-28.415998458862305
216;1666364547.4783485;46.9755952;7.180267499999999;58.82100296020508;1666364547.6413422;-49.44730758666992;-6.521951198577881;-40.508663177490234
217;1666364547.6745224;46.9756062;7.1802491999999996;58.897003173828125;1666364547.8472767;-59.40435791015625;3.787022113800049;-44.8121337890625
218;1666364547.890221;46.9756182;7.1802293;58.971004486083984;1666364548.0580945;-62.26418685913086;2.6631174087524414;-32.17281723022461
219;1666364548.1000624;46.975632;7.1802081;59.005001068115234;1666364548.2728138;-51.07292556762695;-5.613992214202881;-13.286456108093262
220;1666364548.3069727;46.975647699999996;7.1801872;58.9890022277832;1666364548.474846;-43.428916931152344;-16.95296287536621;0.4977458417415619
221;1666364548.5070555;46.9756645;7.180167;58.983001708984375;1666364548.6885927;-44.617835998535156;-25.536714553833008;10.292430877685547
222;1666364548.7227492;46.975682299999995;7.1801474999999995;58.98500442504883;1666364548.88574;-40.53130340576172;-30.682525634765625;19.571123123168945
223;1666364548.9179487;46.975701099999995;7.1801281999999995;58.98400115966797;1666364549.0955813;-22.078136444091797;-28.91849708557129;26.19866180419922
224;1666364549.1297398;46.9757205;7.1801093;58.99400329589844;1666364549.306398;-4.300004005432129;-10.952010154724121;28.457759857177734
225;1666364549.3405588;46.975739399999995;7.1800912;59.03200149536133;1666364549.5191653;14.542220115661621;57.00386047363281;31.10832977294922
226;1666364549.554303;46.9757563;7.1800751;59.02000427246094;1666364549.7065575;0.32931509613990784;57.27558898925781;14.15829086303711
227;1666364549.751456;46.975770999999995;7.1800615;58.762001037597656;1666364549.9320142;8.301823616027832;2.212036609649658;10.199638366699219
228;1666364549.9652;46.975783199999995;7.1800513;58.30800247192383;1666364550.1369743;6.169763088226318;-15.73196029663086;-8.275979995727539
229;1666364550.170158;46.9757938;7.1800424;57.87000274658203;1666364550.3399827;-2.3174667358398438;-16.47055435180664;-24.595958709716797
230;1666364550.3751192;46.9758024;7.1800337999999995;57.49900436401367;1666364550.5537264;-7.719730377197266;-13.970831871032715;-35.210514068603516
231;1666364550.5839837;46.975809399999996;7.180025499999999;57.20500183105469;1666364550.7440467;-10.551504135131836;-10.644502639770508;-45.1007080078125
232;1666364550.7830882;46.975815;7.1800172;57.01400375366211;1666364550.9558408;-12.587047576904297;-8.77173137664795;-52.88982009887695
233;1666364550.9909818;46.9758195;7.180009;56.95100402832031;1666364551.1549435;-14.113797187805176;-5.31528902053833;-55.24407196044922
234;1666364551.1891046;46.9758231;7.180000499999999;57.01700210571289;1666364551.3462396;-21.988943099975586;-2.4733638763427734;-53.4462890625
235;1666364551.378446;46.975826399999995;7.1799921;57.19900131225586;1666364551.5424137;-41.84344482421875;4.194637775421143;-55.232215881347656
236;1666364551.5756025;46.975829999999995;7.179982799999999;57.461002349853516;1666364551.7483518;-50.70782470703125;9.057377815246582;-54.02487564086914
237;1666364551.7864218;46.975835;7.1799719;57.72700119018555;1666364551.95624;-49.117671966552734;6.549288749694824;-49.43302536010742
238;1666364551.9874713;46.9758419;7.1799591;57.96000289916992;1666364552.2529435;-50.89381408691406;5.938696384429932;-46.76456069946289
239;1666364552.2910073;46.9758506;7.1799449;58.178001403808594;1666364552.4657116;-57.4130973815918;5.937585830688477;-45.30408477783203
240;1666364552.5028;46.975861099999996;7.179929199999999;58.380001068115234;1666364552.6745763;-59.002586364746094;5.070354461669922;-39.681880950927734
241;1666364552.7077603;46.9758737;7.179911799999999;58.53600311279297;1666364552.8971026;-54.51590347290039;-2.995389461517334;-27.22788429260254
242;1666364552.9341943;46.9758879;7.1798936;58.66400146484375;1666364553.0932791;-57.03670120239258;-10.804211616516113;-18.477863311767578
243;1666364553.1450102;46.9759039;7.1798747999999994;58.794002532958984;1666364553.310928;-56.900997161865234;-16.953231811523438;-10.15343952178955
244;1666364553.3441129;46.9759216;7.1798551999999995;58.90700149536133;1666364553.5119853;-47.51494216918945;-22.936283111572266;-4.5275797843933105
245;1666364553.5451684;46.9759406;7.179835199999999;58.99400329589844;1666364553.723776;-46.604957580566406;-19.51154899597168;-15.476154327392578
246;1666364553.7608652;46.975960199999996;7.179814599999999;59.06200408935547;1666364553.9326415;-50.3703498840332;-12.564718246459961;-28.314834594726562
247;1666364553.9707077;46.9759799;7.1797933;59.10900115966797;1666364554.1454105;-56.55509567260742;-5.485188961029053;-38.940006256103516
248;1666364554.1815217;46.9759998;7.179770899999999;59.150001525878906;1666364554.3474424;-61.765289306640625;-1.4389654397964478;-47.83094787597656
249;1666364554.3835561;46.9760201;7.179747;59.177001953125;1666364554.552403;-57.54888916015625;5.273355484008789;-51.41552734375
250;1666364554.583633;46.9760408;7.179721;59.16800308227539;1666364554.7524831;-55.06145477294922;6.660682201385498;-47.05961227416992
251;1666364554.7915227;46.976062;7.179694199999999;59.15800094604492;1666364554.9691536;-58.40864562988281;5.646141052246094;-43.983577728271484
252;1666364555.0111217;46.9760838;7.1796669;59.156002044677734;1666364555.176067;-56.423866271972656;3.1410233974456787;-41.174461364746094
253;1666364555.2092538;46.9761063;7.1796393;59.137001037597656;1666364555.3712668;-52.39276123046875;-0.014762946404516697;-40.39760208129883
254;1666364555.4083538;46.976129199999995;7.1796117;59.11100387573242;1666364555.5576823;-52.40655517578125;0.02431497909128666;-41.724430084228516
255;1666364555.5898907;46.976152299999995;7.179583699999999;59.08000183105469;1666364555.7714274;-52.838783264160156;-0.31352317333221436;-41.78493118286133
256;1666364555.8065622;46.976175399999995;7.1795554;59.051002502441406;1666364555.9744341;-52.75189208984375;-0.09519953280687332;-42.031646728515625
257;1666364556.010547;46.9761986;7.1795269;59.025001525878906;1666364556.1823235;-53.14571762084961;-0.07879495620727539;-41.79364013671875
258;1666364556.219413;46.976221699999996;7.1794981;59.018001556396484;1666364556.3931394;-53.503379821777344;0.10962865501642227;-41.72753143310547
259;1666364556.431203;46.9762449;7.1794692;59.02400207519531;1666364556.5990772;-53.30168533325195;0.07185623794794083;-41.5508918762207
260;1666364556.6322634;46.9762681;7.1794402999999996;59.02900314331055;1666364556.7991555;-52.84743881225586;0.22470974922180176;-41.4148063659668
261;1666364556.8401487;46.976291499999995;7.179411;59.02400207519531;1666364556.9992378;-51.608154296875;-1.3727185726165771;-41.20904541015625
262;1666364557.0324216;46.9763149;7.1793815;59.01700210571289;1666364557.2051728;-45.63093948364258;-0.13373544812202454;-41.2673454284668
263;1666364557.2432377;46.9763382;7.179352;59.03400421142578;1666364557.5194442;-34.186214447021484;-0.6758400797843933;-40.37233352661133
264;1666364557.5565312;46.976361;7.1793232;59.053001403808594;1666364557.7117164;-19.83753776550293;0.0313623808324337;-40.48146438598633
265;1666364557.746853;46.976382799999996;7.1792957;59.05400466918945;1666364557.9342444;-4.114738464355469;0.6005111336708069;-39.3715934753418
266;1666364557.9654777;46.9764029;7.1792703;59.04300308227539;1666364558.201672;12.413405418395996;-3.959303379058838;-37.01488494873047
267;1666364558.2338812;46.976420399999995;7.1792485;58.99200439453125;1666364558.4124844;14.437079429626465;-1.2559736967086792;-36.99024200439453
268;1666364558.4446924;46.9764354;7.179229599999999;58.89900207519531;1666364558.7160225;11.919392585754395;4.623283386230469;-41.39015197753906
269;1666364558.748231;46.976448;7.1792137;58.76400375366211;1666364558.9483123;10.177507400512695;2.738825559616089;-40.91549301147461
270;1666364558.9814963;46.976458199999996;7.1792006;58.637001037597656;1666364559.1542447;0.04183555021882057;2.9323439598083496;-42.132774353027344
271;1666364559.1991422;46.9764668;7.179189699999999;58.595001220703125;1666364559.3601825;-4.99735164642334;3.7500853538513184;-42.063697814941406
272;1666364559.413862;46.976474599999996;7.1791803;58.63600158691406;1666364559.5749035;-5.868741989135742;2.2722582817077637;-43.01012420654297
273;1666364559.6090636;46.976481899999996;7.1791719;58.711002349853516;1666364559.7896233;-1.3080905675888062;0.004366028588265181;-42.66685104370117
274;1666364559.829641;46.9764883;7.1791646;58.77400207519531;1666364559.9818943;-6.627834796905518;-1.812925934791565;-42.75482940673828
275;1666364560.0189834;46.9764939;7.1791582;58.8280029296875;1666364560.2044244;7.674066066741943;-1.8696041107177734;-43.62203598022461
276;1666364560.239559;46.9764985;7.1791528;58.87400436401367;1666364560.418167;2.3130154609680176;-3.513518810272217;-45.09425354003906
277;1666364560.4493992;46.9765023;7.1791481;58.906002044677734;1666364560.6260562;10.085199356079102;-2.167410373687744;-45.699790954589844
278;1666364560.659243;46.9765054;7.1791442;58.93800354003906;1666364560.8485842;9.441643714904785;-2.381852149963379;-45.41340255737305
279;1666364560.8788393;46.9765078;7.1791409999999996;58.96200180053711;1666364561.045737;3.7236809730529785;-0.5228975415229797;-45.000221252441406
280;1666364561.0798967;46.976509799999995;7.1791383;58.980003356933594;1666364561.2575283;7.222261428833008;0.0646587386727333;-44.46012878417969
281;1666364561.2907138;46.9765114;7.179136;58.99700164794922;1666364561.4507756;-6.100911617279053;0.06432177871465683;-43.331478118896484
282;1666364561.488841;46.976512799999995;7.1791341;59.018001556396484;1666364561.656711;0.6445443630218506;0.4042970836162567;-43.70355987548828
283;1666364561.6928284;46.9765139;7.1791325;59.02700424194336;1666364561.8519127;-2.9215242862701416;0.11131920665502548;-43.754600524902344
284;1666364561.8831506;46.9765148;7.1791312;59.03200149536133;1666364562.051993;-6.682492733001709;0.35804280638694763;-43.586219787597656
285;1666364562.0949361;46.9765155;7.1791301999999995;59.03600311279297;1666364562.2510958;3.7224745750427246;-0.11678571999073029;-43.14356231689453
286;1666364562.2979462;46.9765162;7.1791293;59.03900146484375;1666364562.4517138;-21.072839736938477;-1.3050874471664429;-43.19315719604492
287;1666364562.483927;46.976517;7.1791282;59.04700469970703;1666364562.64496;-40.229244232177734;2.322901964187622;-51.47246170043945
288;1666364562.6879032;46.9765187;7.179125699999999;59.06700134277344;1666364562.8528473;-56.38901901245117;3.2905635833740234;-52.33401870727539
289;1666364562.88896;46.9765221;7.1791206;59.05600357055664;1666364563.0812314;-46.65126037597656;-3.4655368328094482;-49.41554641723633
290;1666364563.1153936;46.9765272;7.1791123;59.012001037597656;1666364563.2852151;-41.137752532958984;-2.489610195159912;-49.78078079223633
291;1666364563.3310885;46.976533499999995;7.1791013999999995;58.99400329589844;1666364563.4940803;-49.47917175292969;0.5090821385383606;-50.98389434814453
292;1666364563.5272655;46.976540899999996;7.1790883;59.02700424194336;1666364563.7029452;-54.90336608886719;1.3648107051849365;-50.462547302246094
293;1666364563.7380817;46.9765498;7.179072799999999;59.070003509521484;1666364563.917666;-51.06197738647461;-0.29743674397468567;-49.24827194213867
294;1666364563.9567056;46.976560199999994;7.1790549;59.103004455566406;1666364564.1333635;-58.02804183959961;-0.22237014770507812;-49.14685821533203
295;1666364564.1655684;46.976571799999995;7.1790348999999996;59.1400032043457;1666364564.3471062;-53.71941375732422;-2.2096240520477295;-48.78933334350586
296;1666364564.3802893;46.9765845;7.1790131;59.16100311279297;1666364564.560851;-55.70243835449219;-0.6666510701179504;-49.06107711791992
297;1666364564.5950131;46.9765982;7.1789895999999995;59.182003021240234;1666364564.7687378;-54.519493103027344;0.05856119841337204;-49.45746612548828
298;1666364564.8009467;46.9766127;7.1789647;59.19900131225586;1666364564.9736984;-52.87541198730469;-0.15869690477848053;-49.870330810546875
299;1666364565.0176172;46.976627799999996;7.1789388999999995;59.204002380371094;1666364565.1913483;-52.039894104003906;-0.07190094143152237;-49.44942092895508
300;1666364565.2235532;46.9766434;7.1789122999999995;59.2030029296875;1666364565.4148521;-50.88758087158203;0.03347186744213104;-49.6334228515625
301;1666364565.4499915;46.9766595;7.1788849;59.198001861572266;1666364565.6324995;-49.993690490722656;-0.07892140746116638;-49.56947708129883
302;1666364565.6656828;46.976675799999995;7.1788571;59.18700408935547;1666364565.8530767;-49.02146911621094;0.1037064641714096;-49.62980270385742
303;1666364565.8852832;46.976692299999996;7.1788288;59.177001953125;1666364566.0463235;-48.08603286743164;0.012658077292144299;-49.575096130371094
304;1666364566.0834124;46.9767089;7.1788004;59.169002532958984;1666364566.2542126;-47.674800872802734;0.034181997179985046;-49.60636520385742
305;1666364566.2854438;46.976725599999995;7.1787716999999995;59.15800094604492;1666364566.4611228;-47.26242446899414;-0.15991003811359406;-49.42403030395508
306;1666364566.4952826;46.9767422;7.1787433;59.14600372314453;1666364566.671939;-47.26776885986328;-0.19016820192337036;-49.37738037109375
307;1666364566.7236683;46.9767588;7.1787148;59.138004302978516;1666364566.8827562;-46.07047653198242;-0.23379704356193542;-49.45182800292969
308;1666364566.9296072;46.976775599999996;7.1786863;59.13200378417969;1666364567.1062615;-29.48926544189453;2.1260247230529785;-50.52101516723633
309;1666364567.157012;46.9767921;7.1786581;59.1150016784668;1666364567.418581;-18.196035385131836;-0.7256549596786499;-48.22840881347656
310;1666364567.448836;46.976807799999996;7.1786313999999996;59.095001220703125;1666364567.6284199;-5.162609100341797;-1.4145362377166748;-49.68610763549805
311;1666364567.658678;46.976822399999996;7.1786067;59.07400131225586;1666364567.83143;6.789005279541016;-2.114276170730591;-50.84324264526367
312;1666364567.8763242;46.9768352;7.178584799999999;59.051002502441406;1666364568.0373638;2.290262222290039;-2.0407140254974365;-51.22688293457031
313;1666364568.068597;46.9768464;7.1785653;59.02400207519531;1666364568.2345183;-0.8796384334564209;-0.638056218624115;-50.59226989746094
314;1666364568.266729;46.976856;7.1785486;59.006004333496094;1666364568.4463115;-2.3176801204681396;-0.06689635664224625;-51.27798843383789
315;1666364568.4814446;46.976864299999995;7.1785342;59.00300216674805;1666364568.6434615;9.974020004272461;-0.1824805736541748;-52.07710266113281
316;1666364568.6805491;46.976871599999996;7.1785216;59.00300216674805;1666364568.843543;2.790473699569702;-0.30153948068618774;-52.18101501464844
317;1666364568.877702;46.9768779;7.1785108;59.00300216674805;1666364569.0533812;4.510716438293457;-0.358790785074234;-52.6917724609375
318;1666364569.0846305;46.9768835;7.1785014;59.005001068115234;1666364569.363749;-1.8814666271209717;-0.37719494104385376;-51.87808609008789
319;1666364569.4076688;46.9768881;7.1784934;58.99900436401367;1666364569.5687094;-3.7345333099365234;-0.1667023003101349;-51.982383728027344
320;1666364569.6067762;46.9768919;7.1784867;58.99400329589844;1666364569.7814794;1.935376524925232;-0.04517620429396629;-51.64274597167969
321;1666364569.8166153;46.9768952;7.1784811;58.9890022277832;1666364569.9913185;0.6717743873596191;0.12431090325117111;-52.05549621582031
322;1666364570.0371914;46.9768979;7.1784764999999995;58.987003326416016;1666364570.1913981;6.719920635223389;-1.3731114864349365;-52.319793701171875
323;1666364570.219704;46.976900199999996;7.1784726;58.98800277709961;1666364570.390504;6.397129535675049;-0.03670409694314003;-52.7242546081543
324;1666364570.4227118;46.9769022;7.1784693;58.99200439453125;1666364570.5896082;3.3710272312164307;-0.2847529947757721;-52.72575759887695
325;1666364570.6237662;46.9769037;7.178466599999999;58.99100112915039;1666364570.7955487;5.937466621398926;-0.1919737011194229;-52.48095703125
326;1666364570.830682;46.9769052;7.178464099999999;58.99100112915039;1666364571.0014794;-6.123595714569092;-0.08282055705785751;-52.431427001953125
327;1666364571.0346634;46.9769064;7.1784621;58.99500274658203;1666364571.2093701;1.9477730989456177;-0.22948551177978516;-53.0457649230957
328;1666364571.2454789;46.976907499999996;7.1784602;58.99500274658203;1666364571.4221356;-8.575830459594727;-0.9361215829849243;-53.18034362792969
329;1666364571.457273;46.9769083;7.178458699999999;58.99800109863281;1666364571.6192887;1.6503533124923706;0.07466713339090347;-52.74626159667969
330;1666364571.6544256;46.9769091;7.1784574999999995;59.000003814697266;1666364571.8388877;-4.017914772033691;1.1218010187149048;-51.42812728881836
331;1666364571.871097;46.9769097;7.178456499999999;59.00700378417969;1666364572.0418963;9.704047203063965;11.307413101196289;-46.6240234375
332;1666364572.0799725;46.9769103;7.1784561;59.073001861572266;1666364572.2663767;3.872407913208008;11.170038223266602;-41.40190887451172
333;1666364572.3015156;46.976911;7.178457099999999;59.19400405883789;1666364572.4732907;-2.417465925216675;18.561920166015625;-35.94575500488281
334;1666364572.5064778;46.9769119;7.1784593;59.37900161743164;1666364572.669464;-11.008663177490234;32.230552673339844;-29.869400024414062
335;1666364572.7065556;46.976913499999995;7.178463;59.60900115966797;1666364572.9027328;-21.300569534301758;33.1796760559082;-21.316425323486328
336;1666364572.9368935;46.9769164;7.1784685999999995;59.84700393676758;1666364573.110624;-24.504234313964844;24.967185974121094;-6.079699516296387
337;1666364573.1389234;46.9769205;7.178476;60.090003967285156;1666364573.3165555;-30.211990356445312;18.911109924316406;11.084931373596191
338;1666364573.348762;46.976925699999995;7.1784849;60.35400390625;1666364573.5029685;-37.52495193481445;11.681528091430664;29.025529861450195
339;1666364573.5498185;46.976931799999996;7.178495099999999;60.65200424194336;1666364573.7137854;-46.73310852050781;0.38723424077033997;43.7256965637207
340;1666364573.743067;46.9769389;7.1785071;60.9900016784668;1666364573.9236274;-50.001068115234375;-7.771728515625;52.10080337524414
341;1666364573.9529057;46.9769477;7.178520799999999;61.32600402832031;1666364574.1207788;-45.103633880615234;-10.590163230895996;54.16065979003906
342;1666364574.1578684;46.976957899999995;7.1785361;61.644004821777344;1666364574.3315957;-39.7142219543457;-8.517541885375977;50.39490509033203
343;1666364574.3677075;46.9769693;7.1785523;61.94600296020508;1666364574.5355816;-36.86323928833008;-4.915036201477051;47.97364044189453
344;1666364574.5638845;46.9769812;7.1785687;62.233001708984375;1666364574.7415197;-33.10018539428711;-2.371890068054199;47.03929138183594
345;1666364574.7707956;46.9769936;7.1785852;62.51400375366211;1666364574.931835;-30.92579460144043;-0.06130149960517883;46.60200500488281
346;1666364574.9620914;46.977005999999996;7.1786018;62.794002532958984;1666364575.1621716;-30.051998138427734;2.0406363010406494;46.25869369506836
347;1666364575.1943872;46.9770184;7.1786183999999995;63.07400131225586;1666364575.3495624;-28.24496078491211;1.7880007028579712;46.461204528808594
348;1666364575.3807967;46.9770306;7.178635099999999;63.355003356933594;1666364575.5623343;-27.365694046020508;0.8134010434150696;46.69404220581055
349;1666364575.5916126;46.9770426;7.178652;63.6410026550293;1666364575.7604606;-28.028581619262695;0.653434693813324;46.98576354980469
350;1666364575.7946248;46.977054599999995;7.1786689;63.928001403808594;1666364575.9742053;-28.025407791137695;1.2241140604019165;46.1814079284668
351;1666364576.008367;46.9770663;7.178686;64.21600341796875;1666364576.1723316;-27.536853790283203;0.9858073592185974;45.903717041015625
352;1666364576.2055173;46.977078;7.1787033;64.49400329589844;1666364576.398764;-27.553728103637695;0.41873031854629517;45.64682388305664
353;1666364576.4319499;46.977089799999995;7.1787206;64.77100372314453;1666364576.600797;-28.723867416381836;0.5744749307632446;45.39607620239258
354;1666364576.635932;46.9771016;7.1787379;65.0530014038086;1666364576.8135636;-27.539257049560547;0.47191113233566284;45.32724380493164
355;1666364576.8438272;46.9771133;7.1787553;65.34300231933594;1666364577.0092874;-29.728527069091797;0.10773729532957077;45.324710845947266
356;1666364577.0424697;46.977125;7.1787725;65.63600158691406;1666364577.2035072;-29.222375869750977;-0.2556844651699066;45.15219497680664
357;1666364577.253284;46.9771365;7.178789699999999;65.93500518798828;1666364577.421157;-30.149696350097656;-0.34931910037994385;44.942420959472656
358;1666364577.456295;46.9771481;7.1788069;66.23100280761719;1666364577.7315247;-29.955411911010742;-0.7996382117271423;45.30612564086914
359;1666364577.7647097;46.9771597;7.1788241;66.5270004272461;1666364577.9452715;-31.459590911865234;-0.17553557455539703;45.233272552490234
360;1666364577.9755266;46.977171299999995;7.178841299999999;66.82500457763672;1666364578.133639;-20.808298110961914;-0.38533684611320496;44.98393249511719
361;1666364578.1638956;46.9771828;7.1788583;67.11100006103516;1666364578.4479098;-13.944994926452637;2.363149881362915;43.49833679199219
362;1666364578.4840212;46.9771937;7.1788742999999995;67.36700439453125;1666364578.6606796;-3.1088812351226807;-0.9614092707633972;45.0587043762207
363;1666364578.699717;46.977203599999996;7.178889;67.59600067138672;1666364578.8949175;1.404325246810913;0.38809335231781006;45.14291763305664
364;1666364578.9300578;46.977212599999994;7.178902;67.79600524902344;1666364579.0949981;10.455955505371094;0.6664914488792419;45.977718353271484
365;1666364579.134038;46.9772205;7.1789136;67.96600341796875;1666364579.2872703;7.147394180297852;0.7764188647270203;46.78539276123047
366;1666364579.3419256;46.9772274;7.1789236;68.1050033569336;1666364579.4971106;9.647082328796387;0.40237322449684143;47.10489273071289
367;1666364579.530296;46.9772332;7.1789323;68.2280044555664;1666364579.6923118;2.1148998737335205;0.9633984565734863;47.57475662231445
368;1666364579.7323258;46.9772381;7.1789394;68.33300018310547;1666364579.9216712;3.9964020252227783;0.19446125626564026;47.48521041870117
369;1666364579.9499762;46.977242;7.1789454;68.4260025024414;1666364580.1178467;-0.688861072063446;0.2302519828081131;46.73458480834961
370;1666364580.1481028;46.9772451;7.1789502;68.5040054321289;1666364580.3403761;4.194154739379883;-0.0009459531283937395;47.62476348876953
371;1666364580.3696544;46.9772475;7.1789539;68.57400512695312;1666364580.5394788;-3.421780586242676;-0.17559881508350372;48.39921569824219
372;1666364580.572663;46.9772493;7.1789568;68.63200378417969;1666364580.7522473;9.323393821716309;-0.7749682068824768;46.65986251831055
373;1666364580.7912896;46.9772508;7.1789591999999995;68.6820068359375;1666364580.9581847;0.1598353087902069;-0.36309370398521423;45.220458984375
374;1666364580.9874632;46.9772521;7.1789610999999995;68.72200012207031;1666364581.1572878;5.601266860961914;-0.26382333040237427;45.393978118896484
375;1666364581.1904747;46.9772532;7.1789627;68.75800323486328;1666364581.3524876;2.0336198806762695;-0.44737786054611206;45.434730529785156
376;1666364581.3944576;46.9772542;7.1789643;68.79199981689453;1666364581.558429;0.7540087699890137;-1.002539873123169;44.98789978027344
377;1666364581.5935621;46.977255299999996;7.1789657;68.81900024414062;1666364581.7711937;4.0333147048950195;-0.38409656286239624;46.03023147583008
378;1666364581.806328;46.9772562;7.1789669;68.84100341796875;1666364581.9634645;-5.879982948303223;-0.6189629435539246;45.38412094116211
379;1666364581.9976256;46.977256999999994;7.178967999999999;68.86400604248047;1666364582.1703782;0.971422016620636;-0.5037366151809692;45.44990158081055
380;1666364582.209417;46.977257699999996;7.1789689999999995;68.8810043334961;1666364582.3655777;0.12246666103601456;8.252205848693848;46.87852096557617
381;1666364582.3977866;46.9772582;7.1789698;68.89500427246094;1666364582.5734646;0.44839537143707275;13.090370178222656;52.669761657714844
382;1666364582.6037202;46.9772581;7.1789705999999995;68.9020004272461;1666364582.767688;-14.219775199890137;33.26054763793945;59.38642883300781
383;1666364582.8008738;46.977256999999994;7.1789723;68.92400360107422;1666364583.0595145;-24.167509078979492;48.16808319091797;66.703369140625
384;1666364583.090747;46.9772543;7.1789757;68.9260025024414;1666364583.2576423;-34.93255615234375;32.88450241088867;81.24171447753906
385;1666364583.2888732;46.977249699999994;7.178981299999999;68.88500213623047;1666364583.4743154;-39.36944580078125;20.6015625;96.69112396240234
386;1666364583.5055454;46.977243699999995;7.1789893;68.86000061035156;1666364583.6656103;-44.873016357421875;14.710577011108398;107.39009857177734
387;1666364583.6987967;46.9772366;7.1789993999999995;68.86700439453125;1666364583.8734982;-48.3146858215332;8.669827461242676;119.27154541015625
388;1666364583.9086375;46.9772286;7.1790119;68.89100646972656;1666364584.1116416;-52.12737274169922;3.539242744445801;127.19583129882812
389;1666364584.1477535;46.9772192;7.1790267;68.92900085449219;1666364584.318556;-54.743343353271484;-4.014466285705566;133.3766632080078
390;1666364584.3507621;46.9772086;7.1790438;68.98200225830078;1666364584.7070103;-57.6058464050293;-0.3439716100692749;123.02030944824219
391;1666364584.7411635;46.977197;7.1790635;69.01700592041016;1666364584.9236753;-53.527286529541016;9.158868789672852;110.49787139892578
392;1666364584.9588132;46.977184799999996;7.1790857;69.04700469970703;1666364585.1335158;-51.833160400390625;12.90976619720459;113.37944030761719
393;1666364585.1696284;46.9771721;7.1791098;69.0780029296875;1666364585.3365238;-53.46382141113281;5.719215393066406;126.54064178466797
394;1666364585.3833723;46.977158499999994;7.179135199999999;69.09600067138672;1666364585.554173;-51.91267013549805;-1.758610486984253;134.23760986328125
395;1666364585.6000466;46.9771441;7.1791611;69.1030044555664;1666364585.767915;-51.710052490234375;-1.5523639917373657;132.55856323242188
396;1666364585.8010993;46.9771293;7.1791879;69.10600280761719;1666364585.9972777;-50.97182846069336;-0.1084940955042839;130.85374450683594
397;1666364586.029484;46.977114099999994;7.1792155;69.10100555419922;1666364586.1885715;-49.696746826171875;0.807033896446228;130.1515350341797
398;1666364586.224685;46.977098399999996;7.1792435999999995;69.09000396728516;1666364586.3935325;-48.407283782958984;0.5065028667449951;130.41917419433594
399;1666364586.4442844;46.977082499999995;7.179272;69.0770034790039;1666364586.610208;-48.31871032714844;0.6971419453620911;130.24591064453125
400;1666364586.6414387;46.977066199999996;7.1793008;69.06100463867188;1666364586.8180919;-47.3994140625;0.7941110134124756;130.37535095214844
401;1666364586.8512778;46.977049799999996;7.1793296;69.04700469970703;1666364587.0292156;-45.753334045410156;0.9315106272697449;130.40866088867188
402;1666364587.0604472;46.9770332;7.1793586;69.03900146484375;1666364587.2380807;-44.989288330078125;0.5969337224960327;130.49000549316406
403;1666364587.270289;46.9770165;7.1793876;69.03300476074219;1666364587.444992;-37.638614654541016;0.8891027569770813;130.05523681640625
404;1666364587.4820817;46.976999899999996;7.1794164;69.0270004272461;1666364587.658735;-20.075847625732422;0.39552512764930725;132.8031768798828
405;1666364587.691921;46.9769837;7.1794442;69.01399993896484;1666364587.865647;-11.71119499206543;0.14537042379379272;131.8258056640625
406;1666364587.891999;46.9769686;7.1794701;69.0;1666364588.0559723;1.502699851989746;0.1816551387310028;130.3325653076172
407;1666364588.088178;46.976954799999994;7.1794936;68.9780044555664;1666364588.2619035;11.774760246276855;-1.0744032859802246;129.45433044433594
408;1666364588.2960668;46.976943;7.1795139;68.9540023803711;1666364588.4561372;5.079561710357666;-0.11510003358125687;129.2147979736328
409;1666364588.4941914;46.9769327;7.1795314999999995;68.93099975585938;1666364588.6698735;-4.2418437004089355;0.9580750465393066;129.07534790039062
410;1666364588.713797;46.976924;7.1795466999999995;68.92500305175781;1666364588.881665;-5.928665637969971;0.4174234867095947;128.3513946533203
411;1666364588.909972;46.9769164;7.1795596999999995;68.92500305175781;1666364589.0905294;3.637058973312378;-0.32965216040611267;128.06594848632812
412;1666364589.1198115;46.976909899999995;7.1795709;68.92300415039062;1666364589.2730417;1.3455424308776855;-0.7244848012924194;127.58012390136719
413;1666364589.3101306;46.9769043;7.1795804;68.92000579833984;1666364589.4965458;9.959173202514648;0.5024296641349792;128.4979705810547
414;1666364589.5346088;46.9768994;7.1795887;68.92000579833984;1666364589.6898017;0.5888251662254333;-0.30600506067276;128.5277099609375
415;1666364589.7249324;46.9768951;7.1795959;68.91900634765625;1666364589.9025624;5.860602378845215;0.8040599822998047;128.60203552246094
416;1666364589.9396489;46.9768914;7.1796022;68.91500091552734;1666364590.1192327;-5.121927738189697;-0.3405506908893585;127.6343002319336
417;1666364590.1504686;46.9768882;7.1796074;68.91800689697266;1666364590.3144343;2.5585522651672363;-0.3152613639831543;127.36165618896484
418;1666364590.3515215;46.976885599999996;7.1796117;68.91800689697266;1666364590.5193963;-8.039565086364746;-0.8209155201911926;127.14104461669922
419;1666364590.5477;46.9768834;7.1796152;68.91900634765625;1666364590.716547;4.4392595291137695;-0.14604030549526215;126.54940795898438
