;pos_time;latitude;longitude;altitude;alt_time;pitch;roll;yaw
0;1666365448.0868366;46.9755343;7.180356199999999;0.0020000000949949026;1666365448.1047204;0.25894391536712646;-0.3676200807094574;90.22248077392578
1;1666365448.321907;46.9755343;7.1803563;0.0010000000474974513;1666365448.3336196;0.05079131945967674;-0.4603588879108429;90.34366607666016
2;1666365448.5337026;46.9755343;7.1803563;0.0;1666365448.5512736;0.4921327233314514;-0.44115737080574036;90.3318099975586
3;1666365448.7406116;46.9755343;7.1803564;-0.0010000000474974513;1666365448.75818;0.007394133135676384;-0.339031845331192;90.38124084472656
4;1666365448.9597526;46.9755342;7.180356499999999;0.0;1666365448.9763427;0.0485403835773468;-0.44988319277763367;90.42196655273438
5;1666365449.1920407;46.9755343;7.1803564;-0.003000000026077032;1666365449.202777;0.032038237899541855;-0.20352612435817719;90.35659790039062
6;1666365449.3796992;46.9755343;7.180356199999999;-0.004000000189989805;1666365449.4050753;0.07179422676563263;-0.3350639045238495;90.34982299804688
7;1666365449.5934436;46.9755343;7.1803561;-0.007000000216066837;1666365449.608085;0.06305638700723648;-0.14777690172195435;90.28164672851562
8;1666365449.7935243;46.9755343;7.1803558999999995;-0.0010000000474974513;1666365449.8120685;0.3710213601589203;-0.11832314729690552;90.36798858642578
9;1666365449.9936035;46.9755343;7.1803558;0.0010000000474974513;1666365450.0082436;0.4757014214992523;-0.16668890416622162;90.38220977783203
10;1666365450.2258937;46.9755344;7.1803557;0.0020000000949949026;1666365450.2395568;0.4370022416114807;0.127159982919693;90.43399047851562
11;1666365450.4210937;46.9755344;7.1803557;0.0;1666365450.4415882;0.2728419005870819;0.046549323946237564;90.57846069335938
12;1666365450.66119;46.9755344;7.1803558;-0.004000000189989805;1666365450.662166;0.22040121257305145;0.18527677655220032;90.34937286376953
13;1666365450.8505354;46.9755344;7.1803558;0.0;1666365450.8739562;0.04407940059900284;-0.06375300139188766;90.5101547241211
14;1666365451.0808723;46.9755344;7.1803558999999995;-0.004000000189989805;1666365451.1052704;-0.07974771410226822;0.14323711395263672;90.42728424072266
15;1666365451.2897327;46.9755344;7.1803558999999995;-0.0020000000949949026;1666365451.3082778;0.08370852470397949;0.05692075937986374;90.45492553710938
16;1666365451.483959;46.975534499999995;7.1803558;-0.0010000000474974513;1666365451.5015266;0.18632018566131592;-0.047372620552778244;90.48756408691406
17;1666365451.9077427;46.975534499999995;7.1803558;-0.004000000189989805;1666365451.9233584;0.18805049359798431;0.0745696872472763;90.31869506835938
18;1666365452.1088011;46.975534499999995;7.1803558;-0.004000000189989805;1666365452.123438;0.03133643791079521;-0.007608332671225071;90.31230926513672
19;1666365452.3362074;46.975534599999996;7.1803557;-0.006000000052154064;1666365452.3498724;0.02587721310555935;0.2426297813653946;90.38148498535156
20;1666365452.5577621;46.975534599999996;7.1803557;-0.00800000037997961;1666365452.57435;0.1440635770559311;-0.22976629436016083;90.46644592285156
21;1666365452.7988307;46.975534599999996;7.1803557;0.0;1666365452.8115191;0.021318532526493073;-0.008403709158301353;90.39496612548828
22;1666365453.0467372;46.975534499999995;7.1803558;-0.0010000000474974513;1666365453.0604029;-0.005178290419280529;0.13587389886379242;90.376708984375
23;1666365453.2531912;46.975534499999995;7.1803558;0.0;1666365453.2756362;-0.042846523225307465;0.00485596526414156;90.20539855957031
24;1666365453.5737715;46.975534499999995;7.1803558;0.0;1666365453.592317;0.274448424577713;0.5502054691314697;90.29559326171875
25;1666365453.8343785;46.9755344;7.1803558;0.003000000026077032;1666365453.8441243;0.2836551070213318;0.7922825813293457;90.27082061767578
26;1666365454.040925;46.9755344;7.1803558;0.004000000189989805;1666365454.0584965;0.10995596647262573;1.618876576423645;90.11190795898438
27;1666365454.243469;46.9755343;7.1803558;0.004000000189989805;1666365454.2551825;0.220824733376503;1.0838502645492554;91.15280151367188
28;1666365454.4523327;46.9755343;7.1803558;0.009000000543892384;1666365454.465998;0.11790938675403595;-0.40257275104522705;91.94226837158203
29;1666365454.6436324;46.9755343;7.1803558;0.00800000037997961;1666365454.6631498;0.07444355636835098;-0.13315629959106445;91.9652099609375
30;1666365454.8593292;46.9755344;7.1803557;0.007000000216066837;1666365454.8739653;0.07418318837881088;-0.09240113198757172;92.0533676147461
31;1666365455.0594075;46.9755344;7.1803557;0.00800000037997961;1666365455.0730689;-0.06085679680109024;-0.12377557158470154;91.88007354736328
32;1666365455.2672956;46.9755344;7.1803557;0.010000000707805157;1666365455.283888;-1.1692694425582886;-0.5039318203926086;91.96753692626953
33;1666365455.4605956;46.975534499999995;7.1803558;0.020000001415610313;1666365455.4771857;-0.8369797468185425;-2.8608615398406982;91.24639892578125
34;1666365455.6709528;46.9755344;7.1803558;0.04400000348687172;1666365455.6855946;8.709379196166992;-0.39898058772087097;98.86829376220703
35;1666365455.8964088;46.9755344;7.1803555999999995;0.09700000286102295;1666365455.911051;-4.406548500061035;-2.9597883224487305;99.70855712890625
36;1666365456.0916114;46.975534599999996;7.1803555;0.16900001466274261;1666365456.1062489;-1.1456655263900757;-0.08875046670436859;97.38471221923828
37;1666365456.302426;46.9755347;7.1803554;0.24800001084804535;1666365456.313162;-5.706942558288574;0.08074759691953659;95.78739929199219
38;1666365456.495674;46.9755349;7.1803554;0.3410000205039978;1666365456.5142176;-3.6133577823638916;-0.11798922717571259;94.97535705566406
39;1666365456.6938019;46.975535;7.1803558999999995;0.45500001311302185;1666365456.7113738;-0.8720114827156067;0.8211299180984497;94.74815368652344
40;1666365456.9251158;46.975535099999995;7.180356499999999;0.5770000219345093;1666365456.9456122;-0.7603549957275391;0.4070323407649994;94.46348571777344
41;1666365457.1242177;46.975535199999996;7.180357;0.7140000462532043;1666365457.1456902;1.2071561813354492;0.4729461669921875;94.37173461914062
42;1666365457.3233225;46.975535199999996;7.1803573;0.8690000176429749;1666365457.3340583;3.614290952682495;0.7916801571846008;93.870361328125
43;1666365457.5341406;46.975535099999995;7.1803574;1.034000039100647;1666365457.5458605;5.681142330169678;0.6761854290962219;93.20010375976562
44;1666365457.7527652;46.975535099999995;7.1803573;1.2170000076293945;1666365457.773259;6.092308521270752;0.26180514693260193;92.23114776611328
45;1666365457.9547951;46.975535;7.180357;1.4070000648498535;1666365457.968459;4.996181964874268;-0.375736802816391;90.96224975585938
46;1666365458.2475958;46.9755349;7.1803563;1.6010000705718994;1666365458.262236;1.8007233142852783;-0.3954022228717804;92.7569580078125
47;1666365458.5482042;46.9755348;7.1803555;1.7970000505447388;1666365458.5657754;-0.054635994136333466;-0.1790439486503601;91.51812744140625
48;1666365458.771709;46.9755348;7.1803548;1.9940000772476196;1666365458.791229;-5.538806438446045;-0.4473958909511566;90.8978271484375
49;1666365458.9825246;46.9755348;7.180354299999999;2.198000192642212;1666365459.000094;-4.4109015464782715;-0.4800952970981598;90.9859390258789
50;1666365459.2011483;46.9755348;7.1803539999999995;2.4010000228881836;1666365459.2275014;-5.069385528564453;-0.08835454285144806;90.95944213867188
51;1666365459.416845;46.9755348;7.1803539999999995;2.5980000495910645;1666365459.440269;-6.4865312576293945;-0.14933882653713226;90.9371566772461
52;1666365459.6510856;46.9755348;7.1803544;2.7970001697540283;1666365459.6657257;-2.148789882659912;0.15146206319332123;90.63553619384766
53;1666365459.860925;46.9755347;7.1803548;2.998000144958496;1666365459.8804457;-0.5991340279579163;-0.24831801652908325;90.99910736083984
54;1666365460.0776;46.9755347;7.180355199999999;3.196000099182129;1666365460.1019979;0.36644089221954346;0.06892707943916321;90.86837768554688
55;1666365460.2864645;46.9755347;7.1803555999999995;3.4000000953674316;1666365460.2981732;4.85476541519165;-0.39634573459625244;90.91937255859375
56;1666365460.494866;46.9755348;7.1803558999999995;3.6060001850128174;1666365460.5153587;3.688210964202881;-0.26953238248825073;90.29074096679688
57;1666365460.6866791;46.9755348;7.1803561;3.805000066757202;1666365460.699368;3.894911766052246;0.22061997652053833;89.96038818359375
58;1666365460.903354;46.9755348;7.1803558999999995;4.008000373840332;1666365460.9218962;4.5123982429504395;0.10657998919487;90.18553161621094
59;1666365461.0966024;46.9755348;7.1803555;4.218000411987305;1666365461.108312;-0.9391745328903198;-0.22022901475429535;90.4640884399414
60;1666365461.386473;46.9755348;7.1803551;4.430000305175781;1666365461.3991592;0.8328351378440857;-0.26031219959259033;90.87665557861328
61;1666365461.5972903;46.9755348;7.1803547;4.642000198364258;1666365461.6070483;-5.893852233886719;0.3307351768016815;90.9047622680664
62;1666365461.7984807;46.9755348;7.1803545;4.8560004234313965;1666365461.8062875;-3.781097650527954;-0.11564207077026367;91.11211395263672
63;1666365461.9947877;46.9755348;7.1803545;5.063000202178955;1666365462.0074759;-5.234372615814209;0.06431425362825394;90.68900299072266
64;1666365462.2134116;46.9755348;7.180354899999999;5.275000095367432;1666365462.2290313;-3.0567731857299805;0.07857393473386765;90.5369644165039
65;1666365462.5335412;46.9755348;7.1803554;5.492000102996826;1666365462.5511098;0.5197775959968567;0.24571552872657776;90.88005828857422
66;1666365462.7507954;46.9755348;7.1803558;5.711000442504883;1666365462.7634869;0.5779815912246704;-0.13369840383529663;91.3937759399414
67;1666365462.981657;46.9755348;7.180356199999999;5.924000263214111;1666365462.9923918;3.935906171798706;0.2958340644836426;91.29306030273438
68;1666365463.1778321;46.9755348;7.1803564;6.13800048828125;1666365463.19052;5.0842461585998535;-0.085210420191288;90.72338104248047
69;1666365463.3866978;46.9755347;7.1803566;6.3520002365112305;1666365463.4032903;4.337256908416748;-0.17423084378242493;90.525634765625
70;1666365463.5984905;46.9755347;7.1803566;6.560000419616699;1666365463.6258206;5.37251615524292;-0.13047023117542267;90.2686996459961
71;1666365463.8415146;46.9755347;7.1803563;6.771000385284424;1666365463.8512733;2.2858657836914062;-0.2573319375514984;90.32025146484375
72;1666365464.0513537;46.9755347;7.1803558999999995;6.988000392913818;1666365464.0601375;0.3645143210887909;-0.26972728967666626;90.68032836914062
73;1666365464.2592423;46.975534599999996;7.1803555999999995;7.205000400543213;1666365464.2807128;-2.3679866790771484;0.09263630956411362;90.95836639404297
74;1666365464.6990185;46.975534599999996;7.180355199999999;7.425000190734863;1666365464.7029264;-5.552526950836182;-0.318093478679657;90.9052963256836
75;1666365464.9030042;46.975534599999996;7.180355;7.64900016784668;1666365464.9195964;-4.267390251159668;0.24540378153324127;90.6026611328125
76;1666365465.1305208;46.975534599999996;7.180354899999999;7.866000175476074;1666365465.1461382;-4.7976274490356445;-0.12317699939012527;90.537353515625
77;1666365465.3315766;46.975534599999996;7.180355199999999;8.084000587463379;1666365465.3423152;-2.978658437728882;-0.07430048286914825;90.52721405029297
78;1666365465.547795;46.975534499999995;7.1803555;8.307000160217285;1666365465.5546272;1.9938836097717285;-0.45489558577537537;90.99605560302734
79;1666365465.802528;46.975534499999995;7.1803558;8.530000686645508;1666365465.8249784;0.6058402061462402;0.05407574027776718;91.37278747558594
80;1666365466.0143201;46.975534499999995;7.180356199999999;8.756000518798828;1666365466.0250583;5.7027153968811035;-0.32225367426872253;91.21934509277344
81;1666365466.230017;46.975534499999995;7.1803564;8.984000205993652;1666365466.2407525;3.533247232437134;-0.48705506324768066;90.458251953125
82;1666365466.4410515;46.975534499999995;7.180356499999999;9.20300006866455;1666365466.4547112;3.42529034614563;0.16234147548675537;90.29344177246094
83;1666365466.6806908;46.975534499999995;7.180356499999999;9.427000045776367;1666365466.6943512;4.1993842124938965;-0.09421567618846893;90.43791198730469
84;1666365466.9032993;46.975534499999995;7.180356499999999;9.657000541687012;1666365466.9169645;-0.8585670590400696;-0.39695945382118225;90.91584777832031
85;1666365467.1419652;46.975534499999995;7.1803563;9.88700008392334;1666365467.1546502;0.17543084919452667;-0.6559271216392517;91.15511322021484
86;1666365467.3469236;46.975534499999995;7.180356199999999;10.118000030517578;1666365467.365466;-1.2149375677108765;0.2899743914604187;90.88641357421875
87;1666365467.584121;46.975534499999995;7.180356;10.382000923156738;1666365467.5977857;-4.221741199493408;-0.868933379650116;90.82821655273438
88;1666365467.8193383;46.975534499999995;7.1803558;10.704000473022461;1666365467.833001;-5.714729309082031;-0.22908754646778107;91.14810180664062
89;1666365468.0353363;46.975534499999995;7.1803558;11.039000511169434;1666365468.051926;-3.121647834777832;-0.9442026019096375;90.98881530761719
90;1666365468.2451766;46.975534599999996;7.1803561;11.386000633239746;1666365468.2627425;-2.9279837608337402;-0.034329481422901154;90.73106384277344
91;1666365468.4901533;46.975534599999996;7.180356499999999;11.730000495910645;1666365468.4755116;-0.3847092092037201;-0.08749377727508545;90.80109405517578
92;1666365468.687303;46.975534599999996;7.180356799999999;12.074000358581543;1666365468.6990159;3.4727323055267334;-0.1212206557393074;90.86307525634766
93;1666365468.9195912;46.9755347;7.180357099999999;12.41200065612793;1666365468.9371598;4.145808696746826;0.1427919864654541;90.5864028930664
94;1666365469.1518798;46.9755347;7.1803573;12.743000984191895;1666365469.1616404;5.301567077636719;-0.020751800388097763;90.4759750366211
95;1666365469.355865;46.9755347;7.1803573;13.0600004196167;1666365469.3753848;4.948948860168457;0.05677909404039383;90.38147735595703
96;1666365469.5637546;46.9755347;7.180357099999999;13.379000663757324;1666365469.5774157;2.39568829536438;-0.04015616327524185;90.62045288085938
97;1666365469.7648087;46.9755347;7.1803569;13.701000213623047;1666365469.7853034;4.216652870178223;-0.528662919998169;90.91910552978516
98;1666365470.1669245;46.9755347;7.1803566;14.021000862121582;1666365470.1844902;-2.347146511077881;-0.21994063258171082;91.16950225830078
99;1666365470.4040887;46.9755347;7.1803564;14.3410005569458;1666365470.4216568;-0.7089971303939819;-0.12642037868499756;90.94799041748047
100;1666365470.6110005;46.9755347;7.1803561;14.659000396728516;1666365470.6246645;-5.6255106925964355;-0.4872787296772003;90.88047790527344
101;1666365470.8237686;46.9755347;7.180356;14.968000411987305;1666365470.8413377;-3.4441030025482178;0.14423730969429016;90.64035034179688
102;1666365471.0482502;46.9755347;7.1803561;15.285000801086426;1666365471.0599616;-3.432309150695801;-0.1834341138601303;90.58826446533203
103;1666365471.2541895;46.9755347;7.1803564;15.606000900268555;1666365471.2639475;-0.3544776439666748;-0.34290313720703125;90.61068725585938
104;1666365471.455242;46.9755347;7.1803566;15.928000450134277;1666365471.4728098;1.2595103979110718;0.24912214279174805;90.34072875976562
105;1666365471.6875324;46.9755348;7.180356799999999;16.25;1666365471.7002175;3.4578771591186523;0.2158747762441635;90.20792388916016
106;1666365471.88761;46.9755348;7.180356799999999;16.571001052856445;1666365471.9003015;5.051118850708008;0.19770920276641846;90.11991119384766
107;1666365472.0945218;46.9755348;7.180356799999999;16.891000747680664;1666365472.1130679;4.6269001960754395;-0.275094211101532;90.42115020751953
108;1666365472.3004577;46.9755348;7.1803567;17.19900131225586;1666365472.3375473;1.9903361797332764;0.2664000391960144;90.63201904296875
109;1666365472.5278676;46.9755347;7.180356499999999;17.510000228881836;1666365472.5415304;2.899658441543579;-0.3700754940509796;90.91510772705078
110;1666365472.7347786;46.9755347;7.1803563;17.82900047302246;1666365472.7494218;-0.36729180812835693;-0.1357664167881012;90.72811889648438
111;1666365472.9377873;46.9755347;7.1803561;18.14900016784668;1666365472.9514556;-1.4833120107650757;-0.04916908219456673;90.64378356933594
112;1666365473.1505558;46.9755347;7.1803558999999995;18.47100067138672;1666365473.1690989;-3.942247152328491;0.10773718357086182;91.01212310791016
113;1666365473.3769882;46.975534599999996;7.1803557;18.793001174926758;1666365473.3926046;-4.279022216796875;-0.1650296002626419;91.05591583251953
114;1666365473.6034207;46.975534599999996;7.1803555999999995;19.10300064086914;1666365473.6170862;-3.7133073806762695;-0.15630176663398743;91.10005187988281
115;1666365473.8288755;46.9755347;7.1803557;19.422000885009766;1666365473.8405879;-2.353670120239258;-0.06574321538209915;90.99358367919922
116;1666365474.0299346;46.9755347;7.1803558999999995;19.7450008392334;1666365474.0426195;-0.6360510587692261;-0.31063881516456604;90.91206359863281
117;1666365474.2505116;46.9755347;7.1803563;20.07400131225586;1666365474.2641716;3.359095811843872;0.36708176136016846;91.1063003540039
118;1666365474.4839022;46.9755347;7.180356499999999;20.4010009765625;1666365474.4961252;4.7507100105285645;0.07437954097986221;91.20484924316406
119;1666365474.6918428;46.9755347;7.1803566;20.72800064086914;1666365474.7103882;5.323130130767822;0.022855263203382492;91.0540771484375
120;1666365474.9231546;46.9755347;7.1803566;21.03900146484375;1666365474.9348667;4.195708274841309;0.07574190944433212;90.7523193359375
121;1666365475.1271374;46.9755347;7.1803563;21.35900115966797;1666365475.1398294;2.1242172718048096;-0.013111766427755356;90.6398696899414
122;1666365475.3360023;46.9755347;7.1803558999999995;21.678001403808594;1666365475.3496683;-0.4355261027812958;0.10958720743656158;90.5478744506836
123;1666365475.5341291;46.9755347;7.1803555999999995;22.00400161743164;1666365475.548771;-1.957766056060791;-0.33871814608573914;90.86328887939453
124;1666365475.8610897;46.9755347;7.1803552999999996;22.332000732421875;1666365475.8737776;-3.095874309539795;-0.13405263423919678;90.95075225830078
125;1666365476.071908;46.9755347;7.1803551;22.659000396728516;1666365476.0904531;-6.1702561378479;-0.26574453711509705;91.08011627197266
126;1666365476.2885787;46.9755348;7.180355;22.970001220703125;1666365476.3012664;-3.897941827774048;-0.1274288147687912;91.147216796875
127;1666365476.481827;46.9755348;7.1803551;23.293001174926758;1666365476.5023255;-3.127467632293701;0.21093246340751648;91.23342895507812
128;1666365476.723875;46.9755348;7.1803554;23.62200164794922;1666365476.7394931;-1.9997587203979492;-0.03399865701794624;91.20108795166016
129;1666365476.939576;46.9755348;7.1803557;23.951000213623047;1666365476.9522595;1.4739691019058228;0.10024809837341309;90.63229370117188
130;1666365477.1411486;46.9755348;7.180356;24.280000686645508;1666365477.1577425;1.1015304327011108;0.2320098876953125;90.33526611328125
131;1666365477.3423817;46.9755348;7.180356199999999;24.606000900268555;1666365477.358979;5.577554225921631;0.22452837228775024;90.09964752197266
132;1666365477.5766218;46.9755348;7.1803564;24.934001922607422;1666365477.5932155;5.168857574462891;-0.021505001932382584;90.34127044677734
133;1666365477.8001268;46.9755348;7.1803564;25.242000579833984;1666365477.8118396;3.7057363986968994;-0.03578967601060867;90.3958740234375
134;1666365478.0255828;46.9755348;7.180356199999999;25.558000564575195;1666365478.0392466;2.3110132217407227;-0.21571943163871765;90.82738494873047
135;1666365478.2637272;46.9755347;7.1803558999999995;25.881000518798828;1666365478.2793427;-0.926757276058197;-0.46981945633888245;90.70329284667969
136;1666365478.4887245;46.9755348;7.1803554;26.20600128173828;1666365478.505315;-1.51582670211792;0.35414862632751465;90.75635528564453
137;1666365478.6907573;46.9755348;7.1803551;26.532001495361328;1666365478.7122264;-5.601875305175781;-0.4336688816547394;90.89676666259766
138;1666365478.9123118;46.9755348;7.1803548;26.858001708984375;1666365478.9279234;-5.660504341125488;0.6451966166496277;90.77557373046875
139;1666365479.1533866;46.9755348;7.1803547;27.166000366210938;1666365479.1660702;-4.145139694213867;0.04546498507261276;90.85964965820312
140;1666365479.3798132;46.9755348;7.180355;27.48600196838379;1666365479.3915234;-1.7758369445800781;-0.1368938684463501;91.34168243408203
141;1666365479.604292;46.9755348;7.1803552999999996;27.814001083374023;1666365479.6130748;-0.4273456037044525;-0.18612849712371826;91.4713363647461
142;1666365479.8326757;46.9755348;7.1803557;28.144001007080078;1666365479.8443897;3.909026861190796;0.16675449907779694;91.23566436767578
143;1666365480.0473952;46.9755349;7.180356;28.47500228881836;1666365480.0620427;3.9807634353637695;0.4540465772151947;91.01331329345703
144;1666365480.2787085;46.9755349;7.180356199999999;28.804000854492188;1666365480.294324;5.5500078201293945;0.4092811942100525;91.0102767944336
145;1666365480.5232277;46.9755349;7.1803563;29.110000610351562;1666365480.532009;4.337747097015381;0.2501367926597595;90.89168548583984
146;1666365480.7242818;46.9755349;7.180356199999999;29.42500114440918;1666365480.7423637;2.3507208824157715;0.24287565052509308;90.70126342773438
147;1666365480.9629428;46.9755348;7.1803561;29.746002197265625;1666365480.974652;0.6068484783172607;0.04689455032348633;90.77872467041016
148;1666365481.1591172;46.9755348;7.1803558999999995;30.069002151489258;1666365481.1835148;-2.3543131351470947;0.04423656314611435;90.93214416503906
149;1666365481.3777401;46.9755348;7.1803558;30.39200210571289;1666365481.3943353;-1.5243885517120361;-0.024708520621061325;91.04933166503906
150;1666365481.6100302;46.9755348;7.1803557;30.716001510620117;1666365481.6275978;-4.991396903991699;0.17698809504508972;91.14205932617188
151;1666365481.824819;46.9755347;7.1803555999999995;31.03900146484375;1666365481.842386;-3.480710029602051;-0.23821254074573517;91.31145477294922
152;1666365482.022948;46.9755347;7.1803555;31.339000701904297;1666365482.03954;-3.339500665664673;-0.2556687891483307;91.09656524658203
153;1666365482.2484047;46.9755347;7.1803555999999995;31.652002334594727;1666365482.26109;-1.4059056043624878;0.13239653408527374;90.81327819824219
154;1666365482.4514108;46.9755347;7.1803558999999995;31.974000930786133;1666365482.4680054;1.2140345573425293;0.1251489818096161;90.57128143310547
155;1666365482.6602752;46.9755347;7.1803561;32.30000305175781;1666365482.6768692;2.705625057220459;0.3064429759979248;90.30274200439453
156;1666365482.896467;46.9755347;7.180356199999999;32.625;1666365482.9120848;5.183772087097168;0.33911165595054626;90.22601318359375
157;1666365483.1150904;46.9755347;7.1803563;32.94900131225586;1666365483.1326597;4.146790981292725;0.05442776903510094;90.24872589111328
158;1666365483.3385954;46.9755347;7.1803564;33.25300216674805;1666365483.352259;4.595113277435303;-0.038447774946689606;90.41913604736328
159;1666365483.5803955;46.9755347;7.180356199999999;33.56999969482422;1666365483.5921082;3.1968142986297607;-0.0715097188949585;90.77904510498047
160;1666365483.7873087;46.9755347;7.180356;33.895999908447266;1666365483.8029273;2.044520139694214;0.08828466385602951;90.75505828857422
161;1666365483.9932454;46.9755347;7.1803557;34.22300338745117;1666365484.0049574;-0.8689348101615906;0.12440225481987;90.8484878540039
162;1666365484.2022808;46.9755347;7.1803554;34.55400085449219;1666365484.2139933;-3.7751681804656982;-0.03516405448317528;90.92422485351562
163;1666365484.4111443;46.9755347;7.1803551;34.88300323486328;1666365484.4267619;-4.2707366943359375;0.03257611393928528;91.11427307128906
164;1666365484.6484656;46.9755347;7.180355;35.189002990722656;1666365484.665055;-5.457359313964844;-0.21844853460788727;91.42312622070312
165;1666365484.8651743;46.9755348;7.180355199999999;35.505001068115234;1666365484.8866112;-2.7694311141967773;-0.07498104125261307;91.54190063476562
166;1666365485.0584207;46.9755348;7.1803555;35.82600021362305;1666365485.0925741;-1.5097469091415405;0.38031288981437683;91.35237121582031
167;1666365485.3042498;46.9755348;7.1803558;36.15400314331055;1666365485.318891;2.486097812652588;-0.18459416925907135;91.18926239013672
168;1666365485.5166395;46.9755349;7.1803561;36.48400115966797;1666365485.5342083;3.322291135787964;0.16043809056282043;90.9374771118164
169;1666365485.7354977;46.9755349;7.1803564;36.81300354003906;1666365485.7520902;4.8498406410217285;0.6180946826934814;90.82394409179688
170;1666365485.9293122;46.9755349;7.180356499999999;37.138999938964844;1666365485.9410245;5.044065952301025;0.3551408052444458;90.79210662841797
171;1666365486.1274445;46.9755348;7.180356499999999;37.43800354003906;1666365486.1576986;3.7416512966156006;0.13358347117900848;90.99596405029297
172;1666365486.3685148;46.9755348;7.1803563;37.75100326538086;1666365486.378274;2.763113498687744;-0.08904991298913956;91.2271499633789
173;1666365486.5695784;46.9755348;7.180356;38.070003509521484;1666365486.5851862;0.014097122475504875;0.3139965534210205;91.50804138183594
174;1666365486.775505;46.9755349;7.1803557;38.39200210571289;1666365486.7901485;-0.6464610695838928;0.0908234491944313;91.41913604736328
175;1666365487.0087729;46.9755349;7.1803554;38.71500015258789;1666365487.0273166;-5.851424694061279;0.2941131889820099;91.15658569335938
176;1666365487.308408;46.9755349;7.1803552999999996;39.04100036621094;1666365487.323045;-2.1348626613616943;-0.049471355974674225;90.94268035888672
177;1666365487.5051644;46.9755348;7.180355199999999;39.3380012512207;1666365487.5217588;-4.911278247833252;0.264498233795166;90.95878601074219
178;1666365487.725746;46.9755348;7.1803554;39.64800262451172;1666365487.7374556;-3.615985155105591;0.09312734007835388;90.83740234375
179;1666365487.954649;46.9755348;7.1803557;39.96800231933594;1666365487.9712403;-1.407954216003418;0.4974912703037262;90.96929168701172
180;1666365488.1664414;46.9755348;7.1803558999999995;40.2920036315918;1666365488.1810806;2.6956396102905273;0.05869754031300545;90.93961334228516
181;1666365488.3889706;46.9755348;7.1803561;40.617000579833984;1666365488.4045863;1.295119047164917;0.5685644149780273;91.12226867675781
182;1666365488.588074;46.9755348;7.180356199999999;40.94300079345703;1666365488.598809;5.254209995269775;0.06797172129154205;91.06399536132812
183;1666365488.811164;46.9755348;7.180356199999999;41.26900100708008;1666365488.8258014;3.016209602355957;0.046303246170282364;90.84600830078125
184;1666365489.0249064;46.9755347;7.180356199999999;41.56800079345703;1666365489.0385728;2.983933925628662;0.22655104100704193;90.58030700683594
185;1666365489.2308452;46.9755347;7.180356;41.88800048828125;1666365489.2386506;2.7246549129486084;-0.21511311829090118;90.61337280273438
186;1666365489.4231145;46.9755347;7.1803558;42.195003509521484;1666365489.4387312;-1.2700746059417725;-0.1634051501750946;90.66438293457031
187;1666365489.640763;46.9755347;7.1803555;42.518001556396484;1666365489.6534567;-1.5899336338043213;-0.09968534111976624;90.65623474121094
188;1666365489.8668623;46.9755347;7.180355199999999;42.8390007019043;1666365489.882481;-4.919429302215576;0.31638821959495544;90.43109893798828
189;1666365490.059134;46.9755347;7.180355;43.16400146484375;1666365490.0708458;-4.1368279457092285;0.0481889545917511;90.4421615600586
190;1666365490.2748346;46.9755347;7.180354899999999;43.46200180053711;1666365490.2855694;-5.001572608947754;0.1480710804462433;90.53266906738281
191;1666365490.4622223;46.9755347;7.180355199999999;43.775001525878906;1666365490.47589;-2.418966054916382;0.048108942806720734;90.7648696899414
192;1666365490.668159;46.9755347;7.1803555;44.10000228881836;1666365490.689632;-1.0525108575820923;0.4658261835575104;90.84241485595703
193;1666365490.9039009;46.9755348;7.1803558999999995;44.42400360107422;1666365490.917565;1.7109365463256836;0.06457243114709854;90.82805633544922
194;1666365491.1108117;46.9755348;7.1803561;44.74800109863281;1666365491.1225252;3.6319892406463623;0.28844761848449707;90.87333679199219
195;1666365491.3333414;46.9755348;7.1803564;45.07600402832031;1666365491.3392;5.166398048400879;0.07258348166942596;90.84832763671875
196;1666365491.5285406;46.9755347;7.1803564;45.37700271606445;1666365491.5412283;3.123149871826172;0.0364689975976944;90.8480453491211
197;1666365491.835007;46.9755348;7.180356199999999;45.695003509521484;1666365491.8476923;4.652268409729004;0.0544244647026062;90.7028579711914
198;1666365492.0389893;46.9755348;7.1803558999999995;46.01900100708008;1666365492.0575342;0.2798283100128174;0.28803694248199463;90.9662094116211
199;1666365492.252734;46.9755348;7.1803557;46.349002838134766;1666365492.2703035;-1.7907239198684692;0.19683010876178741;90.94561767578125
200;1666365492.4420798;46.9755348;7.1803554;46.67500305175781;1666365492.4557443;-3.6714301109313965;0.3098335266113281;91.01422882080078
201;1666365492.655825;46.9755348;7.1803552999999996;47.000003814697266;1666365492.675345;-3.9169809818267822;0.2632511258125305;91.27364349365234
202;1666365492.8519988;46.9755348;7.1803552999999996;47.32400131225586;1666365492.8656611;-4.769083499908447;0.27483758330345154;91.17306518554688
203;1666365493.0520797;46.9755347;7.1803554;47.617000579833984;1666365493.0686696;-3.1506965160369873;0.01007706020027399;90.84100341796875
204;1666365493.2599676;46.9755347;7.1803555999999995;47.928001403808594;1666365493.2716775;-1.9328168630599976;0.0331093966960907;90.5852279663086
205;1666365493.4600484;46.9755347;7.1803558;48.25200271606445;1666365493.4737098;-0.49481600522994995;0.35617849230766296;90.57456970214844
206;1666365493.6659827;46.9755347;7.180356;48.57600402832031;1666365493.67867;2.4301345348358154;0.2990233600139618;90.83026885986328
207;1666365493.8650875;46.9755347;7.180356199999999;48.900001525878906;1666365493.881679;3.116800308227539;0.08817501366138458;90.94766235351562
208;1666365494.075904;46.9755347;7.1803563;49.22200393676758;1666365494.0905418;5.880558490753174;0.18691234290599823;91.19580841064453
209;1666365494.2769613;46.9755347;7.1803563;49.5160026550293;1666365494.292576;3.044748306274414;0.1664259284734726;91.31600952148438
210;1666365494.4848495;46.9755347;7.180356199999999;49.82600402832031;1666365494.4985142;4.013540267944336;0.24025677144527435;91.30742645263672
211;1666365494.6829755;46.9755347;7.1803558;50.14900207519531;1666365494.6966405;1.1061346530914307;0.31725895404815674;91.04595947265625
212;1666365494.8947701;46.9755347;7.1803555;50.474002838134766;1666365494.9142883;-1.1217559576034546;0.4894959330558777;90.84638214111328
213;1666365495.0948482;46.9755347;7.180355199999999;50.797000885009766;1666365495.1075358;-2.511315107345581;0.3808729648590088;90.79893493652344
214;1666365495.3281133;46.975534599999996;7.180355;51.12000274658203;1666365495.349585;-4.83170747756958;0.05313003063201904;90.74166107177734
215;1666365495.5467384;46.975534599999996;7.180354899999999;51.44200134277344;1666365495.559425;-4.590685844421387;0.1316986382007599;90.8021011352539
216;1666365495.7536519;46.975534499999995;7.180354899999999;51.73800277709961;1666365495.7712157;-3.9256539344787598;0.12359249591827393;90.71375274658203
217;1666365495.9654405;46.975534499999995;7.1803551;52.052001953125;1666365495.9771564;-3.781294107437134;0.12478096038103104;90.81573486328125
218;1666365496.1567378;46.975534499999995;7.1803554;52.37600326538086;1666365496.1684506;0.8942628502845764;-0.07015006989240646;91.17932891845703
219;1666365496.3675554;46.975534499999995;7.1803557;52.70600128173828;1666365496.3773143;0.4976015090942383;0.9034037590026855;91.03807830810547
220;1666365496.5705607;46.975534499999995;7.1803558999999995;53.03900146484375;1666365496.5842276;5.697971820831299;0.5004578828811646;90.98274230957031
221;1666365496.7843058;46.975534499999995;7.1803561;53.36700439453125;1666365496.7940652;2.192552328109741;-0.11265174299478531;90.95138549804688
222;1666365496.9795058;46.9755344;7.180356199999999;53.66100311279297;1666365496.99805;5.746859073638916;0.39834555983543396;90.88712310791016
223;1666365497.1942255;46.9755344;7.180356;53.97100067138672;1666365497.2108178;2.635237216949463;0.1273994892835617;90.77877044677734
224;1666365497.404066;46.9755343;7.1803557;54.294002532958984;1666365497.4226115;0.4710119664669037;-0.05387159436941147;90.83134460449219
225;1666365497.6207407;46.9755343;7.1803554;54.621002197265625;1666365497.6412337;0.10480687767267227;0.3971479833126068;90.96867370605469
226;1666365497.8276498;46.9755343;7.180355199999999;54.95000076293945;1666365497.8442454;-4.434858322143555;0.22804178297519684;90.99642944335938
227;1666365498.0384665;46.9755342;7.180355;55.28000259399414;1666365498.0531068;-3.832301139831543;-0.19430655241012573;91.04561614990234
228;1666365498.2551389;46.9755341;7.180355;55.61100387573242;1666365498.2727063;-5.488009929656982;0.5471967458724976;90.65290832519531
229;1666365498.4679093;46.9755341;7.1803551;55.913002014160156;1666365498.486451;-2.7918596267700195;-0.09532346576452255;90.66885375976562
230;1666365498.6894596;46.9755341;7.1803552999999996;56.23400115966797;1666365498.7021472;-2.477245807647705;0.18229424953460693;90.68306732177734
231;1666365498.9110134;46.9755341;7.1803557;56.56100082397461;1666365498.9285796;-0.6058516502380371;0.10997983068227768;90.70654296875
232;1666365499.1130476;46.975533999999996;7.180356;56.88900375366211;1666365499.1276844;2.6135261058807373;0.33061546087265015;90.57391357421875
233;1666365499.3082433;46.975533999999996;7.180356199999999;57.21900177001953;1666365499.3238595;3.881002426147461;-0.029256761074066162;90.61038208007812
234;1666365499.5151558;46.975533999999996;7.1803563;57.54900360107422;1666365499.5288203;3.98994517326355;0.10123509168624878;90.75745391845703
235;1666365499.72695;46.9755341;7.1803564;57.846004486083984;1666365499.8430922;3.665126323699951;-0.050293873995542526;90.82023620605469
236;1666365500.0412207;46.9755341;7.180356199999999;58.13900375366211;1666365500.0539088;-0.9957523941993713;0.21032847464084625;91.00930786132812
237;1666365500.2510626;46.9755341;7.180356199999999;58.40700149536133;1666365500.259845;3.423431873321533;-1.1936140060424805;90.54041290283203
238;1666365500.4755404;46.9755343;7.1803555999999995;58.647003173828125;1666365500.4892054;20.1131534576416;-22.34276580810547;83.9520034790039
239;1666365500.6775727;46.9755355;7.1803533999999996;58.85600280761719;1666365500.6931906;28.590961456298828;-41.7641716003418;74.0021743774414
240;1666365500.8805811;46.9755386;7.1803482;58.993003845214844;1666365500.8971727;22.44607925415039;-50.060787200927734;66.66642761230469
241;1666365501.1021364;46.9755435;7.180340299999999;59.04700469970703;1666365501.1148214;5.763411045074463;-39.12331771850586;59.99494934082031
242;1666365501.308072;46.9755499;7.1803307;59.05800247192383;1666365501.318806;-6.228951930999756;-39.86810302734375;45.674407958984375
243;1666365501.5208378;46.975557599999995;7.1803197;59.090003967285156;1666365501.6457675;-17.95209312438965;-40.98868942260742;32.568382263183594
244;1666365501.9030507;46.9755664;7.180307399999999;59.131004333496094;1666365501.8971906;-28.627168655395508;-37.792884826660156;18.302419662475586
245;1666365502.084743;46.9755762;7.1802936;59.16200256347656;1666365502.097431;-35.71500778198242;-32.11628723144531;4.272312164306641
246;1666365502.2980237;46.975587399999995;7.180277599999999;59.1670036315918;1666365502.3068078;-40.5736083984375;-30.898815155029297;-8.259943008422852
247;1666365502.488343;46.9755981;7.1802611;59.15200424194336;1666365502.5137184;-37.002952575683594;-14.13221549987793;-22.82015037536621
248;1666365502.6962318;46.9756097;7.1802427;59.121002197265625;1666365502.7196565;-34.03535842895508;-11.807692527770996;-27.754405975341797
249;1666365502.9265666;46.975621499999995;7.1802236;59.14900207519531;1666365502.950967;-42.11576461791992;-5.763879776000977;-27.38837432861328
250;1666365503.1510477;46.9756341;7.1802043;59.19700241088867;1666365503.1656876;-46.781944274902344;-11.824270248413086;-16.54928207397461
251;1666365503.3638153;46.975648;7.1801848999999995;59.24100112915039;1666365503.3774803;-44.91923904418945;-18.893489837646484;-3.7785322666168213
252;1666365503.5970798;46.975663;7.1801656;59.28200149536133;1666365503.6214812;-43.69731903076172;-25.896726608276367;8.875275611877441
253;1666365503.8225377;46.975679199999995;7.1801464;59.31700134277344;1666365503.8313217;-39.22001266479492;-29.475130081176758;20.590593338012695
254;1666365504.0567763;46.9756964;7.1801276;59.34800338745117;1666365504.0684876;-33.536643981933594;-36.19249725341797;33.325408935546875
255;1666365504.2549067;46.9757144;7.1801094999999995;59.35100173950195;1666365504.265642;-20.284942626953125;-31.231740951538086;40.765411376953125
256;1666365504.4569356;46.9757323;7.1800926;59.400001525878906;1666365504.473529;7.141190528869629;34.623680114746094;40.13330841064453
257;1666365504.6682837;46.975748599999996;7.1800774999999994;59.24700164794922;1666365504.681945;6.0672926902771;106.57521057128906;50.292152404785156
258;1666365504.8751934;46.9757628;7.180064499999999;58.81700134277344;1666365504.8937376;12.477522850036621;43.415958404541016;50.394588470458984
259;1666365505.1182182;46.9757746;7.180053399999999;58.1510009765625;1666365505.138714;23.09708595275879;4.917304992675781;28.582660675048828
260;1666365505.3485558;46.9757841;7.180043899999999;57.38900375366211;1666365505.3719776;25.001920700073242;0.5760716199874878;9.750846862792969
261;1666365505.5632737;46.9757914;7.1800356999999995;56.547000885009766;1666365505.5788915;18.089994430541992;-7.995007514953613;-1.9864590167999268
262;1666365505.7692132;46.975797299999996;7.1800282;55.68100357055664;1666365505.7828753;0.18716756999492645;-17.316423416137695;-8.977340698242188
263;1666365505.976126;46.9758023;7.180020799999999;54.832000732421875;1666365505.9878347;-7.585030555725098;-13.04992389678955;-17.986629486083984
264;1666365506.1840224;46.9758066;7.1800136;54.01000213623047;1666365506.1927946;-11.340624809265137;-11.572537422180176;-26.863813400268555
265;1666365506.407517;46.9758104;7.180006499999999;53.22700119018555;1666365506.4211805;-11.865754127502441;-11.03225326538086;-37.36764144897461
266;1666365506.6075966;46.975813599999995;7.1799994;52.47500228881836;1666365506.622235;-11.442948341369629;-8.445632934570312;-46.624568939208984
267;1666365506.8027954;46.9758162;7.1799922;51.75800323486328;1666365506.8252473;-10.036983489990234;-8.204256057739258;-52.5245246887207
268;1666365507.0233715;46.9758183;7.1799851;51.05600357055664;1666365507.037036;-8.59695816040039;-2.1690683364868164;-54.32270431518555
269;1666365507.2898228;46.9758201;7.1799783999999995;50.40200424194336;1666365507.306412;-5.231174945831299;-4.116382598876953;-52.8717155456543
270;1666365507.497712;46.975821599999996;7.1799721;49.790000915527344;1666365507.5172274;-5.70109224319458;-4.244287014007568;-46.13926315307617
271;1666365507.6968157;46.9758231;7.1799659;49.215003967285156;1666365507.7153554;-5.915407657623291;-3.163235902786255;-38.43828201293945
272;1666365507.9056785;46.975824599999996;7.1799599;48.682003021240234;1666365507.919341;-4.771711826324463;-4.289078235626221;-29.781225204467773
273;1666365508.1116138;46.9758262;7.1799541;48.19400405883789;1666365508.1291811;-6.053229331970215;-5.553612232208252;-19.555757522583008
274;1666365508.3175495;46.975828;7.1799485;47.73600387573242;1666365508.3273125;-6.508738994598389;-8.86074447631836;-9.060932159423828
275;1666365508.5231736;46.975830099999996;7.1799428;47.34800338745117;1666365508.5368369;-10.7547025680542;-7.099573135375977;-0.05930078774690628
276;1666365508.734537;46.975832399999994;7.1799371;47.035003662109375;1666365508.7467787;-11.710700988769531;-11.626468658447266;11.307509422302246
277;1666365509.0405388;46.9758351;7.1799316;46.79500198364258;1666365509.0629942;-9.808862686157227;-13.122197151184082;24.736207962036133
278;1666365509.2661557;46.9758382;7.179926;46.643001556396484;1666365509.2837226;-8.645431518554688;-14.020014762878418;35.903472900390625
279;1666365509.4633543;46.9758415;7.179920399999999;46.57500076293945;1666365509.481897;-7.276679039001465;-16.171430587768555;46.703941345214844
280;1666365509.6595294;46.975845299999996;7.1799148;46.608001708984375;1666365509.6731958;-4.736882209777832;-19.09303092956543;49.57125473022461
281;1666365509.8781536;46.9758497;7.1799089;46.708003997802734;1666365509.8918173;-1.684659481048584;-18.519771575927734;48.197853088378906
282;1666365510.0948248;46.9758545;7.1799029;46.910003662109375;1666365510.1143453;2.4330310821533203;-18.415437698364258;46.846248626708984
283;1666365510.2997847;46.9758597;7.1798965;47.195003509521484;1666365510.3144264;0.39491182565689087;-20.102558135986328;47.17225646972656
284;1666365510.5164676;46.975865299999995;7.1798895;47.54100036621094;1666365510.5311074;-4.3395280838012695;-37.404693603515625;46.17595291137695
285;1666365510.7214303;46.975871999999995;7.1798815;47.89500045776367;1666365510.745827;-4.091833114624023;-28.5425968170166;45.13644790649414
286;1666365510.9488363;46.9758795;7.1798728999999994;48.26700210571289;1666365510.9712837;-3.1812708377838135;-31.37606430053711;44.920230865478516
287;1666365511.165521;46.9758881;7.1798635;48.63300323486328;1666365511.1830764;-3.9826691150665283;-35.204105377197266;43.992271423339844
288;1666365511.3753476;46.975897599999996;7.1798532999999995;49.0160026550293;1666365511.3890133;-3.8055741786956787;-35.5103645324707;43.231353759765625
289;1666365511.6056848;46.975908;7.1798421;49.410003662109375;1666365511.6222773;-5.270013332366943;-34.97123718261719;42.48648452758789
290;1666365511.8125992;46.9759191;7.1798302;49.814002990722656;1666365511.8243096;-5.736073970794678;-32.23507308959961;42.62234115600586
291;1666365512.04196;46.9759307;7.179818;50.230003356933594;1666365512.0536685;-7.1707563400268555;-29.409576416015625;43.49428176879883
292;1666365512.249602;46.9759429;7.1798058;50.65900421142578;1666365512.26034;-10.649331092834473;-26.3837947845459;43.749168395996094
293;1666365512.4531226;46.9759555;7.179794299999999;51.09800338745117;1666365512.466789;-16.871183395385742;-23.0091495513916;44.732303619384766
294;1666365512.775854;46.9759685;7.179783899999999;51.509002685546875;1666365512.7918744;-19.08983612060547;-13.425881385803223;44.54676818847656
295;1666365512.99448;46.9759816;7.1797754;51.94200134277344;1666365513.0071666;-18.70643424987793;13.39240837097168;43.621150970458984
296;1666365513.2023683;46.9759935;7.179769899999999;52.35400390625;1666365513.2150545;-11.64510440826416;52.781333923339844;51.52302169799805
297;1666365513.427878;46.976003;7.1797675;52.56500244140625;1666365513.4444711;-5.740367889404297;67.55934143066406;59.0345573425293
298;1666365513.6796877;46.9760098;7.1797673;52.55000305175781;1666365513.665046;-4.005002021789551;8.758477210998535;51.44449996948242
299;1666365513.8890655;46.9760152;7.1797682;52.512001037597656;1666365513.9027267;2.7423346042633057;-26.321882247924805;42.65224075317383
300;1666365514.236664;46.9760205;7.179767399999999;52.48800277709961;1666365514.2552068;6.343740463256836;-27.52530860900879;26.427242279052734
301;1666365514.4421496;46.9760256;7.1797647;52.50400161743164;1666365514.4577644;8.015374183654785;-26.941646575927734;11.039291381835938
302;1666365514.6588209;46.976029999999994;7.1797602;52.55800247192383;1666365514.6685808;14.837599754333496;-20.625410079956055;-6.842705726623535
303;1666365514.8803732;46.9760329;7.1797543;52.64900207519531;1666365514.8940365;15.11373233795166;-20.495014190673828;-21.922826766967773
304;1666365515.0902154;46.976034;7.1797477999999995;52.781002044677734;1666365515.1038778;10.321403503417969;-23.300987243652344;-37.12796401977539
305;1666365515.3185961;46.9760335;7.1797409;52.957000732421875;1666365515.3576367;7.321089744567871;-23.97878074645996;-48.87271499633789
306;1666365515.659672;46.9760315;7.179733799999999;53.18000411987305;1666365515.686026;5.052669525146484;-21.975854873657227;-57.02859878540039
307;1666365515.868085;46.9760285;7.179726499999999;53.43700408935547;1666365515.8944378;-0.8685263395309448;-16.416545867919922;-60.0440673828125
308;1666365516.0930808;46.9760251;7.1797189999999995;53.7660026550293;1666365516.1194332;-8.684489250183105;11.234776496887207;-61.194297790527344
309;1666365516.3063757;46.976022799999996;7.1797121;54.12900161743164;1666365516.323944;0.844937801361084;32.869873046875;-54.212059020996094
310;1666365516.50353;46.976022099999994;7.1797074;54.46600341796875;1666365516.51817;7.910340309143066;15.919035911560059;-42.54489517211914
311;1666365516.740754;46.976022199999996;7.1797049;54.81900405883789;1666365516.7534428;3.833974599838257;17.90792465209961;-35.108428955078125
312;1666365516.9418118;46.9760229;7.179704399999999;55.195003509521484;1666365516.9544978;-1.148514747619629;25.82244873046875;-27.63250160217285
313;1666365517.1594603;46.976024699999996;7.1797059;55.55400085449219;1666365517.1711693;-5.998339653015137;24.57931137084961;-18.829601287841797
314;1666365517.3712513;46.9760275;7.1797092;55.941001892089844;1666365517.381987;-12.157083511352539;24.161495208740234;-9.784281730651855
315;1666365517.570061;46.9760312;7.179714199999999;56.34800338745117;1666365517.585677;-21.52486228942871;17.73473358154297;2.891493082046509
316;1666365517.8162937;46.976036;7.1797204;56.76000213623047;1666365517.828981;-26.374771118164062;-1.6206012964248657;16.664642333984375
317;1666365518.0173497;46.976042;7.1797267;57.18000411987305;1666365518.0358937;-17.303266525268555;-16.178266525268555;15.610273361206055
318;1666365518.2184057;46.9760488;7.1797312;57.60100173950195;1666365518.2379265;2.155632495880127;-35.78096008300781;1.251921534538269
319;1666365518.5434175;46.9760552;7.1797317;57.932003021240234;1666365518.5561035;6.336730003356934;-59.9376335144043;-10.94546890258789
320;1666365518.8850317;46.976060499999996;7.1797284999999995;58.130001068115234;1666365518.8977225;10.707598686218262;-34.750308990478516;-21.633426666259766
321;1666365519.0919452;46.976064;7.1797227999999995;58.30500411987305;1666365519.1056068;10.832085609436035;-23.218406677246094;-28.38248062133789
322;1666365519.2842143;46.9760657;7.179715799999999;58.51100158691406;1666365519.2988565;9.952150344848633;-34.65884780883789;-36.36314392089844
323;1666365519.5028396;46.976065399999996;7.1797075999999995;58.72200393676758;1666365519.5184546;6.874023914337158;-29.460575103759766;-42.73905944824219
324;1666365519.7263432;46.9760634;7.1796986;58.923004150390625;1666365519.7390316;-12.291735649108887;-18.085100173950195;-47.777069091796875
325;1666365520.0319047;46.9760609;7.1796894;59.09100341796875;1666365520.0475228;-2.567307949066162;-7.216564655303955;-56.498558044433594
326;1666365520.250529;46.9760584;7.1796804;59.198001861572266;1666365520.2690732;-16.577585220336914;7.622226238250732;-56.94609451293945
327;1666365520.4652495;46.9760567;7.1796720999999994;59.2920036315918;1666365520.4769619;-1.3003712892532349;36.11934280395508;-49.36360168457031
328;1666365520.6682568;46.9760565;7.1796662;59.342002868652344;1666365520.6897295;0.3763631582260132;39.29059600830078;-37.153743743896484
329;1666365520.88786;46.976057399999995;7.1796634;59.353004455566406;1666365520.9044492;-1.4445056915283203;27.65258026123047;-25.03875160217285
330;1666365521.08599;46.9760591;7.1796633;59.38600158691406;1666365521.107475;-6.216885566711426;28.55094337463379;-18.108823776245117
331;1666365521.3016837;46.976061699999995;7.1796656;59.441001892089844;1666365521.3270578;-17.227224349975586;30.300291061401367;-12.35042953491211
332;1666365521.5144498;46.9760649;7.1796698999999995;59.48200225830078;1666365521.5261772;-16.306943893432617;19.277957916259766;2.2004568576812744
333;1666365521.7155209;46.9760686;7.1796755999999995;59.5420036315918;1666365521.730161;-25.22844886779785;3.9839608669281006;14.445116996765137
334;1666365521.9292662;46.976073;7.1796815;59.592002868652344;1666365521.9409792;-17.273046493530273;-11.583373069763184;13.17673110961914
335;1666365522.149844;46.9760779;7.1796862;59.631004333496094;1666365522.178145;-0.6886131763458252;-28.80934715270996;-3.727409839630127
336;1666365522.3723814;46.9760826;7.179688199999999;59.63500213623047;1666365522.3860323;-1.6820778846740723;-55.26063537597656;-8.076643943786621
337;1666365522.5841613;46.976086599999995;7.1796862;59.55600357055664;1666365522.6017282;0.09647176414728165;-28.744924545288086;-15.201374053955078
338;1666365522.7940042;46.976089699999996;7.1796817;59.47600173950195;1666365522.8262122;4.341196060180664;-20.65652847290039;-29.165124893188477
339;1666365523.0214114;46.9760917;7.1796755999999995;59.426002502441406;1666365523.034098;-4.715226173400879;-29.30057716369629;-38.88709259033203
340;1666365523.2410095;46.976092699999995;7.1796679999999995;59.419002532958984;1666365523.2527208;-1.423304796218872;-12.016190528869629;-52.038108825683594
341;1666365523.4498775;46.9760931;7.1796600999999995;59.470001220703125;1666365523.4606087;-5.873237609863281;-2.034562587738037;-58.68972396850586
342;1666365523.6450744;46.976093399999996;7.1796524999999995;59.535003662109375;1666365523.658744;-12.128922462463379;11.589771270751953;-59.316070556640625
343;1666365523.8525043;46.9760942;7.1796457;59.59100341796875;1666365523.8749506;-3.1651840209960938;25.588809967041016;-53.344505310058594
344;1666365524.059416;46.976096;7.1796406;59.64400100708008;1666365524.0730793;-19.622194290161133;22.999807357788086;-55.930580139160156
345;1666365524.260472;46.9760991;7.1796365;59.67000198364258;1666365524.2741385;-35.3874626159668;24.69940757751465;-56.744178771972656
346;1666365524.4771452;46.9761041;7.179632;59.69400405883789;1666365524.4908073;-46.12537384033203;20.869380950927734;-53.58355712890625
347;1666365524.6918638;46.976110999999996;7.1796264999999995;59.69200134277344;1666365524.7055273;-45.511756896972656;5.608105659484863;-43.91102981567383
348;1666365524.8948724;46.976119399999995;7.1796194;59.70500183105469;1666365524.909513;-46.158329010009766;2.96968150138855;-43.40021896362305
349;1666365525.1144722;46.9761291;7.1796104;59.73200225830078;1666365525.1271613;-53.13033676147461;3.402733087539673;-45.03623962402344
350;1666365525.3272967;46.97614;7.1795995999999995;59.730003356933594;1666365525.340964;-43.7464714050293;-4.139214992523193;-41.6314811706543
351;1666365525.5471907;46.976151599999994;7.1795873;59.72900390625;1666365525.5598783;-39.83565902709961;-4.64274787902832;-42.468666076660156
352;1666365525.7599;46.9761636;7.1795735;59.71400451660156;1666365525.7755258;-40.86259841918945;0.520892322063446;-45.24462890625
353;1666365525.9669263;46.976176099999996;7.1795585;59.73100280761719;1666365525.981568;-42.2053108215332;2.095367431640625;-44.70514678955078
354;1666365526.198757;46.9761895;7.179542199999999;59.7760009765625;1666365526.2221816;-48.3931999206543;2.93341326713562;-45.03946304321289
355;1666365526.41991;46.9762037;7.1795246;59.814002990722656;1666365526.4326017;-53.44578170776367;1.8367276191711426;-44.176910400390625
356;1666365526.7419896;46.9762189;7.179505499999999;59.82400131225586;1666365526.7566354;-43.89253234863281;4.552155017852783;-45.1369743347168
357;1666365526.9674563;46.9762347;7.179485499999999;59.858001708984375;1666365526.9791682;-45.03169631958008;-1.532431721687317;-40.33915328979492
358;1666365527.2080832;46.976250799999995;7.1794652999999995;59.85200119018555;1666365527.2134922;-48.54861831665039;4.95244026184082;-44.18110656738281
359;1666365527.426872;46.9762677;7.1794443999999995;59.858001708984375;1666365527.4483461;-55.92972946166992;4.091265678405762;-45.40533447265625
360;1666365527.7578118;46.976285399999995;7.1794223;59.862003326416016;1666365527.7695212;-52.75006103515625;4.405445575714111;-44.59101104736328
361;1666365527.991266;46.976304;7.1793993;59.86700439453125;1666365528.0039527;-51.342830657958984;2.0513041019439697;-44.35737228393555
362;1666365528.192322;46.976323;7.1793755;59.871002197265625;1666365528.2040315;-47.13543701171875;3.8305721282958984;-44.55531692504883
363;1666365528.391423;46.9763421;7.1793515;59.87200164794922;1666365528.4050891;-42.061309814453125;2.625797748565674;-43.50899887084961
364;1666365528.633471;46.9763611;7.1793277;59.862003326416016;1666365528.646162;-34.75535583496094;1.4247231483459473;-42.985164642333984
365;1666365528.8403842;46.9763793;7.1793048;59.823001861572266;1666365528.8589299;-26.254640579223633;0.9152050614356995;-41.87551498413086
366;1666365529.0638871;46.976396799999996;7.1792827;59.78700256347656;1666365529.0804791;-22.8131103515625;-0.4949844181537628;-41.01565933227539
367;1666365529.2717755;46.9764133;7.179261899999999;59.746002197265625;1666365529.2825108;-9.515335083007812;0.1547631025314331;-42.20267868041992
368;1666365529.4864964;46.976428299999995;7.1792428;59.70600128173828;1666365529.501139;7.280432224273682;-0.9012706279754639;-41.740962982177734
369;1666365529.7041464;46.9764415;7.179226;59.66800308227539;1666365529.7246428;4.93699312210083;-0.6564433574676514;-41.25147247314453
370;1666365529.9120326;46.976452599999995;7.1792115999999995;59.65300369262695;1666365529.9452171;-7.9383978843688965;2.17187237739563;-41.19691467285156
371;1666365530.1248016;46.9764621;7.179199199999999;59.62800216674805;1666365530.1394398;-3.1846461296081543;0.045284610241651535;-41.111656188964844
372;1666365530.3385448;46.9764705;7.1791883;59.61700439453125;1666365530.353188;11.616644859313965;-0.2271205335855484;-41.35731887817383
373;1666365530.544481;46.9764777;7.1791791;59.62900161743164;1666365530.5600994;-4.835872650146484;1.316197395324707;-42.5898551940918
374;1666365530.763105;46.976484;7.179170999999999;59.63600158691406;1666365530.7728662;3.640843629837036;0.482194185256958;-42.152225494384766
375;1666365530.957329;46.9764894;7.1791642;59.637001037597656;1666365530.9709926;-12.174418449401855;0.5956579446792603;-41.86013412475586
376;1666365531.1749823;46.9764943;7.179157999999999;59.64400100708008;1666365531.1905951;3.7859933376312256;-0.7996193170547485;-42.428733825683594
377;1666365531.4072723;46.9764986;7.1791526;59.6410026550293;1666365531.418002;0.2085697501897812;-1.3976637125015259;-42.50567626953125
378;1666365531.603442;46.9765021;7.179147899999999;59.60700225830078;1666365531.6161294;12.327054023742676;-0.8956743478775024;-43.22811508178711
379;1666365531.8103561;46.976504999999996;7.1791442;59.5880012512207;1666365531.8220654;-3.3191030025482178;1.46197509765625;-42.394775390625
380;1666365532.0036035;46.976507399999996;7.1791411;59.57200241088867;1666365532.0162897;1.7925798892974854;2.3214540481567383;-42.53965759277344
381;1666365532.2095397;46.9765095;7.1791385;59.561004638671875;1666365532.2222261;-3.6215431690216064;0.5245705842971802;-42.214195251464844
382;1666365532.3930278;46.9765114;7.179136199999999;59.55400466918945;1666365532.4057162;-8.037686347961426;-0.07527866214513779;-42.04635238647461
383;1666365532.597012;46.976513;7.179134299999999;59.54700469970703;1666365532.6106744;6.851080417633057;-4.157894611358643;-41.831356048583984
384;1666365532.7970903;46.9765142;7.1791325;59.52300262451172;1666365532.8107567;-3.7357466220855713;-0.8843609094619751;-41.17802429199219
385;1666365533.004006;46.976515;7.179131099999999;59.49700164794922;1666365533.01767;14.725714683532715;-1.6293292045593262;-41.346397399902344
386;1666365533.2060356;46.9765155;7.1791301999999995;59.487003326416016;1666365533.2177472;-3.654144525527954;1.6359717845916748;-42.117897033691406
387;1666365533.4149013;46.9765158;7.1791294;59.47300338745117;1666365533.4266136;-0.3549031913280487;0.8927409052848816;-43.370330810546875
388;1666365533.6198606;46.9765162;7.179128599999999;59.461002349853516;1666365533.631573;-29.031898498535156;5.81567907333374;-49.56376266479492
389;1666365533.826772;46.9765176;7.1791265;59.465003967285156;1666365533.835559;-45.70230484008789;3.573803663253784;-52.7913703918457
390;1666365534.0229475;46.9765205;7.179121899999999;59.44600296020508;1666365534.0424674;-50.274139404296875;2.0024068355560303;-49.86541748046875
391;1666365534.2347429;46.976525099999996;7.179114299999999;59.36900329589844;1666365534.2464516;-34.832054138183594;-2.5228183269500732;-48.727935791015625
392;1666365534.444586;46.976530499999996;7.1791049;59.329002380371094;1666365534.4611735;-35.59565734863281;-6.09602689743042;-48.233211517333984
393;1666365534.6622286;46.976536599999996;7.179093699999999;59.33400344848633;1666365534.675892;-45.360511779785156;-1.4767380952835083;-48.848175048828125
394;1666365534.8554766;46.9765436;7.1790806;59.36000442504883;1666365534.868168;-49.196861267089844;0.8721694350242615;-49.38242721557617
395;1666365535.071173;46.976551699999995;7.1790657;59.40500259399414;1666365535.0828862;-54.753074645996094;1.5479276180267334;-49.36957931518555
396;1666365535.377637;46.9765611;7.1790487;59.45000457763672;1666365535.3913035;-55.499691009521484;-0.047258131206035614;-47.897727966308594
397;1666365535.5874796;46.976571799999995;7.1790297;59.47200393676758;1666365535.6001675;-53.14717483520508;0.24332326650619507;-47.89445877075195
398;1666365535.7963443;46.9765836;7.1790091;59.493003845214844;1666365535.8100073;-52.663509368896484;0.10531986504793167;-48.98373794555664
399;1666365536.0227747;46.976596099999995;7.1789872;59.51900100708008;1666365536.0364408;-52.64167022705078;1.5710726976394653;-49.11277770996094
400;1666365536.2218804;46.9766094;7.1789643;59.544002532958984;1666365536.256039;-49.92454528808594;1.4836007356643677;-49.04853820800781
401;1666365536.4444087;46.9766233;7.1789407999999995;59.560001373291016;1666365536.4619758;-49.43474197387695;1.3173574209213257;-49.166866302490234
402;1666365536.6649845;46.976637499999995;7.1789166;59.573001861572266;1666365536.683537;-49.19131088256836;0.7189683318138123;-49.06694412231445
403;1666365536.8757985;46.9766522;7.1788921;59.566001892089844;1666365536.899223;-48.35494613647461;0.39517951011657715;-49.087310791015625
404;1666365537.0973537;46.9766672;7.178866999999999;59.56200408935547;1666365537.1129663;-47.393402099609375;0.5360701680183411;-49.40628433227539
405;1666365537.2886472;46.9766823;7.178841599999999;59.55800247192383;1666365537.3052387;-46.31837463378906;0.7249148488044739;-49.75645065307617
406;1666365537.4965384;46.9766976;7.1788159;59.55900192260742;1666365537.509238;-46.44215774536133;0.3626285791397095;-49.553436279296875
407;1666365537.695082;46.976712899999995;7.178789999999999;59.552001953125;1666365537.7126515;-46.478309631347656;0.02955721504986286;-49.096290588378906
408;1666365537.9098055;46.9767283;7.1787640999999995;59.5420036315918;1666365537.9234676;-46.636383056640625;-0.24081890285015106;-49.11508560180664
409;1666365538.1020749;46.9767437;7.178738;59.53000259399414;1666365538.1157382;-47.16758728027344;0.09369386732578278;-49.500213623046875
410;1666365538.3070374;46.976759;7.178712099999999;59.50700378417969;1666365538.3177705;-46.725799560546875;0.3212890028953552;-49.58168411254883
411;1666365538.5393233;46.9767744;7.1786859;59.47700119018555;1666365538.5520113;-43.159767150878906;-0.09506286680698395;-49.661502838134766
412;1666365538.7355018;46.9767896;7.17866;59.43700408935547;1666365538.7686827;-28.822839736938477;1.3773972988128662;-48.875404357910156
413;1666365538.9541261;46.9768043;7.178635099999999;59.39800262451172;1666365538.967787;-18.973709106445312;-0.2960077226161957;-48.57379913330078
414;1666365539.168845;46.976817999999994;7.1786118;59.358001708984375;1666365539.1844597;-6.9718170166015625;-0.9480995535850525;-49.46052551269531
415;1666365539.3831985;46.9768305;7.1785904;59.32500457763672;1666365539.3968596;-5.835796356201172;-0.8071077466011047;-49.38090133666992
416;1666365539.584255;46.9768415;7.1785716;59.29600143432617;1666365539.5988944;-10.799520492553711;-0.291162371635437;-49.510902404785156
417;1666365539.7911634;46.9768514;7.1785545;59.27300262451172;1666365539.8028772;2.068136215209961;-0.5076870918273926;-50.50514602661133
418;1666365540.0068643;46.976859999999995;7.178539499999999;59.255001068115234;1666365540.015647;-0.7942333817481995;-0.3325692415237427;-51.16289520263672
419;1666365540.198156;46.9768675;7.1785263;59.24200439453125;1666365540.2254846;7.529076099395752;1.105162262916565;-51.08209228515625
