;pos_time;latitude;longitude;altitude;alt_time;pitch;roll;yaw
0;1666356533.0690718;46.9755348;7.1803558;-0.0690000057220459;1666356533.0632164;-0.5231351852416992;-0.8205482363700867;91.52466583251953
1;1666356533.2750087;46.9755348;7.1803557;-0.06700000166893005;1666356533.2711082;-0.7157065272331238;-0.5535971522331238;91.44230651855469
2;1666356533.586352;46.9755348;7.1803557;-0.06300000101327896;1666356533.580498;-0.7869383096694946;-0.34531354904174805;91.25228881835938
3;1666356533.8049765;46.9755347;7.1803557;-0.058000002056360245;1666356533.8030262;-0.7219398617744446;-0.6572753190994263;91.53046417236328
4;1666356534.0177448;46.975534599999996;7.1803557;-0.05300000309944153;1666356534.0079868;-0.5288584232330322;-0.674296498298645;91.54344177246094
5;1666356534.2178257;46.975534599999996;7.1803557;-0.05300000309944153;1666356534.2109928;-0.6414185166358948;-0.6480871438980103;91.56077575683594
6;1666356534.4266915;46.975534599999996;7.1803558;-0.05700000375509262;1666356534.4198585;-0.849580705165863;-0.4966599643230438;91.3985824584961
7;1666356534.6316497;46.975534599999996;7.1803558;-0.06200000271201134;1666356534.6257946;-0.5627778768539429;-0.6572679877281189;91.56128692626953
8;1666356534.8375857;46.975534499999995;7.1803558;-0.06400000303983688;1666356534.8327057;-0.7220704555511475;-0.8859889507293701;91.47319793701172
9;1666356535.0854902;46.975534499999995;7.1803558;0.0;1666356535.0815861;-0.817776620388031;-1.0536632537841797;91.4670639038086
10;1666356535.2933776;46.975534499999995;7.1803558999999995;-0.003000000026077032;1666356535.2806897;-0.7404066324234009;-0.9343396425247192;91.55980682373047
11;1666356535.5159059;46.975534499999995;7.1803558999999995;-0.009000000543892384;1666356535.5110269;-0.6727460622787476;-0.9411727786064148;91.45836639404297
12;1666356535.7306266;46.975534499999995;7.1803558999999995;-0.013000000268220901;1666356535.7237947;-0.7336404919624329;-0.7605251669883728;91.66277313232422
13;1666356535.9599876;46.975534499999995;7.1803558999999995;-0.012000000104308128;1666356535.9570591;-0.6680008172988892;-1.0575823783874512;91.63117980957031
14;1666356536.162995;46.975534599999996;7.1803558999999995;-0.009000000543892384;1666356536.1581159;-0.5791100859642029;-0.8754007816314697;91.64176940917969
15;1666356536.4758322;46.975534599999996;7.180356;0.0;1666356536.4719267;-0.6066111922264099;-0.6297804117202759;91.4867935180664
16;1666356536.666955;46.975534599999996;7.1803558999999995;-0.004000000189989805;1666356536.66305;-0.5868003964424133;-0.7028194069862366;91.43619537353516
17;1666356536.8802335;46.9755347;7.1803558999999995;-0.010000000707805157;1666356536.8733997;-0.5195013284683228;-0.7533065676689148;91.4406967163086
18;1666356537.1056871;46.9755347;7.1803558999999995;-0.01600000075995922;1666356537.099831;-0.5482423305511475;-0.6543964147567749;91.4102783203125
19;1666356537.316504;46.9755347;7.1803558999999995;-0.01900000125169754;1666356537.3126018;-0.4610753655433655;-0.49097660183906555;91.51228332519531
20;1666356537.512681;46.9755347;7.1803558999999995;-0.021000001579523087;1666356537.509754;-0.4712916314601898;-0.5457300543785095;91.49271392822266
21;1666356537.7336605;46.975534599999996;7.1803558;-0.024000000208616257;1666356537.7199948;-0.4420316815376282;-0.2805473506450653;91.35578155517578
22;1666356537.9760067;46.975534599999996;7.1803558;-0.023000001907348633;1666356537.9667072;-0.6088288426399231;-0.3016313910484314;91.3410873413086
23;1666356538.1757371;46.975534499999995;7.1803558;-0.021000001579523087;1666356538.1669555;-0.5733567476272583;-0.058740176260471344;91.3767318725586
24;1666356538.3981013;46.975534499999995;7.1803558;-0.017000000923871994;1666356538.392243;-0.34111255407333374;-0.206364244222641;91.48895263671875
25;1666356538.6158519;46.975534499999995;7.1803558;-0.010000000707805157;1666356538.6080463;-0.2961825430393219;-0.011081848293542862;91.4161605834961
26;1666356538.8229299;46.9755344;7.1803558;-0.0010000000474974513;1666356538.819026;-0.4407597482204437;-0.06927347928285599;91.46827697753906
27;1666356539.0387795;46.9755343;7.1803558;0.009000000543892384;1666356539.0353367;-0.3443215489387512;-0.038669079542160034;91.73304748535156
28;1666356539.2409432;46.9755341;7.1803558;0.01900000125169754;1666356539.237039;-0.2326938658952713;-1.393680453300476;91.69612121582031
29;1666356539.4505007;46.975533899999995;7.1803558;0.05100000277161598;1666356539.4436738;-0.03927145525813103;-5.942241191864014;92.84362030029297
30;1666356539.6496074;46.9755338;7.1803558;0.10500000417232513;1666356539.6457047;0.04068167507648468;3.6097099781036377;92.58210754394531
31;1666356539.972664;46.9755338;7.1803558;0.1770000010728836;1666356539.9668052;1.6206117868423462;-11.525693893432617;93.17655944824219
32;1666356540.1737187;46.975533999999996;7.1803558;0.2639999985694885;1666356540.1707904;2.3545753955841064;1.7722972631454468;92.30237579345703
33;1666356540.4011264;46.9755342;7.180356;0.367000013589859;1666356540.4030778;2.3087222576141357;-0.2794091999530792;92.33167266845703
34;1666356540.6041346;46.9755344;7.180356199999999;0.48000001907348633;1666356540.5992546;3.6798760890960693;-0.5271705985069275;92.13493347167969
35;1666356540.8344707;46.975534499999995;7.1803564;0.6040000319480896;1666356540.8276393;1.5028413534164429;1.3184518814086914;91.97003936767578
36;1666356541.0648062;46.975534599999996;7.1803563;0.7400000095367432;1666356541.0618784;-2.117122173309326;-0.03408798202872276;91.82222747802734
37;1666356541.3263743;46.975534599999996;7.180356199999999;0.8940000534057617;1666356541.3214965;-2.634382963180542;-0.6487131714820862;91.75337219238281
38;1666356541.5332868;46.975534599999996;7.180356199999999;1.062000036239624;1666356541.5274324;-3.165405511856079;-0.5989617705345154;91.601318359375
39;1666356541.7460556;46.975534499999995;7.1803561;1.2420001029968262;1666356541.7421525;-4.403165817260742;-0.9995501041412354;91.54669952392578
40;1666356541.9578485;46.975534499999995;7.180356;1.434000015258789;1666356541.953943;-3.0985095500946045;-1.413336992263794;91.5120620727539
41;1666356542.1676872;46.975534499999995;7.1803558999999995;1.628000020980835;1666356542.1637833;-1.0421912670135498;-1.5601933002471924;91.65680694580078
42;1666356542.3716712;46.975534599999996;7.180356;1.821000099182129;1666356542.3667946;0.6216604113578796;-0.5728424787521362;98.74278259277344
43;1666356542.602011;46.975534599999996;7.180356;2.0190000534057617;1666356542.5893207;1.4179611206054688;-1.7370686531066895;96.90957641601562
44;1666356542.8216069;46.9755347;7.180356199999999;2.2170000076293945;1666356542.816729;4.151315689086914;-0.31843724846839905;95.92420959472656
45;1666356543.0265677;46.9755348;7.1803563;2.4170000553131104;1666356543.0216892;3.219269037246704;0.3590056598186493;95.22589874267578
46;1666356543.3466985;46.9755348;7.1803564;2.618000030517578;1666356543.3359613;1.9061676263809204;0.39912086725234985;94.8415298461914
47;1666356543.5438473;46.9755348;7.180356499999999;2.821000099182129;1666356543.538968;0.17072933912277222;0.14491254091262817;94.45874786376953
48;1666356543.74588;46.9755347;7.1803566;3.0210001468658447;1666356543.740026;0.3441222310066223;0.33869296312332153;94.32349395751953
49;1666356543.9420574;46.975534599999996;7.1803566;3.2210001945495605;1666356543.937178;-1.0268776416778564;0.04437475651502609;94.26583099365234
50;1666356544.1577556;46.975534599999996;7.180356499999999;3.4220001697540283;1666356544.1538496;-3.7418437004089355;-0.34576883912086487;94.25432586669922
51;1666356544.3675964;46.975534499999995;7.1803564;3.625000238418579;1666356544.3636887;-4.793066501617432;-0.8538947701454163;94.49900817871094
52;1666356544.5774333;46.9755344;7.1803564;3.832000255584717;1666356544.568648;-3.317377805709839;-1.2994329929351807;94.78720092773438
53;1666356544.780441;46.9755343;7.180356499999999;4.0410003662109375;1666356544.767755;-1.9842854738235474;-1.354658842086792;94.79714965820312
54;1666356545.087883;46.9755343;7.180356499999999;4.246000289916992;1666356545.0830028;-1.6637156009674072;-1.218308925628662;94.70547485351562
55;1666356545.299674;46.9755344;7.1803566;4.453000068664551;1666356545.294793;0.9089066982269287;-0.7859348058700562;94.58643341064453
56;1666356545.4958594;46.9755344;7.1803567;4.6650004386901855;1666356545.4929214;2.6993236541748047;-0.841792643070221;94.36965942382812
57;1666356545.73985;46.975534499999995;7.180356799999999;4.880000114440918;1666356545.7378998;3.3043100833892822;-0.43379512429237366;94.48076629638672
58;1666356545.9457908;46.975534599999996;7.1803569;5.0970001220703125;1666356545.9399314;3.4401803016662598;0.16327716410160065;94.41832733154297
59;1666356546.1634343;46.975534599999996;7.180357;5.314000129699707;1666356546.1566038;3.062180995941162;-0.2296682447195053;94.44705200195312
60;1666356546.3791401;46.9755347;7.180357;5.5320000648498535;1666356546.3683941;0.692046582698822;0.109225794672966;94.47831726074219
61;1666356546.5938504;46.9755347;7.1803569;5.746000289916992;1666356546.58897;-0.5274985432624817;0.32902851700782776;94.53412628173828
62;1666356546.798811;46.9755347;7.180356799999999;5.957000255584717;1666356546.7890527;-2.514875888824463;-0.13132043182849884;94.45380401611328
63;1666356547.016459;46.975534599999996;7.180356799999999;6.170000076293945;1666356547.0115786;-2.0853593349456787;-0.24744842946529388;94.64852905273438
64;1666356547.2311785;46.975534599999996;7.1803566;6.390000343322754;1666356547.2282507;-3.612337350845337;-0.5200055837631226;94.69195556640625
65;1666356547.4673712;46.975534499999995;7.180356499999999;6.609000205993652;1666356547.464443;-3.848985195159912;-1.0750155448913574;95.1305160522461
66;1666356547.665499;46.975534499999995;7.180356199999999;6.829000473022461;1666356547.6596434;-2.644620180130005;-0.986539900302887;94.87584686279297
67;1666356547.886075;46.975534499999995;7.180356;7.0460004806518555;1666356547.8811955;-0.9883909821510315;-2.0266170501708984;95.0381851196289
68;1666356548.2218227;46.975534499999995;7.1803558999999995;7.267000198364258;1666356548.217916;-1.5491719245910645;-1.8502360582351685;94.99435424804688
69;1666356548.4189744;46.975534599999996;7.180356;7.492000579833984;1666356548.414094;1.3421986103057861;-0.8591933250427246;94.96311950683594
70;1666356548.6356437;46.9755347;7.180356199999999;7.7210001945495605;1666356548.6327155;1.7026687860488892;-0.5027034282684326;95.02210235595703
71;1666356548.8571992;46.9755348;7.180356499999999;7.955000400543213;1666356548.850367;4.4145588874816895;-0.506291389465332;94.86385345458984
72;1666356549.0914364;46.9755349;7.180356799999999;8.189000129699707;1666356549.0875344;3.3568525314331055;0.8284470438957214;94.72565460205078
73;1666356549.307132;46.9755349;7.180357;8.414999961853027;1666356549.3051827;2.062398910522461;1.039355754852295;94.73214721679688
74;1666356549.5277088;46.9755349;7.180357;8.641000747680664;1666356549.5228305;1.7835696935653687;0.6137268543243408;94.732666015625
75;1666356549.8585749;46.9755348;7.1803567;8.872000694274902;1666356549.8507662;-3.0032951831817627;0.2198980450630188;94.83036041259766
76;1666356550.108429;46.9755347;7.1803564;9.107000350952148;1666356550.1035504;-2.5355780124664307;-0.09411165118217468;94.97176361083984
77;1666356550.3163166;46.975534499999995;7.180356199999999;9.34000015258789;1666356550.311437;-3.347001075744629;-0.1873551309108734;95.2211685180664
78;1666356550.5359197;46.975534499999995;7.180356;9.574000358581543;1666356550.532014;-5.748948574066162;-2.205042839050293;95.8305435180664
79;1666356550.7486882;46.9755344;7.1803558999999995;9.813000679016113;1666356550.7438068;-3.112790584564209;-1.5187820196151733;95.34371948242188
80;1666356550.987807;46.9755344;7.1803558999999995;10.04800033569336;1666356550.982925;-2.0463366508483887;-0.9315813183784485;95.303955078125
81;1666356551.1995976;46.9755344;7.1803561;10.300000190734863;1666356551.1956944;-0.3172662556171417;-1.6265298128128052;95.28024291992188
82;1666356551.421151;46.975534499999995;7.1803564;10.619000434875488;1666356551.4152937;-0.14755667746067047;-2.102311611175537;95.1469497680664
83;1666356551.6183016;46.975534599999996;7.1803569;10.970000267028809;1666356551.6134236;3.011794090270996;-2.8383030891418457;95.15057373046875
84;1666356551.8408298;46.9755348;7.1803573;11.326000213623047;1666356551.8369286;4.060882568359375;-0.6287193298339844;95.2227554321289
85;1666356552.0457911;46.975535;7.1803576;11.679000854492188;1666356552.0399344;4.159998893737793;0.8718199133872986;95.22000885009766
86;1666356552.2556338;46.975535099999995;7.1803577;12.015000343322754;1666356552.2497737;3.1834821701049805;1.8648415803909302;95.32196807861328
87;1666356552.456693;46.975535099999995;7.1803574999999995;12.344000816345215;1666356552.4518068;1.7841148376464844;1.8620940446853638;95.41768646240234
88;1666356552.6948342;46.975535;7.180357099999999;12.672000885009766;1666356552.687999;-2.2827467918395996;1.1474308967590332;95.5321044921875
89;1666356552.8988178;46.9755348;7.1803566;12.997000694274902;1666356552.8939354;-3.080340623855591;-0.14116062223911285;95.27179718017578
90;1666356553.1086574;46.9755347;7.1803563;13.321001052856445;1666356553.1028037;-3.798379898071289;0.27211156487464905;94.97065734863281
91;1666356553.304832;46.975534599999996;7.1803561;13.644001007080078;1666356553.299954;-4.828049659729004;-0.9058824777603149;94.83195495605469
92;1666356553.5419996;46.975534499999995;7.180356;13.968000411987305;1666356553.5361452;-3.987786054611206;-1.3064110279083252;94.90174865722656
93;1666356553.7596493;46.9755344;7.180356;14.283000946044922;1666356553.754768;-2.662858486175537;-1.5784554481506348;95.00531768798828
94;1666356553.9597292;46.9755344;7.180356199999999;14.596000671386719;1666356553.9538722;-0.2514696717262268;-2.4946630001068115;95.13803100585938
95;1666356554.221295;46.9755344;7.180356499999999;14.917000770568848;1666356554.213489;1.7416179180145264;-2.0983879566192627;95.22265625
96;1666356554.4262593;46.975534599999996;7.1803569;15.24100112915039;1666356554.4223595;2.4510765075683594;-1.7902796268463135;95.7159652709961
97;1666356554.633716;46.9755347;7.1803571999999996;15.566000938415527;1666356554.6307855;4.971314430236816;-0.2812582552433014;95.53273010253906
98;1666356554.8660016;46.9755348;7.1803574999999995;15.892001152038574;1666356554.8620977;4.142268180847168;-0.12626774609088898;95.15811157226562
99;1666356555.110978;46.9755349;7.1803577;16.20800018310547;1666356555.106098;2.673476219177246;1.2508760690689087;94.98780822753906
100;1666356555.435987;46.9755349;7.1803574999999995;16.519001007080078;1666356555.4301322;-0.27428412437438965;2.1393470764160156;94.88246154785156
101;1666356555.6663244;46.9755348;7.1803571999999996;16.834001541137695;1666356555.6614456;-2.1564996242523193;0.1367955505847931;95.30181884765625
102;1666356555.8732367;46.9755348;7.180357;17.1510009765625;1666356555.8693326;-3.1718759536743164;0.2654702067375183;95.27867126464844
103;1666356556.0791712;46.9755347;7.1803567;17.46500015258789;1666356556.0791712;-4.162674903869629;-0.2750034034252167;95.41868591308594
104;1666356556.2938938;46.9755347;7.1803564;17.777000427246094;1666356556.2880356;-3.027407646179199;-1.1953108310699463;95.23889923095703
105;1666356556.550583;46.9755347;7.1803561;18.084001541137695;1666356556.5447311;-1.834021806716919;-2.317044973373413;95.7039566040039
106;1666356556.757492;46.9755348;7.1803561;18.392000198364258;1666356556.7467554;-0.5621265172958374;-1.0401829481124878;95.17832946777344
107;1666356556.9819713;46.9755349;7.180356199999999;18.709001541137695;1666356556.9770935;0.9675167202949524;-1.3916820287704468;95.01968383789062
108;1666356557.2162123;46.975535;7.180356499999999;19.0310001373291;1666356557.2103558;2.887542247772217;-0.8075639605522156;95.02222442626953
109;1666356557.4524035;46.975535099999995;7.180356799999999;19.35500144958496;1666356557.4465482;3.6040992736816406;0.4924910366535187;94.92060852050781
110;1666356557.6749368;46.975535099999995;7.180357099999999;19.679000854492188;1666356557.6690764;2.9962852001190186;0.5719044804573059;94.88153839111328
111;1666356557.8740368;46.975535099999995;7.1803573;19.992000579833984;1666356557.8701322;3.1793372631073;1.5378360748291016;95.00647735595703
112;1666356558.1033978;46.975535;7.180357099999999;20.304000854492188;1666356558.097542;-0.5063470005989075;1.6412657499313354;95.47285461425781
113;1666356558.3103104;46.9755349;7.180356799999999;20.6200008392334;1666356558.307381;-2.3067612648010254;-0.44287797808647156;95.94384765625
114;1666356558.53186;46.9755349;7.1803564;20.939001083374023;1666356558.5191746;-2.8219237327575684;0.12922871112823486;95.4322280883789
115;1666356558.7465804;46.9755348;7.1803561;21.25800132751465;1666356558.7465804;-4.84490966796875;-0.6312110424041748;94.9431381225586
116;1666356558.9788692;46.9755348;7.1803558;21.578001022338867;1666356558.9749677;-4.037115097045898;-1.3805429935455322;95.0735855102539
117;1666356559.3194962;46.9755347;7.1803555999999995;21.889001846313477;1666356559.3136368;-3.6784260272979736;-2.1255149841308594;95.08808898925781
118;1666356559.541047;46.9755347;7.1803557;22.202001571655273;1666356559.5322618;-1.2634050846099854;-2.9316112995147705;95.60103607177734
119;1666356559.7694294;46.9755348;7.1803561;22.5260009765625;1666356559.7674773;1.6079010963439941;-0.8471445441246033;95.30938720703125
120;1666356560.0915132;46.975535;7.180356499999999;22.85300064086914;1666356560.078822;3.929382801055908;-0.37961578369140625;95.3721694946289
121;1666356560.3072078;46.975535099999995;7.180356799999999;23.1820011138916;1666356560.3023255;3.933271884918213;-0.12661564350128174;95.38227844238281
122;1666356560.5424237;46.975535199999996;7.180357;23.506000518798828;1666356560.532662;3.2881078720092773;1.0727251768112183;94.99527740478516
123;1666356560.965038;46.975535199999996;7.180357099999999;23.815000534057617;1666356560.9591744;2.091644048690796;0.9687857627868652;94.94415283203125
124;1666356561.2588086;46.975535199999996;7.180357;24.125001907348633;1666356561.247094;0.9448842406272888;1.7733162641525269;94.98956298828125
125;1666356561.5642939;46.975535099999995;7.1803567;24.441001892089844;1666356561.5603921;-0.9058854579925537;1.1894140243530273;94.98941802978516
126;1666356561.8092723;46.975535;7.1803563;24.762001037597656;1666356561.8034146;-2.5281505584716797;1.3930236101150513;94.90640258789062
127;1666356562.0113053;46.9755349;7.1803561;25.08500099182129;1666356562.005447;-5.498377799987793;-0.810977578163147;95.44279479980469
128;1666356562.2201664;46.9755348;7.1803558999999995;25.408000946044922;1666356562.2113838;-4.180293083190918;-1.6228612661361694;95.58255767822266
129;1666356562.4641705;46.9755347;7.1803558;25.73000144958496;1666356562.4436765;-3.5552258491516113;-1.568513035774231;95.34817504882812
130;1666356562.6788874;46.975534599999996;7.1803558;26.03900146484375;1666356562.6740072;-2.9896390438079834;-2.029296398162842;94.99149322509766
131;1666356562.8975132;46.9755347;7.180356;26.347002029418945;1666356562.8887277;-0.017285553738474846;-1.2779532670974731;94.7524185180664
132;1666356563.137608;46.9755347;7.1803564;26.666000366210938;1666356563.131755;1.3736661672592163;-1.6957573890686035;94.94490051269531
133;1666356563.3415916;46.9755348;7.1803567;26.992000579833984;1666356563.3357377;3.0970349311828613;-0.6026377081871033;95.00409698486328
134;1666356563.572904;46.9755349;7.180357;27.316001892089844;1666356563.568029;5.419707775115967;-0.27672550082206726;95.15641784667969
135;1666356563.7749364;46.975535;7.180357099999999;27.643001556396484;1666356563.766154;3.899656057357788;1.043000340461731;95.31867218017578
136;1666356563.9955127;46.975535;7.180357099999999;27.95600128173828;1666356563.9925847;1.7190566062927246;0.6483567953109741;95.15022277832031
137;1666356564.2141366;46.9755349;7.1803569;28.264001846313477;1666356564.2063305;0.614893913269043;1.0680792331695557;94.86581420898438
138;1666356564.4347124;46.9755349;7.1803566;28.58100128173828;1666356564.427881;-1.3703571557998657;1.243282675743103;94.77973937988281
139;1666356564.6523628;46.9755348;7.180356199999999;28.899002075195312;1666356564.6484573;-2.954751968383789;0.21756789088249207;94.96485137939453
140;1666356564.8729372;46.9755347;7.1803558;29.21900177001953;1666356564.864154;-3.5371060371398926;0.0867217630147934;94.64640808105469
141;1666356565.0993707;46.975534599999996;7.1803555;29.53900146484375;1666356565.0954661;-5.373478412628174;-0.8584578037261963;94.81513977050781
142;1666356565.3140888;46.975534599999996;7.1803552999999996;29.84800148010254;1666356565.3082354;-4.986512184143066;-1.3763244152069092;95.26610565185547
143;1666356565.5180755;46.975534599999996;7.1803554;30.160001754760742;1666356565.5102649;-1.4956114292144775;-2.906926155090332;95.5934066772461
144;1666356565.7132752;46.9755347;7.1803558;30.48200225830078;1666356565.7035136;-0.38248613476753235;-1.6632091999053955;95.5458755493164
145;1666356565.932877;46.9755348;7.180356199999999;30.809001922607422;1666356565.9250653;1.8503777980804443;-0.060252778232097626;95.24366760253906
146;1666356566.144665;46.9755349;7.1803567;31.13500213623047;1666356566.1397862;3.3078360557556152;-0.9737265706062317;95.22229766845703
147;1666356566.3486505;46.9755349;7.180357;31.457000732421875;1666356566.3437715;5.428341865539551;0.7464307546615601;95.13246154785156
148;1666356566.6599963;46.9755349;7.1803571999999996;31.77800178527832;1666356566.6551142;3.79532790184021;0.0804155245423317;95.02168273925781
149;1666356566.8542197;46.9755349;7.1803573;32.082000732421875;1666356566.8493378;1.2630912065505981;1.2586655616760254;94.7466812133789
150;1666356567.1626348;46.9755348;7.180357099999999;32.38600158691406;1666356567.154831;-0.25751835107803345;0.9807499051094055;94.80579376220703
151;1666356567.36857;46.9755347;7.1803567;32.698001861572266;1666356567.363691;-0.7676575183868408;0.1853061020374298;95.06675720214844
152;1666356567.5936918;46.975534499999995;7.1803561;33.013999938964844;1666356567.5888128;-3.4256856441497803;-0.0498838871717453;95.4278564453125
153;1666356567.798653;46.9755344;7.1803555999999995;33.33100128173828;1666356567.7937715;-5.237937927246094;-1.430221676826477;95.57097625732422
154;1666356568.0016594;46.9755344;7.180355199999999;33.65299987792969;1666356567.997758;-3.8577029705047607;-1.8133602142333984;95.6230697631836
155;1666356568.2271163;46.9755344;7.180355;33.9630012512207;1666356568.2202857;-3.7704248428344727;-0.22395338118076324;95.22570037841797
156;1666356568.4320776;46.9755344;7.1803551;34.27000045776367;1666356568.426222;-1.2656667232513428;-1.3102397918701172;95.019775390625
157;1666356568.634109;46.9755344;7.1803554;34.58700180053711;1666356568.629229;0.1274389922618866;-1.62579345703125;94.8319091796875
158;1666356568.8654244;46.9755344;7.1803557;34.90999984741211;1666356568.860541;2.175286293029785;-0.8181647062301636;94.7822494506836
159;1666356569.0742843;46.975534499999995;7.180356;35.233001708984375;1666356569.0713587;3.5339112281799316;-0.4410386383533478;95.08417510986328
160;1666356569.2665164;46.975534499999995;7.1803563;35.55800247192383;1666356569.261635;4.587813854217529;0.2787668704986572;95.3107681274414
161;1666356569.4909954;46.975534599999996;7.180356499999999;35.88100051879883;1666356569.4861183;3.522618532180786;1.2294200658798218;95.3071060180664
162;1666356569.6901007;46.975534599999996;7.1803564;36.19300079345703;1666356569.6842458;0.9239353537559509;0.8045796155929565;95.50554656982422
163;1666356569.890184;46.975534499999995;7.180356199999999;36.50200271606445;1666356569.8833487;0.9837274551391602;1.265714406967163;94.89154815673828
164;1666356570.1175888;46.9755344;7.1803558;36.823001861572266;1666356570.109781;-3.292741060256958;0.5106232762336731;95.12664031982422
165;1666356570.319621;46.9755343;7.1803552999999996;37.150001525878906;1666356570.3166926;-4.09975528717041;-0.6322919726371765;95.0564956665039
166;1666356570.5206797;46.9755341;7.180354899999999;37.480003356933594;1666356570.510918;-6.030145645141602;-1.0470333099365234;95.1158676147461
167;1666356570.7597973;46.975533999999996;7.1803548;37.80800247192383;1666356570.7549176;-5.104653835296631;-1.4335700273513794;94.81199645996094
168;1666356570.9589028;46.975533999999996;7.1803548;38.12300109863281;1666356570.9549973;-3.355118751525879;-2.174743175506592;94.64698791503906
169;1666356571.1765509;46.9755341;7.1803551;38.43800354003906;1666356571.1726487;-1.2165576219558716;-1.69756281375885;94.8962631225586
170;1666356571.389317;46.9755342;7.1803555;38.762001037597656;1666356571.3844392;1.7676256895065308;-1.3614672422409058;95.30619049072266
171;1666356571.6098955;46.9755342;7.1803558999999995;39.09000015258789;1666356571.5952532;1.8885382413864136;-1.3989700078964233;95.4787826538086
172;1666356571.8050933;46.9755343;7.180356199999999;39.42000198364258;1666356571.8002145;3.665440559387207;-0.8439599871635437;95.593017578125
173;1666356572.0071259;46.9755344;7.1803564;39.749000549316406;1666356572.002248;3.925708293914795;0.2614132761955261;95.12799072265625
174;1666356572.2286808;46.975534499999995;7.1803566;40.07600021362305;1666356572.2247777;3.6037437915802;0.5711020827293396;94.59349060058594
175;1666356572.4297342;46.975534499999995;7.1803567;40.387001037597656;1666356572.4258313;1.5878925323486328;2.141298532485962;94.79714965820312
176;1666356572.6327424;46.975534499999995;7.180356499999999;40.694000244140625;1666356572.625911;0.6552478671073914;1.1889179944992065;94.93516540527344
177;1666356572.8767443;46.9755344;7.1803561;41.01400375366211;1666356572.8728406;-1.3294466733932495;0.7062206268310547;94.88319396972656
178;1666356573.113912;46.9755343;7.1803557;41.33700180053711;1666356573.113912;-3.383876085281372;0.7706106901168823;95.28916931152344
179;1666356573.3461998;46.9755342;7.1803554;41.65800094604492;1666356573.3383913;-5.426407814025879;-1.1517658233642578;95.6722412109375
180;1666356573.6194806;46.9755341;7.180355199999999;41.98200225830078;1666356573.6194806;-4.617741584777832;-1.9053962230682373;95.7801513671875
181;1666356573.8586042;46.9755341;7.1803551;42.29100036621094;1666356573.8468874;-2.9661786556243896;-1.5542312860488892;95.39720916748047
182;1666356574.0713708;46.9755341;7.1803552999999996;42.60000228881836;1666356574.065514;-1.0556190013885498;-1.4871126413345337;94.70719146728516
183;1666356574.2890165;46.9755342;7.1803555999999995;42.922000885009766;1666356574.2860878;-0.17741625010967255;-1.0970144271850586;94.74909973144531
184;1666356574.5125217;46.9755343;7.1803558999999995;43.24500274658203;1666356574.5017838;1.8502719402313232;-1.4212162494659424;94.89323425292969
185;1666356574.713576;46.9755344;7.180356199999999;43.569000244140625;1666356574.7077212;4.30289888381958;-0.4317844808101654;95.03163146972656
186;1666356574.9302516;46.975534499999995;7.1803564;43.89400100708008;1666356574.9243925;3.865025758743286;0.12460040301084518;95.11034393310547
187;1666356575.2015765;46.975534599999996;7.180356499999999;44.21800231933594;1666356575.1810806;2.101855516433716;0.4517165720462799;95.13993835449219
188;1666356575.4036083;46.975534599999996;7.1803566;44.53000259399414;1666356575.3958008;2.0948710441589355;0.8724629878997803;95.24048614501953
189;1666356575.6144245;46.975534599999996;7.1803563;44.840003967285156;1666356575.608568;-0.5061984658241272;1.5090163946151733;95.2865219116211
190;1666356575.8408563;46.975534499999995;7.1803558999999995;45.159000396728516;1666356575.8096244;-1.1801375150680542;-0.2094624936580658;95.46223449707031
191;1666356576.0506976;46.975534499999995;7.1803554;45.48200225830078;1666356576.0458179;-3.5651376247406006;-0.30735233426094055;95.3631820678711
192;1666356576.2673693;46.9755344;7.180355;45.80000305175781;1666356576.2615128;-4.64481782913208;-0.22059261798858643;94.86686706542969
193;1666356576.4889238;46.9755343;7.180354599999999;46.118003845214844;1666356576.4850216;-5.074048042297363;-1.0588252544403076;95.18944549560547
194;1666356576.6987612;46.9755343;7.1803545;46.42300033569336;1666356576.695836;-4.127780437469482;-1.424102783203125;95.33702850341797
195;1666356576.90958;46.9755343;7.1803547;46.730003356933594;1666356576.9056766;-2.252755641937256;-1.840291976928711;95.23323059082031
196;1666356577.1203957;46.9755344;7.180355;47.05000305175781;1666356577.1164892;0.08116017282009125;-1.9509741067886353;95.03124237060547
197;1666356577.347802;46.975534499999995;7.1803555;47.37700271606445;1666356577.333162;1.5609242916107178;-1.458549976348877;94.9889144897461
198;1666356577.5449543;46.9755347;7.1803558999999995;47.70100402832031;1666356577.5361698;3.3531455993652344;-0.30784302949905396;94.97753143310547
199;1666356577.7665083;46.9755348;7.1803563;48.02800369262695;1666356577.761628;4.351733684539795;0.10619977116584778;95.0086669921875
200;1666356577.995866;46.9755348;7.180356499999999;48.35100173950195;1666356577.9900098;4.328560829162598;1.2525428533554077;95.05634307861328
201;1666356578.3062344;46.9755349;7.1803567;48.65900421142578;1666356578.3013546;2.1926121711730957;1.8144725561141968;95.01107788085938
202;1666356578.5463305;46.9755348;7.180356499999999;48.96900177001953;1666356578.5365708;0.9252650737762451;1.1664975881576538;95.02066040039062
203;1666356578.761053;46.9755347;7.1803561;49.28700256347656;1666356578.7522686;-1.7805118560791016;1.3028104305267334;95.28284454345703
204;1666356578.9816265;46.975534499999995;7.1803555;49.60700225830078;1666356578.9708915;-4.676267147064209;-0.35075846314430237;95.5479507446289
205;1666356579.317372;46.9755344;7.1803551;49.92400360107422;1666356579.3124921;-5.3816375732421875;-0.70843905210495;95.23489379882812
206;1666356579.5467322;46.9755343;7.1803548;50.2390022277832;1666356579.5301404;-5.108047008514404;-1.859517216682434;95.03655242919922
207;1666356579.7936623;46.9755342;7.180354599999999;50.5420036315918;1666356579.783899;-3.1787326335906982;-2.5503346920013428;94.85110473632812
208;1666356580.0181468;46.9755343;7.1803548;50.845001220703125;1666356580.0044775;-1.0478616952896118;-0.86516273021698;95.03070831298828
209;1666356580.21822;46.9755344;7.180355199999999;51.160003662109375;1666356580.2123637;-0.05203916132450104;-1.6817415952682495;94.71658325195312
210;1666356580.4358778;46.975534499999995;7.1803555999999995;51.48400115966797;1666356580.430988;4.759870529174805;-0.7070554494857788;94.70819091796875
211;1666356580.655468;46.9755347;7.180356;51.810001373291016;1666356580.6505878;3.630157947540283;0.35658499598503113;94.95123291015625
212;1666356580.8643346;46.9755348;7.1803563;52.13900375366211;1666356580.8584764;2.5394558906555176;0.7710769176483154;95.33070373535156
213;1666356581.1932466;46.9755349;7.180356499999999;52.448001861572266;1666356581.1883667;1.2450767755508423;1.378999948501587;95.4173583984375
214;1666356581.4899492;46.9755349;7.1803564;52.75400161743164;1666356581.4850688;1.0256682634353638;1.065004587173462;95.43756866455078
215;1666356581.7017412;46.9755349;7.1803561;53.06700134277344;1666356581.6949086;-1.7533100843429565;1.655407428741455;95.37315368652344
216;1666356581.9115822;46.9755348;7.1803557;53.388004302978516;1666356581.904749;-3.233724594116211;0.25696009397506714;95.20938873291016
217;1666356582.103853;46.9755347;7.1803554;53.70900344848633;1666356582.0979993;-4.640968322753906;-0.6475812792778015;95.12942504882812
218;1666356582.3322372;46.9755347;7.1803551;54.02900314331055;1666356582.3254046;-4.216500282287598;-0.5660527944564819;95.12153625488281
219;1666356582.5411012;46.9755347;7.180354899999999;54.336002349853516;1666356582.5362227;-2.9171340465545654;-0.7853071093559265;95.0622329711914
220;1666356582.7772973;46.9755347;7.180355;54.643001556396484;1666356582.7675352;-2.623488426208496;-1.6468194723129272;95.22663116455078
221;1666356582.9783497;46.9755347;7.1803552999999996;54.96400451660156;1666356582.9695714;1.211936354637146;-0.7160878777503967;95.18983459472656
222;1666356583.1803818;46.9755348;7.1803555999999995;55.288002014160156;1666356583.1725745;1.1924283504486084;-0.06502842158079147;95.21345520019531
223;1666356583.397056;46.9755349;7.180356;55.6140022277832;1666356583.38827;3.263416290283203;-0.23361700773239136;95.12633514404297
224;1666356583.612751;46.9755349;7.1803563;55.939002990722656;1666356583.6049416;4.0004072189331055;0.7632173895835876;94.9878158569336
225;1666356583.8421133;46.9755349;7.1803566;56.26400375366211;1666356583.834304;4.131492614746094;1.4537276029586792;94.83524322509766
226;1666356584.057808;46.9755348;7.1803567;56.57200241088867;1666356584.0558548;3.0650784969329834;0.8270851373672485;94.68718719482422
227;1666356584.2783844;46.9755347;7.180356499999999;56.87900161743164;1666356584.2735038;0.15981057286262512;1.2013896703720093;94.7455825805664
228;1666356584.5038404;46.975534599999996;7.1803561;57.198001861572266;1666356584.4921267;-2.1385185718536377;0.24632389843463898;95.44686889648438
229;1666356584.7078226;46.9755344;7.1803555999999995;57.51700210571289;1666356584.702945;-5.003968238830566;-0.22460442781448364;95.51007843017578
230;1666356584.9176672;46.9755343;7.180355199999999;57.833003997802734;1666356584.9108312;-4.8583598136901855;-1.6835918426513672;95.49569702148438
231;1666356585.1284854;46.9755343;7.1803551;58.11700439453125;1666356585.1235998;-3.8535356521606445;-1.2023448944091797;95.05477905273438
232;1666356585.3500338;46.9755343;7.1803551;58.34700393676758;1666356585.344175;-2.408892869949341;-2.004847764968872;95.17407989501953
233;1666356585.5686579;46.975534599999996;7.180355199999999;58.55000305175781;1666356585.5598712;12.368233680725098;-20.118732452392578;90.59257507324219
234;1666356585.7824025;46.9755359;7.180354299999999;58.74900436401367;1666356585.7775228;28.41019630432129;-34.7210578918457;81.3673095703125
235;1666356585.9922402;46.9755391;7.1803509;58.90700149536133;1666356585.9863865;35.82261657714844;-46.56380844116211;70.7656021118164
236;1666356586.2050076;46.9755441;7.1803444;58.970001220703125;1666356586.200128;29.302101135253906;-44.89726638793945;62.410377502441406
237;1666356586.4011843;46.9755505;7.1803349999999995;58.971004486083984;1666356586.3963041;14.506438255310059;-36.4095344543457;53.50973892211914
238;1666356586.6207852;46.975557699999996;7.1803238;58.970001220703125;1666356586.616882;2.8435637950897217;-36.28233337402344;42.01976013183594
239;1666356586.8276966;46.9755653;7.180311;58.9890022277832;1666356586.8237934;-6.869096755981445;-39.49930191040039;29.949480056762695
240;1666356587.0492513;46.9755736;7.1802966999999995;59.02700424194336;1666356587.037536;-17.01148223876953;-41.94471740722656;18.66371726989746
241;1666356587.2532325;46.975582599999996;7.1802807;59.070003509521484;1666356587.2512825;-28.34250831604004;-36.189125061035156;7.223525047302246
242;1666356587.4699047;46.9755924;7.1802635;59.12000274658203;1666356587.4660025;-39.28875732421875;-20.123701095581055;-9.038934707641602
243;1666356587.6680334;46.975603299999996;7.1802456999999995;59.18800354003906;1666356587.6641302;-44.622467041015625;-6.713801383972168;-12.493903160095215
244;1666356587.8700662;46.9756157;7.1802278;59.25300216674805;1666356587.8661628;-47.69258117675781;-13.194927215576172;-2.1361420154571533
245;1666356588.1013782;46.9756296;7.1802104;59.298004150390625;1666356588.0925932;-46.7137451171875;-26.748693466186523;11.995033264160156
246;1666356588.2975557;46.9756451;7.1801932;59.3280029296875;1666356588.295601;-38.72649383544922;-42.1400260925293;30.94123077392578
247;1666356588.4976337;46.975662199999995;7.1801756999999995;59.34700393676758;1666356588.4917774;-21.509559631347656;-52.95827102661133;50.46162796020508
248;1666356588.7035773;46.9756808;7.180157899999999;59.36300277709961;1666356588.6977139;-6.601272106170654;-51.71981430053711;62.000579833984375
249;1666356588.9163375;46.9757004;7.18014;59.3650016784668;1666356588.9124334;-1.192404866218567;-52.02333068847656;54.428932189941406
250;1666356589.1164224;46.9757205;7.1801213;59.33000183105469;1666356589.110563;-3.5535199642181396;-52.272945404052734;33.09192657470703
251;1666356589.314546;46.9757399;7.1801005;59.27100372314453;1666356589.3096657;-12.635214805603027;-47.113868713378906;8.834779739379883
252;1666356589.5292666;46.975758;7.1800777;59.228004455566406;1666356589.52341;-23.306230545043945;-39.34897232055664;-8.788686752319336
253;1666356589.7371569;46.9757749;7.1800533;59.23100280761719;1666356589.732275;-35.34736251831055;-26.951778411865234;-22.420166015625
254;1666356589.9450448;46.975791;7.1800279;59.275001525878906;1666356589.9352837;-43.59012985229492;-12.752795219421387;-28.285497665405273
255;1666356590.1460989;46.9758071;7.1800023;59.33400344848633;1666356590.1412182;-51.592010498046875;-5.677249908447266;-31.438220977783203
256;1666356590.3861954;46.975823999999996;7.1799764999999995;59.381004333496094;1666356590.3813148;-56.481719970703125;1.0179156064987183;-35.4134635925293
257;1666356590.6975389;46.9758419;7.1799507;59.40400314331055;1666356590.6916828;-58.70622253417969;5.18027400970459;-32.669715881347656
258;1666356590.9054277;46.975860999999995;7.1799257;59.371002197265625;1666356590.9034758;-58.14165496826172;0.6086705923080444;-17.66116714477539
259;1666356591.1211236;46.9758815;7.179901999999999;59.29700469970703;1666356591.117221;-51.98631286621094;-8.709973335266113;-3.588132858276367
260;1666356591.3534122;46.9759029;7.179879799999999;59.21200180053711;1666356591.3495088;-39.82329177856445;-13.150611877441406;9.264406204223633
261;1666356591.557396;46.9759244;7.1798592999999995;59.17200469970703;1666356591.55252;-14.793635368347168;-11.7542724609375;7.087931156158447
262;1666356591.7750483;46.975944399999996;7.1798402;59.1670036315918;1666356591.770166;1.9300965070724487;-10.535847663879395;-4.479279041290283
263;1666356591.9712203;46.975961999999996;7.179822199999999;59.18300247192383;1666356591.964388;8.1131010055542;-21.700843811035156;-8.112495422363281
264;1666356592.1820364;46.9759768;7.1798044;59.20600128173828;1666356592.1800857;3.5781707763671875;-38.52989196777344;-7.660387992858887
265;1666356592.3869975;46.9759892;7.1797854999999995;59.237003326416016;1666356592.3821173;-17.634246826171875;-37.35686492919922;-10.370469093322754
266;1666356592.5929368;46.9760006;7.1797653;59.303001403808594;1666356592.5861022;-42.26262664794922;-23.560203552246094;-22.825986862182617
267;1666356592.8740203;46.976011899999996;7.1797438;59.375003814697266;1666356592.8681664;-55.50252914428711;-6.150123596191406;-36.7697868347168
268;1666356593.0750792;46.9760244;7.1797211;59.42400360107422;1666356593.0701964;-62.40137481689453;4.893408298492432;-41.667572021484375
269;1666356593.3054163;46.9760387;7.1796976;59.4160041809082;1666356593.2995565;-61.881675720214844;6.695606708526611;-33.608707427978516
270;1666356593.5025656;46.976054999999995;7.1796745;59.35400390625;1666356593.4976854;-52.78968811035156;0.0425642728805542;-21.735206604003906
271;1666356593.7368054;46.976072599999995;7.1796524999999995;59.28200149536133;1666356593.7329042;-46.3548583984375;-4.722529888153076;-13.524569511413574
272;1666356593.9583573;46.9760912;7.1796316;59.23100280761719;1666356593.9534798;-46.5018196105957;-7.191895961761475;-6.993136882781982
273;1666356594.168199;46.9761105;7.179611899999999;59.20100402832031;1666356594.1642935;-48.77371597290039;-10.744455337524414;0.6165767908096313
274;1666356594.394631;46.9761308;7.1795933;59.18400192260742;1666356594.3858464;-44.36279296875;-20.392087936401367;12.669753074645996
275;1666356594.5869033;46.9761515;7.179575799999999;59.18300247192383;1666356594.582022;-19.28727912902832;-14.24242115020752;20.81294822692871
276;1666356594.8191917;46.9761714;7.1795595;59.20500183105469;1666356594.8152862;0.7828492522239685;-9.022847175598145;15.415486335754395
277;1666356595.008534;46.9761891;7.179544099999999;59.22600173950195;1666356595.0046325;15.353357315063477;-19.61739158630371;11.538076400756836
278;1666356595.2144704;46.9762043;7.1795288;59.24700164794922;1666356595.2076385;19.180641174316406;-26.795446395874023;4.52871561050415
279;1666356595.4047935;46.976217;7.1795129;59.27800369262695;1666356595.39991;5.630519866943359;-39.179931640625;4.095431804656982
280;1666356595.7210531;46.9762281;7.1794955;59.30600357055664;1666356595.7171106;-15.6773681640625;-46.54051208496094;8.69620418548584
281;1666356595.9318306;46.976239199999995;7.179476299999999;59.311004638671875;1666356595.9269502;-35.06379318237305;-43.103721618652344;8.361106872558594
282;1666356596.2509866;46.9762511;7.1794556;59.29300308227539;1666356596.24513;-47.55939865112305;-23.66878890991211;-13.017430305480957
283;1666356596.463754;46.976264099999995;7.179433599999999;59.301002502441406;1666356596.458871;-50.47153854370117;-7.349875450134277;-34.250370025634766
284;1666356596.6745672;46.976278199999996;7.1794107;59.32100296020508;1666356596.6706634;-51.978904724121094;1.1893621683120728;-41.03107833862305
285;1666356596.8883128;46.976293399999996;7.1793875;59.3380012512207;1666356596.8844073;-53.753570556640625;10.693228721618652;-42.954776763916016
286;1666356597.1001036;46.9763099;7.179364499999999;59.34100341796875;1666356597.0962026;-55.27783203125;11.446342468261719;-35.80548095703125
287;1666356597.3079922;46.9763279;7.1793423999999995;59.32200241088867;1666356597.3021374;-55.87796401977539;5.461103439331055;-27.342941284179688
288;1666356597.5334482;46.9763473;7.179321;59.28900146484375;1666356597.5295455;-53.73500061035156;0.7784367799758911;-18.36697006225586
289;1666356597.7442658;46.9763678;7.179300899999999;59.24800109863281;1666356597.7393856;-43.942955017089844;0.16351069509983063;-6.48820161819458
290;1666356597.980457;46.9763887;7.179282499999999;59.21200180053711;1666356597.9755769;-32.08280563354492;-3.4447720050811768;-9.050737380981445
291;1666356598.1981065;46.9764092;7.179265399999999;59.17900466918945;1666356598.1903017;-19.995101928710938;-7.533767223358154;-19.09356117248535
292;1666356598.4186826;46.976428299999995;7.1792489999999995;59.15200424194336;1666356598.4128246;-7.544347286224365;-23.71114730834961;-23.15422821044922
293;1666356598.6187625;46.9764451;7.1792326;59.130001068115234;1666356598.6109538;0.6359344124794006;-38.24782943725586;-28.90280532836914
294;1666356598.8393388;46.976459;7.1792162;59.08400344848633;1666356598.8344605;15.524660110473633;-27.321365356445312;-47.36522674560547
295;1666356599.1545892;46.9764699;7.1792012;58.96900177001953;1666356599.14873;22.049224853515625;-19.021215438842773;-53.83919906616211
296;1666356599.37614;46.9764779;7.179188399999999;58.77100372314453;1666356599.3712592;17.49830436706543;-9.856298446655273;-51.49602508544922
297;1666356599.610381;46.9764839;7.1791778;58.518001556396484;1666356599.6045213;13.045159339904785;-3.762018918991089;-50.6439323425293
298;1666356599.8182662;46.9764884;7.1791693;58.25700378417969;1666356599.815338;9.898995399475098;3.488422155380249;-49.77128982543945
299;1666356600.0466506;46.9764918;7.1791629;58.01400375366211;1666356600.0476298;6.379714488983154;2.8295485973358154;-47.74647903442383
300;1666356600.2525895;46.9764944;7.1791582;57.797000885009766;1666356600.239898;2.4263417720794678;6.905913352966309;-45.63005828857422
301;1666356600.5014656;46.9764967;7.179155;57.62300109863281;1666356600.4975646;1.873217225074768;3.795067310333252;-44.26473617553711
302;1666356600.7171628;46.976499;7.1791525;57.50400161743164;1666356600.7074034;-0.2549186646938324;5.1268157958984375;-42.91168975830078
303;1666356600.9455476;46.9765015;7.179150399999999;57.45100402832031;1666356600.931882;-4.962637424468994;5.954234600067139;-44.352783203125
304;1666356601.1495304;46.9765041;7.1791485999999995;57.471004486083984;1666356601.1426992;-5.959872722625732;5.209790229797363;-46.977176666259766
305;1666356601.45795;46.976506699999995;7.1791469;57.557003021240234;1666356601.4540439;-5.111251354217529;-0.4139595329761505;-49.409202575683594
306;1666356601.6570508;46.976509199999995;7.179145;57.71400451660156;1666356601.6521707;0.1765354722738266;6.859793186187744;-53.934906005859375
307;1666356601.8883624;46.9765118;7.1791434999999995;57.93000411987305;1666356601.8795836;3.410709857940674;6.927109241485596;-56.70195007324219
308;1666356602.097228;46.976513999999995;7.1791423;58.14400100708008;1666356602.0933294;3.349803924560547;-14.685925483703613;-60.539329528808594
309;1666356602.313902;46.9765156;7.179140899999999;58.32500457763672;1666356602.3080435;3.7219529151916504;0.41132745146751404;-66.00096893310547
310;1666356602.524718;46.9765167;7.1791396;58.47600173950195;1666356602.5159326;-9.265646934509277;-3.5611658096313477;-67.85162353515625
311;1666356602.733581;46.9765176;7.179138099999999;58.60000228881836;1666356602.7228463;-7.028846740722656;-9.212471961975098;-71.61236572265625
312;1666356602.936591;46.9765181;7.1791363;58.702003479003906;1666356602.9307327;-2.8666229248046875;-1.909477710723877;-75.30874633789062
313;1666356603.1493573;46.976518299999995;7.1791344;58.78200149536133;1666356603.150335;-11.466137886047363;-2.59950852394104;-73.83875274658203
314;1666356603.3479834;46.976518299999995;7.1791325;58.84300231933594;1666356603.346037;-4.520801067352295;-6.1457366943359375;-73.53617858886719
315;1666356603.5558746;46.9765181;7.1791306;58.893001556396484;1666356603.5519693;-0.641443133354187;3.8238863945007324;-74.6924057006836
316;1666356603.78816;46.9765181;7.179129;58.93300247192383;1666356603.7784019;-7.345604419708252;5.596134662628174;-74.55744171142578
317;1666356604.0126412;46.9765187;7.179126999999999;58.987003326416016;1666356604.01069;-23.247220993041992;20.66771697998047;-77.64556884765625
318;1666356604.2312667;46.9765206;7.1791236;59.040000915527344;1666356604.220531;-36.48501205444336;23.88718605041504;-78.504150390625
319;1666356604.4372;46.9765242;7.179118099999999;59.052001953125;1666356604.4342728;-47.099849700927734;10.297555923461914;-67.9698486328125
320;1666356604.634353;46.976529199999995;7.17911;59.01900100708008;1666356604.6304483;-41.78464126586914;-4.191591262817383;-57.01517868041992
321;1666356604.8656662;46.9765351;7.1790996;58.971004486083984;1666356604.8607888;-33.307861328125;-7.010138511657715;-54.3623161315918
322;1666356605.0823376;46.976541399999995;7.1790876;58.93700408935547;1666356605.0774574;-30.722902297973633;-5.250673770904541;-52.81684112548828
323;1666356605.3058414;46.976548;7.1790745;58.93800354003906;1666356605.2990093;-30.912982940673828;-4.754002571105957;-51.526580810546875
324;1666356605.6298738;46.9765551;7.1790603;58.97200393676758;1666356605.611329;-33.71932601928711;-4.446806907653809;-50.942291259765625
325;1666356605.8348346;46.9765625;7.1790449999999995;59.0260009765625;1666356605.8211713;-36.10114669799805;-1.9053524732589722;-50.85736083984375
326;1666356606.0622442;46.976570699999996;7.1790287;59.10000228881836;1666356606.0554109;-37.189186096191406;1.327784538269043;-50.378578186035156
327;1666356606.2955072;46.9765796;7.1790116;59.178001403808594;1666356606.2857459;-37.12868118286133;-0.3185061514377594;-49.92269515991211
328;1666356606.5033944;46.976589;7.1789939;59.24800109863281;1666356606.4994898;-44.14521408081055;2.893545627593994;-49.37805938720703
329;1666356606.8176658;46.976599199999995;7.1789757;59.294002532958984;1666356606.8118103;-47.41935729980469;4.044721603393555;-48.23652648925781
330;1666356607.037267;46.9766104;7.1789567;59.31900405883789;1666356607.0314107;-48.48481750488281;1.7951315641403198;-48.878849029541016
331;1666356607.2783382;46.9766231;7.178936299999999;59.32600402832031;1666356607.2636983;-48.601627349853516;6.611567497253418;-51.76655960083008
332;1666356607.4989192;46.976635599999994;7.1789166;59.32500457763672;1666356607.4950106;-48.396636962890625;5.532327175140381;-51.2734375
333;1666356607.7058263;46.9766492;7.1788951999999995;59.32100296020508;1666356607.6999726;-47.49039840698242;0.18671733140945435;-49.363258361816406
334;1666356607.9468994;46.9766632;7.178872999999999;59.31700134277344;1666356607.944947;-46.927249908447266;-3.5131540298461914;-47.93049621582031
335;1666356608.1645503;46.9766774;7.17885;59.31200408935547;1666356608.1596675;-46.4565544128418;-3.9027583599090576;-48.235679626464844
336;1666356608.4105017;46.9766918;7.178826399999999;59.310001373291016;1666356608.4007413;-44.847557067871094;-0.039308108389377594;-48.48161697387695
337;1666356608.6300998;46.9767065;7.1788023;59.31200408935547;1666356608.625224;-43.761451721191406;0.5158158540725708;-49.268585205078125
338;1666356608.8594599;46.9767213;7.178777999999999;59.31200408935547;1666356608.8536053;-42.97423553466797;-0.3367316424846649;-48.79402542114258
339;1666356609.0751565;46.9767361;7.1787534;59.310001373291016;1666356609.0722282;-42.97908401489258;-2.9775683879852295;-48.4107780456543
340;1666356609.3113477;46.9767507;7.1787285999999995;59.30400466918945;1666356609.3074443;-43.139041900634766;-3.8341712951660156;-47.90181350708008
341;1666356609.5182617;46.9767653;7.1787037;59.29500198364258;1666356609.511431;-43.424129486083984;-2.8263490200042725;-48.16325378417969
342;1666356609.75055;46.9767799;7.1786787;59.27700424194336;1666356609.740789;-41.680320739746094;-0.16152141988277435;-49.252830505371094
343;1666356609.9642935;46.976794299999995;7.178653799999999;59.24800109863281;1666356609.9594126;-34.251888275146484;3.9092893600463867;-49.60979080200195
344;1666356610.1829174;46.9768085;7.1786296;59.21600341796875;1666356610.174137;-28.031991958618164;-0.3930085599422455;-48.564598083496094
345;1666356610.3859267;46.976822;7.1786062;59.18100357055664;1666356610.3800685;-21.652132034301758;-5.159858703613281;-46.65885543823242
346;1666356610.6055253;46.9768347;7.1785841999999995;59.14400100708008;1666356610.600648;-14.986404418945312;-3.0631518363952637;-47.40342712402344
347;1666356610.8153677;46.9768464;7.178563899999999;59.11000442504883;1666356610.8114614;-9.044650077819824;1.6730518341064453;-49.91903305053711
348;1666356611.0359416;46.976856999999995;7.178546099999999;59.07600402832031;1666356611.0310624;7.4107255935668945;4.857728481292725;-50.341426849365234
349;1666356611.2438293;46.976866099999995;7.1785309999999996;59.025001525878906;1666356611.236021;16.69150733947754;-3.711693286895752;-48.64689254760742
350;1666356611.4712374;46.976873399999995;7.1785185;58.952003479003906;1666356611.4653811;21.077085494995117;1.6367685794830322;-52.51795959472656
351;1666356611.6830297;46.9768792;7.178508399999999;58.86000442504883;1666356611.6801019;14.015694618225098;-11.412922859191895;-53.761165618896484
352;1666356611.9084873;46.9768835;7.1785001;58.78900146484375;1666356611.898725;0.8124825358390808;0.9541425704956055;-54.726619720458984
353;1666356612.0988085;46.976887;7.1784931;58.7660026550293;1666356612.093928;-6.26627254486084;-0.41154950857162476;-56.64694595336914
354;1666356612.3115773;46.9768903;7.1784868;58.79900360107422;1666356612.3066974;-10.443055152893066;0.02211405709385872;-58.71821212768555
355;1666356612.5184858;46.976893399999994;7.1784807;58.842002868652344;1666356612.5126302;-10.849146842956543;2.4764771461486816;-58.672550201416016
356;1666356612.8142145;46.9768964;7.178474899999999;58.88200378417969;1666356612.8093367;-3.4532644748687744;5.300571918487549;-55.23555374145508
357;1666356613.0338175;46.9768991;7.1784699;58.9160041809082;1666356613.0279613;2.2875993251800537;0.9900753498077393;-52.28987503051758
358;1666356613.2524388;46.9769015;7.1784658;58.94400405883789;1666356613.2485373;-1.869489312171936;6.633116722106934;-51.42192840576172
359;1666356613.4974148;46.9769036;7.1784626;58.96800231933594;1666356613.485703;8.601723670959473;5.206029891967773;-48.335086822509766
360;1666356613.7004232;46.9769053;7.1784602;58.98500442504883;1666356613.6916416;9.282992362976074;-0.03251577541232109;-46.169105529785156
361;1666356613.9073348;46.9769067;7.1784586;58.99700164794922;1666356613.9014797;6.703653812408447;1.244313359260559;-43.82981872558594
362;1666356614.1347435;46.9769077;7.1784576;59.00200271606445;1666356614.1288893;10.03200626373291;0.6507230401039124;-44.38658142089844
363;1666356614.3426313;46.9769083;7.1784571999999995;59.009002685546875;1666356614.3338487;-1.8372454643249512;-0.761888325214386;-45.67194747924805
364;1666356614.5397868;46.976908699999996;7.178457099999999;59.022003173828125;1666356614.5349047;1.222232460975647;3.010200262069702;-43.2375602722168
365;1666356614.755482;46.9769091;7.1784574999999995;59.09300231933594;1666356614.7486482;0.602433979511261;12.274064064025879;-42.21461868286133
366;1666356614.9575133;46.9769096;7.1784590999999995;59.22700119018555;1666356614.9516578;1.9209082126617432;8.691120147705078;-38.95922088623047
367;1666356615.209323;46.9769104;7.1784615;59.428001403808594;1666356615.200538;-1.3592544794082642;18.17547035217285;-37.22325134277344
368;1666356615.507978;46.9769119;7.178465;59.66800308227539;1666356615.502122;-4.211757659912109;31.863012313842773;-36.03844451904297
369;1666356615.7119634;46.9769146;7.1784703;59.919002532958984;1666356615.70513;-8.637289047241211;28.651002883911133;-35.93119430541992
370;1666356615.9432724;46.9769185;7.178477;60.18800354003906;1666356615.9393709;-10.076801300048828;27.842851638793945;-32.035118103027344
371;1666356616.1404252;46.976923299999996;7.178484999999999;60.470001220703125;1666356616.1345692;-10.553810119628906;27.782440185546875;-26.482440948486328
372;1666356616.366857;46.976929;7.1784941;60.76700210571289;1666356616.361977;-11.940165519714355;28.43166732788086;-21.829851150512695
373;1666356616.5893865;46.976935499999996;7.1785044;61.079002380371094;1666356616.5835288;-16.906391143798828;34.137054443359375;-16.269969940185547
374;1666356616.812889;46.976943;7.1785163;61.39500427246094;1666356616.8080106;-29.223079681396484;33.65887451171875;-8.851988792419434
375;1666356617.0110176;46.9769517;7.1785295;61.695003509521484;1666356617.0071156;-38.75897979736328;16.33881378173828;9.294198036193848
376;1666356617.2081718;46.9769614;7.1785431;61.97300338745117;1666356617.2032895;-25.759328842163086;4.752209663391113;17.1418399810791
377;1666356617.4433866;46.9769712;7.1785559;62.233001708984375;1666356617.435578;2.7874062061309814;-4.9090704917907715;11.456595420837402
378;1666356617.651275;46.9769797;7.1785666;62.483001708984375;1666356617.6434667;11.36970043182373;-4.6386613845825195;16.280597686767578
379;1666356617.8542848;46.976986499999995;7.1785752;62.720001220703125;1666356617.8484266;7.711676597595215;1.4383338689804077;25.81515121459961
380;1666356618.0543623;46.9769918;7.1785825;62.983001708984375;1666356618.0494826;-11.49313735961914;8.198585510253906;35.91697311401367
381;1666356618.2671351;46.9769965;7.1785901;63.30400466918945;1666356618.261276;-30.65770149230957;2.141376495361328;47.9515380859375
382;1666356618.4720907;46.977002;7.178598999999999;63.65300369262695;1666356618.4662347;-46.965763092041016;-9.510822296142578;53.909175872802734
383;1666356618.6771054;46.9770089;7.1786096;63.94700241088867;1666356618.672224;-51.742435455322266;-13.321861267089844;55.42661666870117
384;1666356618.906465;46.9770172;7.1786217;64.17100524902344;1666356618.9006097;-44.43073654174805;-10.051473617553711;52.24441909790039
385;1666356619.1006925;46.977026699999996;7.178634799999999;64.38500213623047;1666356619.0938642;-33.4697380065918;-4.501100540161133;50.88666915893555
386;1666356619.2910106;46.977036899999995;7.1786486;64.66300201416016;1666356619.2851534;-26.8914794921875;-5.0042853355407715;49.9555778503418
387;1666356619.5154934;46.977047299999995;7.1786626;64.9540023803711;1666356619.5096326;-34.84326171875;-0.914264976978302;49.500892639160156
388;1666356619.7194736;46.977058;7.1786772999999995;65.24100494384766;1666356619.71069;-40.3313102722168;-0.04526044428348541;49.50703048706055
389;1666356619.923457;46.9770691;7.178693099999999;65.5;1666356619.920532;-41.52390670776367;-1.441830039024353;49.753658294677734
390;1666356620.1215851;46.977080699999995;7.178709899999999;65.74500274658203;1666356620.1176836;-42.366397857666016;-0.7506678700447083;48.74692916870117
391;1666356620.3558254;46.9770927;7.1787275;65.98200225830078;1666356620.349972;-41.91850280761719;-0.8341346383094788;48.110843658447266
392;1666356620.6905947;46.9771052;7.1787459;66.21400451660156;1666356620.6857145;-40.785545349121094;-0.981916069984436;48.068389892578125
393;1666356620.9082506;46.977118;7.1787651;66.45100402832031;1666356620.9033642;-40.33944320678711;-0.8881843090057373;47.24711608886719
394;1666356621.1376047;46.977131199999995;7.1787847;66.69700622558594;1666356621.1356502;-39.45366287231445;-0.6600952744483948;46.6134033203125
395;1666356621.4538271;46.977144599999995;7.1788045;66.94400024414062;1666356621.4450436;-38.37500762939453;-0.5199669599533081;46.236534118652344
396;1666356621.6636667;46.9771582;7.1788246;67.19200134277344;1666356621.6587873;-37.28160858154297;-0.4510399401187897;46.20610427856445
397;1666356621.9974601;46.9771716;7.1788443;67.41300201416016;1666356621.9886768;-25.614931106567383;-0.2983894348144531;46.01266098022461
398;1666356622.192661;46.9771846;7.1788633;67.61000061035156;1666356622.1877787;-15.075627326965332;0.6383137106895447;45.801326751708984
399;1666356622.4083548;46.9771966;7.178881;67.79100036621094;1666356622.4034753;-7.083137035369873;0.6215721964836121;45.49262619018555
400;1666356622.6006277;46.9772074;7.1788969;67.95800018310547;1666356622.595747;-0.2281733751296997;0.058309156447649;45.36343002319336
401;1666356622.9080687;46.9772168;7.178910699999999;68.11100006103516;1666356622.9031892;13.12942886352539;2.477412462234497;44.86358642578125
402;1666356623.1081502;46.977224299999996;7.1789219;68.21600341796875;1666356623.0983872;23.942461013793945;1.867157220840454;44.34970474243164
403;1666356623.335556;46.97723;7.1789304;68.28700256347656;1666356623.3306756;23.094768524169922;0.21214044094085693;44.51691818237305
404;1666356623.5561326;46.9772341;7.1789365;68.37700653076172;1666356623.5532074;10.307866096496582;-0.4936973452568054;44.788536071777344
405;1666356623.7640212;46.9772374;7.1789412;68.48900604248047;1666356623.7620678;-6.03963041305542;-1.4744863510131836;44.843624114990234
406;1666356623.9777641;46.9772402;7.178945499999999;68.59300231933594;1666356623.9670281;-2.3048808574676514;0.11304246634244919;43.75704574584961
407;1666356624.2627559;46.9772429;7.1789494;68.68900299072266;1666356624.2578769;-3.2743759155273438;-1.7911310195922852;43.757179260253906
408;1666356624.4745502;46.9772454;7.178953;68.77000427246094;1666356624.4667404;-3.4947450160980225;-0.2878761887550354;43.708927154541016
409;1666356624.673656;46.9772477;7.178956299999999;68.83600616455078;1666356624.667797;-1.125064492225647;0.08635087311267853;43.4815559387207
410;1666356624.9039905;46.9772499;7.1789591999999995;68.88800048828125;1666356624.8825185;-3.799323320388794;0.27051711082458496;43.076377868652344
411;1666356625.1060205;46.9772519;7.1789619;68.9280014038086;1666356625.1011436;-6.612077236175537;-0.2927055060863495;43.53705596923828
412;1666356625.3207405;46.9772537;7.1789644;68.96100616455078;1666356625.3061016;-0.7540940642356873;0.42773815989494324;43.416690826416016
413;1666356625.5315611;46.977255299999996;7.178966399999999;68.99000549316406;1666356625.5266793;-3.9293107986450195;0.6639907360076904;43.26469421386719
414;1666356625.7540848;46.9772567;7.1789681;69.01600646972656;1666356625.749206;0.407356858253479;0.8387148380279541;43.21065139770508
415;1666356625.9531918;46.977257699999996;7.1789695;69.03800201416016;1666356625.9492893;2.31477952003479;0.41799086332321167;43.97995376586914
416;1666356626.2694144;46.9772585;7.1789705999999995;69.05599975585938;1666356626.2625816;0.15291360020637512;2.7258646488189697;44.52351760864258
417;1666356626.4694948;46.977258899999995;7.1789716;69.06999969482422;1666356626.46364;12.400320053100586;17.241764068603516;51.42862319946289
418;1666356626.6793346;46.9772584;7.1789727;69.0790023803711;1666356626.6754298;5.8593058586120605;19.890174865722656;56.41429901123047
