;pos_time;latitude;longitude;altitude;alt_time;pitch;roll;yaw
0;1666359845.8350594;46.9755343;7.1803558999999995;0.0560000017285347;1666359845.5910566;0.006529834121465683;-0.35728368163108826;90.77375793457031
1;1666359846.028305;46.9755343;7.180356;0.05900000408291817;1666359845.8057756;0.024919504299759865;-0.25323107838630676;90.79986572265625
2;1666359846.238146;46.9755343;7.180356;0.058000002056360245;1666359846.0058587;0.2589605152606964;-0.28550443053245544;90.68024444580078
3;1666359846.4587255;46.9755343;7.1803561;0.06000000238418579;1666359846.2137475;-0.15286807715892792;-0.3288176655769348;90.65648651123047
4;1666359846.682229;46.9755343;7.1803561;0.06100000441074371;1666359846.4333498;-0.049066897481679916;-0.18515567481517792;90.51924133300781
5;1666359846.8920684;46.9755343;7.180356;0.06400000303983688;1666359846.650998;-0.021238934248685837;-0.040706321597099304;90.59256744384766
6;1666359847.1097202;46.9755343;7.180356;0.0;1666359846.8608375;-0.0033308910205960274;-0.1624312847852707;90.5639419555664
7;1666359847.3263893;46.9755343;7.1803558999999995;-0.005000000353902578;1666359847.0755587;-0.044957179576158524;-0.013798397034406662;90.41495513916016
8;1666359847.5303767;46.9755343;7.1803558999999995;-0.007000000216066837;1666359847.293206;-0.08791973441839218;-0.14216294884681702;90.50099182128906
9;1666359847.7451484;46.9755342;7.180356;-0.004000000189989805;1666359847.4981701;-0.16171173751354218;-0.2942067086696625;90.47303771972656
10;1666359847.9374688;46.9755342;7.180356;-0.004000000189989805;1666359847.7061086;0.16690678894519806;-0.16465109586715698;90.52588653564453
11;1666359848.1600487;46.9755342;7.180356;-0.00800000037997961;1666359847.9228296;-0.07185960561037064;-0.2165430784225464;90.61176300048828
12;1666359848.3698914;46.9755342;7.180356;-0.003000000026077032;1666359848.1493144;0.3980367183685303;-0.23103031516075134;90.42620849609375
13;1666359848.583769;46.9755343;7.1803558999999995;-0.004000000189989805;1666359848.3542764;-0.01887882873415947;-0.4893588125705719;90.53276062011719
14;1666359848.7916572;46.9755342;7.1803558;-0.003000000026077032;1666359848.572058;-0.09995339810848236;-0.5088286995887756;90.52427673339844
15;1666359848.9888127;46.9755342;7.1803558;-0.005000000353902578;1666359848.774089;-0.004656721372157335;-0.44891229271888733;90.4165267944336
16;1666359849.2123148;46.9755343;7.1803558;-0.006000000052154064;1666359848.978075;-0.0821894034743309;-0.2533003091812134;90.49971771240234
17;1666359849.421774;46.9755343;7.1803558999999995;-0.0010000000474974513;1666359849.1976776;-0.03775842860341072;-0.23252896964550018;90.55577087402344
18;1666359849.6238818;46.9755343;7.1803558999999995;0.004000000189989805;1666359849.4100645;-0.009909756481647491;-0.21850547194480896;90.42076110839844
19;1666359849.8552501;46.9755343;7.1803558999999995;0.009000000543892384;1666359849.6111934;0.07362552732229233;-0.054119791835546494;90.37615966796875
20;1666359850.0753653;46.9755343;7.1803558999999995;0.004000000189989805;1666359849.8415864;0.08594636619091034;-0.15918460488319397;90.4975357055664
21;1666359850.295942;46.9755343;7.1803558999999995;0.009000000543892384;1666359850.0577993;0.09831804037094116;-0.06483916938304901;90.34758758544922
22;1666359850.5028563;46.9755343;7.1803558999999995;0.010000000707805157;1666359850.2842293;0.10541298240423203;-0.08335918933153152;90.41378784179688
23;1666359850.7058656;46.9755344;7.1803558;0.010000000707805157;1666359850.489191;0.2402137964963913;-0.052736833691596985;90.56871795654297
24;1666359851.0357516;46.9755343;7.1803558;0.009000000543892384;1666359850.6941526;0.16302534937858582;0.032996613532304764;90.48473358154297
25;1666359851.2441576;46.9755343;7.1803557;0.007000000216066837;1666359851.0250163;0.3830350935459137;-0.030584560707211494;90.4942855834961
26;1666359851.450094;46.9755343;7.1803557;0.00800000037997961;1666359851.2295191;0.37610068917274475;0.09959325939416885;90.47529602050781
27;1666359851.6560311;46.9755343;7.1803557;0.01100000087171793;1666359851.4393587;0.3537684381008148;0.36431851983070374;90.4358901977539
28;1666359851.893719;46.9755342;7.1803557;0.018000001087784767;1666359851.6433437;0.31781959533691406;0.654489278793335;90.4332275390625
29;1666359852.1138315;46.9755342;7.1803558;0.03500000014901161;1666359851.8756385;0.3046473562717438;0.3842511475086212;90.36768341064453
30;1666359852.3051794;46.9755342;7.180356;0.05000000074505806;1666359852.102119;-0.25686588883399963;2.1709678173065186;90.71939086914062
31;1666359852.5057812;46.9755343;7.1803564;0.07200000435113907;1666359852.2934666;-5.3805928230285645;-4.992916107177734;89.56556701660156
32;1666359852.7175736;46.9755344;7.1803564;0.10700000822544098;1666359852.4930952;1.2974984645843506;2.1533236503601074;90.53511810302734
33;1666359853.0347767;46.9755343;7.1803563;0.16100001335144043;1666359852.70684;0.8227677345275879;0.8529111742973328;90.58756256103516
34;1666359853.2348564;46.9755342;7.180356199999999;0.23200000822544098;1666359853.0240405;3.243609666824341;-0.01971501298248768;90.74852752685547
35;1666359853.4368896;46.9755342;7.1803561;0.3160000145435333;1666359853.2231462;4.759110450744629;0.32360753417015076;90.45944213867188
36;1666359853.6379468;46.9755341;7.180356;0.4130000174045563;1666359853.4242005;4.081122398376465;-0.13870157301425934;90.14073944091797
37;1666359853.867306;46.9755341;7.180356;0.5210000276565552;1666359853.6272092;3.8018441200256348;0.259480357170105;89.79180145263672
38;1666359854.071292;46.975533999999996;7.180356199999999;0.64000004529953;1666359853.8468125;0.6366937756538391;-0.16221094131469727;89.44727325439453
39;1666359854.2908914;46.975533899999995;7.1803566;0.7730000615119934;1666359854.0576284;-0.15345323085784912;-0.0641188994050026;89.2303695678711
40;1666359854.4909754;46.975533899999995;7.1803569;0.9180000424385071;1666359854.2713733;-1.2317537069320679;-0.6447514295578003;89.40006256103516
41;1666359854.7242372;46.975533899999995;7.180357;1.0750000476837158;1666359854.4782865;-1.05009126663208;-0.5438486337661743;89.66773986816406
42;1666359854.932132;46.975533899999995;7.1803569;1.2450000047683716;1666359854.7154548;-2.3175129890441895;-0.1617254763841629;89.54425048828125
43;1666359855.1409907;46.975533899999995;7.180356799999999;1.4260001182556152;1666359854.918468;-4.965538501739502;-0.5836731195449829;89.37295532226562
44;1666359855.370353;46.975533899999995;7.180356499999999;1.6130000352859497;1666359855.1253748;-0.39004597067832947;0.1656516045331955;88.8722152709961
45;1666359855.5792198;46.975533899999995;7.180356199999999;1.8010001182556152;1666359855.3615677;-2.0727884769439697;0.046144966036081314;92.34734344482422
46;1666359855.7978442;46.975533899999995;7.1803558999999995;1.9900001287460327;1666359855.5684912;1.2756907939910889;-0.5724226236343384;91.73040771484375
47;1666359856.001828;46.975533899999995;7.1803558;2.17900013923645;1666359855.7832017;2.9530856609344482;-0.5053732991218567;90.86508178710938
48;1666359856.2478797;46.975533899999995;7.1803557;2.369000196456909;1666359855.9852362;1.3668667078018188;-0.09553562849760056;90.94988250732422
49;1666359856.4518647;46.975533899999995;7.1803558;2.559000015258789;1666359856.2283611;5.273252487182617;-0.31921255588531494;90.62779235839844
50;1666359856.6499934;46.975533999999996;7.1803558;2.748000144958496;1666359856.4352732;0.8796672821044922;-0.49999842047691345;90.37268829345703
51;1666359856.8656938;46.9755341;7.1803558999999995;2.939000129699707;1666359856.6373043;0.18722420930862427;0.028946910053491592;89.93509674072266
52;1666359857.1135976;46.9755341;7.1803558999999995;3.129000186920166;1666359856.8520267;1.4587615728378296;-0.09358619153499603;90.25801849365234
53;1666359857.325389;46.9755341;7.180356;3.320000171661377;1666359857.0989568;-5.907027721405029;-0.11290238052606583;90.29988098144531
54;1666359857.5391347;46.9755341;7.180356199999999;3.515000104904175;1666359857.3146565;-2.444845199584961;0.08072447776794434;90.3932876586914
55;1666359857.7792299;46.9755341;7.1803563;3.7140002250671387;1666359857.5303488;-3.5994560718536377;-0.21691307425498962;90.01604461669922
56;1666359857.96955;46.9755341;7.1803563;3.9100000858306885;1666359857.7597091;-1.5996800661087036;0.17782385647296906;89.6975326538086
57;1666359858.174513;46.9755341;7.1803564;4.1080002784729;1666359857.9568634;0.7179081439971924;0.372251957654953;89.37301635742188
58;1666359858.474147;46.9755341;7.180356499999999;4.308000087738037;1666359858.1637778;-1.897310733795166;-0.17949575185775757;90.18084716796875
59;1666359858.683011;46.9755341;7.1803566;4.508000373840332;1666359858.4634142;4.388062000274658;0.15151143074035645;90.95195007324219
60;1666359858.9006634;46.9755341;7.1803567;4.707000255584717;1666359858.6703198;4.023721694946289;-0.3164137601852417;90.90666961669922
61;1666359859.213955;46.9755341;7.1803567;4.9070000648498535;1666359858.8830917;4.0437235832214355;-0.3097691237926483;90.388916015625
62;1666359859.4208667;46.9755341;7.1803567;5.105000019073486;1666359859.2022421;5.197371482849121;-0.5592751502990723;90.24600982666016
63;1666359859.6785333;46.9755341;7.180356499999999;5.304000377655029;1666359859.409157;2.4142961502075195;0.21097879111766815;90.3128433227539
64;1666359859.8815427;46.9755341;7.180356199999999;5.50700044631958;1666359859.656085;1.827366590499878;0.07708685100078583;90.42481994628906
65;1666359860.0806482;46.9755341;7.1803558;5.711000442504883;1666359859.870805;-2.145380973815918;0.09081566333770752;90.24853515625
66;1666359860.3041527;46.9755341;7.1803555999999995;5.914000511169434;1666359860.068935;-5.2052130699157715;-0.26447564363479614;90.11043548583984
67;1666359860.5169199;46.9755341;7.1803552999999996;6.118000507354736;1666359860.2914665;-1.5416041612625122;-0.03289942815899849;89.7686996459961
68;1666359860.831193;46.975533999999996;7.1803552999999996;6.319000244140625;1666359860.506183;-8.022883415222168;0.029734697192907333;89.93248748779297
69;1666359861.0244427;46.975533999999996;7.1803555;6.521000385284424;1666359860.8136268;-0.8787228465080261;-0.2837149500846863;90.50105285644531
70;1666359861.2313573;46.975533999999996;7.1803558;6.7270002365112305;1666359861.014682;-2.5512936115264893;-0.3943174183368683;91.10061645507812
71;1666359861.442175;46.9755341;7.180356199999999;6.932000160217285;1666359861.216715;-0.5489933490753174;-0.1618911176919937;90.7933578491211
72;1666359861.6403;46.9755341;7.1803566;7.137000560760498;1666359861.430459;5.744380950927734;-0.061192240566015244;90.11091613769531
73;1666359861.8559983;46.9755341;7.180356799999999;7.343000411987305;1666359861.6246839;3.94415020942688;-0.13943463563919067;89.9816665649414
74;1666359862.0902402;46.9755341;7.180356799999999;7.554000377655029;1666359861.8472197;6.15343713760376;-0.19352801144123077;90.1627426147461
75;1666359862.2922735;46.9755341;7.180356799999999;7.762000560760498;1666359862.0824366;3.5246052742004395;-0.13904200494289398;90.4448013305664
76;1666359862.5274885;46.975533999999996;7.1803567;7.9710001945495605;1666359862.2805595;1.5055058002471924;-0.2963164448738098;90.45906066894531
77;1666359862.7392821;46.975533999999996;7.180356499999999;8.178000450134277;1666359862.5157754;1.5600215196609497;-0.18165183067321777;90.1839370727539
78;1666359862.9676669;46.975533999999996;7.1803563;8.386000633239746;1666359862.7226896;-3.8307087421417236;-0.3869081437587738;90.11407470703125
79;1666359863.182386;46.975533999999996;7.1803561;8.598000526428223;1666359862.9549773;-1.8337582349777222;-0.6072226762771606;89.82315063476562
80;1666359863.4400535;46.975533999999996;7.1803558999999995;8.81100082397461;1666359863.1579869;-5.37815523147583;-0.19934295117855072;90.0855484008789
81;1666359863.6284223;46.975533999999996;7.1803558;9.020000457763672;1666359863.42053;-3.4679114818573;0.03275738283991814;90.82086181640625
82;1666359863.8216703;46.975533999999996;7.1803558999999995;9.230000495910645;1666359863.6167076;-3.6466774940490723;-0.46320927143096924;91.15176391601562
83;1666359864.126842;46.975533999999996;7.180356199999999;9.443000793457031;1666359863.8080053;-0.7763208746910095;-0.4183209538459778;90.6797103881836
84;1666359864.331803;46.9755341;7.180356499999999;9.659000396728516;1666359864.1170845;2.217036485671997;-0.2816034257411957;90.15023803710938
85;1666359864.5631173;46.9755341;7.1803567;9.87700080871582;1666359864.3113077;2.598392963409424;0.17820106446743011;89.96810913085938
86;1666359864.7417247;46.9755341;7.180356799999999;10.096000671386719;1666359864.549453;6.108738899230957;0.01498514786362648;90.11190795898438
87;1666359864.9662063;46.9755341;7.1803569;10.343000411987305;1666359864.7309887;3.4851126670837402;-0.27112752199172974;90.2869644165039
88;1666359865.1662867;46.9755341;7.1803566;10.652000427246094;1666359864.9505885;5.181587219238281;-0.006076378747820854;90.15552520751953
89;1666359865.380033;46.9755341;7.180356;10.987000465393066;1666359865.1545749;1.09783935546875;-0.28080883622169495;90.16049194335938
90;1666359865.5820673;46.9755341;7.1803552999999996;11.331000328063965;1666359865.356608;-0.4938555657863617;-0.11597029864788055;89.89153289794922
91;1666359865.7958076;46.9755342;7.1803548;11.675000190734863;1666359865.567425;-3.155921697616577;-0.2502569258213043;89.7739486694336
92;1666359866.0085785;46.9755342;7.1803545;12.011000633239746;1666359865.782147;-4.269382476806641;0.10683787614107132;89.9510498046875
93;1666359866.2437956;46.9755342;7.1803547;12.345000267028809;1666359865.9968657;-5.430517196655273;-0.07422041893005371;90.6077880859375
94;1666359866.4438763;46.9755342;7.1803552999999996;12.682000160217285;1666359866.224273;-3.479499340057373;-0.01626683957874775;91.1572036743164
95;1666359866.655669;46.9755342;7.1803561;13.015000343322754;1666359866.4350913;-3.7400312423706055;0.02673223428428173;90.88172149658203
96;1666359866.853796;46.9755342;7.1803567;13.345000267028809;1666359866.6420038;1.9288777112960815;-0.30998465418815613;90.7725601196289
97;1666359867.0587564;46.9755342;7.1803571999999996;13.672000885009766;1666359866.844037;2.4016058444976807;-0.022976981475949287;90.43590545654297
98;1666359867.266645;46.9755342;7.1803574;13.99100112915039;1666359867.0470471;6.004177570343018;0.005633365362882614;90.2032470703125
99;1666359867.4803975;46.9755342;7.180357099999999;14.307001113891602;1666359867.254935;4.91234827041626;0.1882963329553604;89.89729309082031
100;1666359867.6999905;46.9755342;7.180356499999999;14.62600040435791;1666359867.4686797;5.5378336906433105;-0.07206381112337112;89.82034301757812
101;1666359867.895194;46.9755341;7.1803558999999995;14.949000358581543;1666359867.6814475;-2.1710562705993652;0.23129652440547943;89.5835189819336
102;1666359868.1108925;46.975533999999996;7.1803554;15.27500057220459;1666359867.8786018;-1.8598510026931763;-0.09898225218057632;89.52377319335938
103;1666359868.3178048;46.975533999999996;7.180355;15.602001190185547;1666359868.0845373;-5.147209644317627;0.046944085508584976;89.47270965576172
104;1666359868.518859;46.975533899999995;7.1803548;15.919000625610352;1666359868.290473;-4.693549156188965;-0.3836851119995117;89.5518798828125
105;1666359868.7345564;46.975533899999995;7.180355;16.24100112915039;1666359868.505195;-4.9714226722717285;-0.3490506410598755;89.74959564208984
106;1666359868.960992;46.975533899999995;7.1803554;16.569000244140625;1666359868.7208915;-2.3506975173950195;-0.1587843894958496;89.95893096923828
107;1666359869.1659496;46.975533899999995;7.1803558;16.898000717163086;1666359868.948302;0.6083915829658508;-0.3875739276409149;90.09899139404297
108;1666359869.3865254;46.975533899999995;7.180356199999999;17.222000122070312;1666359869.1542382;2.9400579929351807;-0.19852213561534882;90.33750915527344
109;1666359869.5827024;46.975533899999995;7.180356499999999;17.543001174926758;1666359869.3718848;4.635970115661621;-0.14617399871349335;90.49658966064453
110;1666359869.7759552;46.9755338;7.1803567;17.865001678466797;1666359869.5729413;4.813785552978516;-0.31113749742507935;90.32666778564453
111;1666359869.999458;46.9755338;7.1803567;18.178001403808594;1666359869.7622864;4.7688164710998535;-0.2837127447128296;90.05835723876953
112;1666359870.2102761;46.975533899999995;7.1803566;18.49100112915039;1666359869.9857934;1.5638916492462158;-0.3807992935180664;90.40792846679688
113;1666359870.4142652;46.9755338;7.1803564;18.80500030517578;1666359870.1975868;1.3960107564926147;-0.009299501776695251;90.31297302246094
114;1666359870.6270273;46.9755338;7.1803561;19.121000289916992;1666359870.4064486;-1.6555681228637695;-0.19249466061592102;90.59566497802734
115;1666359870.8476036;46.9755338;7.1803558;19.440000534057617;1666359870.6143403;-2.981106758117676;-0.486289381980896;90.6532974243164
116;1666359871.0818455;46.9755338;7.1803555999999995;19.759000778198242;1666359870.8310106;-4.535553932189941;-0.5041312575340271;90.5962142944336
117;1666359871.2838764;46.975533899999995;7.1803554;20.071001052856445;1666359871.067203;-3.6409752368927;-0.43174946308135986;90.42701721191406
118;1666359871.493718;46.975533899999995;7.1803555;20.385000228881836;1666359871.27119;-2.375690221786499;-0.5323280096054077;90.55972290039062
119;1666359871.7279587;46.975533899999995;7.1803558;20.702001571655273;1666359871.482005;-1.3062033653259277;-0.06504468619823456;90.38288879394531
120;1666359871.9358494;46.975533999999996;7.1803561;21.0210018157959;1666359871.715272;1.2953557968139648;-0.13357330858707428;90.5219497680664
121;1666359872.1369052;46.975533999999996;7.180356499999999;21.341001510620117;1666359871.9231603;3.98651385307312;-0.23930548131465912;90.63611602783203
122;1666359872.448249;46.975533999999996;7.1803567;21.654001235961914;1666359872.1193361;4.803557872772217;-0.28231796622276306;90.79901885986328
123;1666359872.6551614;46.975533999999996;7.180356499999999;21.97100067138672;1666359872.435563;3.99599289894104;-0.4142582416534424;90.91712188720703
124;1666359872.8845227;46.975533999999996;7.180356199999999;22.291000366210938;1666359872.6434536;0.8249375224113464;0.30602630972862244;91.22901153564453
125;1666359873.1011965;46.975533999999996;7.1803558;22.612001419067383;1666359872.8698833;-1.8967480659484863;-0.17254911363124847;90.97344970703125
126;1666359873.3051798;46.975533999999996;7.1803555;22.933000564575195;1666359873.0836298;-2.6927490234375;-0.15541057288646698;90.51380920410156
127;1666359873.5384445;46.975533999999996;7.180355199999999;23.253000259399414;1666359873.292498;-3.9158244132995605;-0.2504604756832123;90.36894989013672
128;1666359873.750239;46.975533999999996;7.180355;23.567001342773438;1666359873.5286903;-5.787615776062012;-0.24380312860012054;90.2988510131836
129;1666359873.9659357;46.975533999999996;7.180355199999999;23.884000778198242;1666359873.7336464;-3.2883641719818115;-0.02591724507510662;89.98497009277344
130;1666359874.1826084;46.9755341;7.1803557;24.203001022338867;1666359873.9522712;-3.6993019580841064;-0.8844010233879089;90.21939849853516
131;1666359874.4320083;46.9755341;7.1803564;24.524002075195312;1666359874.1699262;-0.6630601286888123;-0.21071790158748627;90.06159973144531
132;1666359874.6330647;46.9755341;7.180357;24.84800148010254;1666359874.4217308;4.1706132888793945;0.05231050029397011;90.37200164794922
133;1666359874.8624263;46.9755341;7.1803573;25.171001434326172;1666359874.617451;6.436465740203857;-0.18651314079761505;90.73504638671875
134;1666359875.0979528;46.9755341;7.1803573;25.487001419067383;1666359874.850715;4.558987140655518;0.07193520665168762;90.97480010986328
135;1666359875.4000347;46.9755342;7.180357099999999;25.80000114440918;1666359875.0784302;3.9484028816223145;-0.006434582639485598;90.8587875366211
136;1666359875.6352606;46.9755342;7.1803567;26.119001388549805;1666359875.3858821;2.153183698654175;0.342121422290802;90.52210998535156
137;1666359875.847054;46.9755342;7.1803563;26.440000534057617;1666359875.6215966;-4.7553300857543945;-0.06606660783290863;90.39610290527344
138;1666359876.0715368;46.9755342;7.180356;26.76000213623047;1666359875.8382697;-2.258136510848999;0.14771364629268646;90.12562561035156
139;1666359876.2638092;46.9755342;7.1803558;27.07900047302246;1666359876.0608;-4.576103210449219;0.006147557403892279;89.9771499633789
140;1666359876.4619362;46.9755341;7.1803558;27.391000747680664;1666359876.2520971;-3.2577872276306152;-0.2142065018415451;90.02714538574219
141;1666359876.686419;46.9755341;7.1803558;27.705001831054688;1666359876.4472978;-2.7802188396453857;-0.046358875930309296;89.71885681152344
142;1666359876.892357;46.9755341;7.1803561;28.027000427246094;1666359876.6737292;-0.5901424884796143;-0.35994115471839905;89.80008697509766
143;1666359877.094388;46.9755342;7.1803564;28.351001739501953;1666359876.8747861;2.6232805252075195;-0.49722719192504883;89.93731689453125
144;1666359877.3120377;46.9755342;7.1803566;28.676000595092773;1666359877.0816994;3.354442596435547;-0.0386403389275074;90.11203002929688
145;1666359877.5277324;46.9755342;7.1803567;29.00200080871582;1666359877.2973964;5.157825469970703;-0.15814019739627838;90.29214477539062
146;1666359877.7570963;46.9755342;7.180356799999999;29.31800079345703;1666359877.5130937;3.0282793045043945;0.3300923705101013;90.35150909423828
147;1666359877.9708378;46.9755342;7.1803566;29.63500213623047;1666359877.744407;3.580484390258789;0.14201101660728455;90.49165344238281
148;1666359878.1646059;46.9755342;7.1803563;29.957000732421875;1666359877.9552214;0.8141047358512878;0.2117529809474945;90.1100082397461
149;1666359878.3793292;46.9755342;7.1803558999999995;30.280000686645508;1666359878.1509433;-1.8096615076065063;0.01321179885417223;90.0826187133789
150;1666359878.6106393;46.9755342;7.1803555999999995;30.60300064086914;1666359878.363711;-3.6115968227386475;-0.1622639000415802;90.23799896240234
151;1666359878.8116958;46.9755342;7.1803555;30.930002212524414;1666359878.5940485;-5.458008766174316;-0.22681576013565063;90.47748565673828
152;1666359879.0508175;46.9755342;7.1803554;31.246002197265625;1666359878.7980332;-2.520531177520752;-0.2149774730205536;90.46199035644531
153;1666359879.249926;46.9755342;7.1803555999999995;31.56300163269043;1666359879.0332503;-3.354053020477295;-0.5880564451217651;90.32809448242188
154;1666359879.4948995;46.9755342;7.1803558;31.888002395629883;1666359879.2362583;1.0728048086166382;-0.0779089406132698;90.35521697998047
155;1666359879.7027876;46.9755342;7.1803561;32.21500015258789;1666359879.4763556;2.9750266075134277;0.18580958247184753;90.66441345214844
156;1666359879.9097044;46.9755342;7.1803563;32.54199981689453;1666359879.6940033;2.9899110794067383;-0.17412665486335754;90.64400482177734
157;1666359880.1136882;46.9755342;7.180356499999999;32.871002197265625;1666359879.8960354;4.429332256317139;-0.07349143177270889;90.49468231201172
158;1666359880.341095;46.9755342;7.180356499999999;33.1870002746582;1666359880.0990477;3.96501088142395;-0.16180600225925446;90.79279327392578
159;1666359880.539223;46.9755342;7.1803564;33.505001068115234;1666359880.3274326;2.774167776107788;-0.06228823959827423;90.84327697753906
160;1666359880.7422318;46.9755342;7.180356199999999;33.827003479003906;1666359880.5275116;1.0539199113845825;-0.48275262117385864;91.0422134399414
161;1666359880.969642;46.9755343;7.1803558999999995;34.15400314331055;1666359880.7344246;-1.9374996423721313;-0.3529939651489258;90.90912628173828
162;1666359881.1765573;46.9755343;7.1803555999999995;34.48100280761719;1666359880.9559767;-0.8600432276725769;0.10073520988225937;90.67591094970703
163;1666359881.3942025;46.9755344;7.1803555;34.80800247192383;1666359881.1648426;-6.058286190032959;0.14865423738956451;90.46149444580078
164;1666359881.6118526;46.9755344;7.1803554;35.12300109863281;1666359881.3756597;-3.543391466140747;0.13303212821483612;90.55001068115234
165;1666359881.8353553;46.9755344;7.1803555999999995;35.44200134277344;1666359881.5972126;-3.4052586555480957;0.4073483347892761;90.24626922607422
166;1666359882.0344622;46.975534499999995;7.1803558999999995;35.768001556396484;1666359881.823646;-2.068675994873047;0.018157297745347023;90.1400146484375
167;1666359882.2647989;46.975534499999995;7.1803563;36.09600067138672;1666359882.0198214;1.955201268196106;-0.06031090021133423;89.97478485107422
168;1666359882.4639015;46.975534499999995;7.180356499999999;36.42500305175781;1666359882.2550378;3.2161953449249268;0.16148662567138672;90.02595520019531
169;1666359882.7664635;46.975534499999995;7.1803566;36.75300216674805;1666359882.454142;4.708998203277588;0.058807726949453354;90.17935180664062
170;1666359883.0124187;46.975534499999995;7.1803566;37.06500244140625;1666359882.7518263;4.377791881561279;0.21397748589515686;90.65690612792969
171;1666359883.226162;46.975534499999995;7.180356499999999;37.37900161743164;1666359882.9997277;4.028151988983154;0.25500088930130005;90.80238342285156
172;1666359883.4360027;46.975534499999995;7.1803561;37.704002380371094;1666359883.2115233;2.517289876937866;0.7247686982154846;90.8113784790039
173;1666359883.637058;46.975534499999995;7.1803557;38.03200149536133;1666359883.4233174;-0.2722470164299011;0.34056684374809265;90.55807495117188
174;1666359883.866423;46.9755344;7.1803554;38.361000061035156;1666359883.624373;-2.844794750213623;0.2373179793357849;90.35028076171875
175;1666359884.060647;46.9755344;7.180355199999999;38.689002990722656;1666359883.8508048;-3.5703303813934326;0.16219165921211243;89.89979553222656
176;1666359884.2685368;46.9755344;7.1803551;39.0160026550293;1666359884.0469804;-5.633749961853027;0.17975568771362305;89.7465591430664
177;1666359884.4695914;46.9755343;7.1803551;39.33000183105469;1666359884.2412102;-4.108067035675049;0.5548283457756042;89.46583557128906
178;1666359884.6950474;46.9755343;7.1803554;39.64400100708008;1666359884.4578795;-2.3448903560638428;0.08146723359823227;89.8080062866211
179;1666359884.9048905;46.9755343;7.1803558;39.96800231933594;1666359884.670649;-0.28120118379592896;-0.024026934057474136;89.86323547363281
180;1666359885.128396;46.9755343;7.180356199999999;40.29800033569336;1666359884.894155;2.09059476852417;-0.19209975004196167;90.15937805175781
181;1666359885.3382354;46.9755342;7.1803566;40.62900161743164;1666359885.1137528;3.2986671924591064;-0.4198891520500183;90.56315612792969
182;1666359885.565644;46.9755342;7.180356799999999;40.95900344848633;1666359885.3245685;5.0417561531066895;-0.027648430317640305;90.5776138305664
183;1666359885.758891;46.9755342;7.180356799999999;41.27300262451172;1666359885.545147;4.035007953643799;0.19843541085720062;90.65460968017578
184;1666359885.9599507;46.9755342;7.1803567;41.586002349853516;1666359885.7462032;4.180777072906494;-0.24464616179466248;90.55888366699219
185;1666359886.1658835;46.9755342;7.1803564;41.90500259399414;1666359885.9433553;1.3765504360198975;0.12507575750350952;90.66250610351562
186;1666359886.3630383;46.9755342;7.1803561;42.230003356933594;1666359886.1551492;-0.4488234519958496;0.14299249649047852;90.58625793457031
187;1666359886.6792614;46.9755342;7.1803558999999995;42.55400085449219;1666359886.3483975;-2.918708562850952;-0.2592325806617737;90.72624206542969
188;1666359886.9867043;46.9755342;7.1803557;42.884002685546875;1666359886.6665733;-3.1323294639587402;-0.04239140450954437;90.61894226074219
189;1666359887.2111833;46.9755342;7.1803555999999995;43.211002349853516;1666359886.966208;-3.541168212890625;-0.1501924991607666;90.65049743652344
190;1666359887.4073608;46.9755342;7.1803555;43.52400207519531;1666359887.1887379;-3.4624528884887695;-0.038714706897735596;90.69640350341797
191;1666359887.6181772;46.9755342;7.1803555999999995;43.836002349853516;1666359887.3946753;-3.6973674297332764;-0.00971203949302435;91.03477478027344
192;1666359887.8211877;46.9755343;7.1803558999999995;44.16200256347656;1666359887.6035383;-0.8194125890731812;0.03414921090006828;90.99886322021484
193;1666359888.0388374;46.9755343;7.180356199999999;44.49100112915039;1666359887.8055732;1.3394720554351807;-0.2615887224674225;90.73504638671875
194;1666359888.2506292;46.9755344;7.1803564;44.819000244140625;1666359888.0251746;1.6546123027801514;0.08771878480911255;90.53400421142578
195;1666359888.4643726;46.9755344;7.1803566;45.14900207519531;1666359888.239893;5.506392002105713;0.2169913947582245;90.42787170410156
196;1666359888.6654294;46.975534499999995;7.1803567;45.461002349853516;1666359888.4448528;3.2779042720794678;-0.22526419162750244;90.37860870361328
197;1666359888.8772235;46.975534499999995;7.1803566;45.77800369262695;1666359888.654694;5.116098403930664;0.35957905650138855;90.6541519165039
198;1666359889.0782795;46.975534499999995;7.180356499999999;46.10200119018555;1666359888.864534;-0.09188442677259445;0.23544983565807343;90.82902526855469
199;1666359889.291049;46.975534499999995;7.180356199999999;46.43000030517578;1666359889.069496;-0.1597970873117447;0.12766766548156738;91.03621673583984
200;1666359889.4950318;46.975534599999996;7.1803558999999995;46.75800323486328;1666359889.275432;-1.983154058456421;0.2021297663450241;91.23636627197266
201;1666359889.7019453;46.975534599999996;7.1803555999999995;47.086002349853516;1666359889.479418;-4.657637596130371;0.35940465331077576;91.06723022460938
202;1666359889.9215457;46.975534599999996;7.1803554;47.39800262451172;1666359889.6853528;-4.012685775756836;0.3840378522872925;90.65120697021484
203;1666359890.1440744;46.975534599999996;7.1803555999999995;47.7140007019043;1666359889.9078827;-5.013679027557373;0.2371593862771988;90.29732513427734
204;1666359890.3441567;46.975534499999995;7.1803558;48.038002014160156;1666359890.1294365;-1.3887221813201904;0.31258323788642883;89.97041320800781
205;1666359890.5725393;46.975534499999995;7.180356199999999;48.367000579833984;1666359890.3324466;0.9122296571731567;0.5923058986663818;89.61569213867188
206;1666359890.773597;46.975534499999995;7.180356499999999;48.69700241088867;1666359890.5608294;2.702169418334961;0.2073553204536438;89.72412109375
207;1666359891.0029597;46.975534499999995;7.1803567;49.027000427246094;1666359890.7599328;6.044810771942139;0.023125184699892998;89.93499755859375
208;1666359891.2098732;46.975534499999995;7.1803569;49.342002868652344;1666359890.9883182;2.985307455062866;0.07453742623329163;90.35517120361328
209;1666359891.4265451;46.975534499999995;7.1803567;49.660003662109375;1666359891.201088;4.67361307144165;-0.2508629262447357;90.5719223022461
210;1666359891.6285765;46.975534499999995;7.1803564;49.98600387573242;1666359891.4167826;0.9424964785575867;-0.016501247882843018;90.80026245117188
211;1666359891.8452487;46.975534499999995;7.180356;50.316001892089844;1666359891.6158893;-0.3235209584236145;0.4879326820373535;90.99629974365234
212;1666359892.0492358;46.975534499999995;7.1803555999999995;50.64600372314453;1666359891.82573;-1.8481731414794922;-0.007343498524278402;90.69693756103516
213;1666359892.2571247;46.975534499999995;7.180355199999999;50.97700119018555;1666359892.037523;-4.881037712097168;0.2499382197856903;90.31389617919922
214;1666359892.4523242;46.975534499999995;7.180355;51.28900146484375;1666359892.2424836;-4.330824851989746;0.2972392737865448;89.92536926269531
215;1666359892.6602135;46.975534499999995;7.180355199999999;51.60400390625;1666359892.4337807;-4.168513774871826;0.1959824115037918;89.81836700439453
216;1666359892.8807907;46.975534499999995;7.1803555;51.932003021240234;1666359892.6475236;-2.9459269046783447;0.1395336240530014;89.71974182128906
217;1666359893.0857503;46.975534499999995;7.1803558999999995;52.26700210571289;1666359892.8641977;0.4082830846309662;0.1072780042886734;89.76483154296875
218;1666359893.2965674;46.975534499999995;7.1803561;52.60000228881836;1666359893.0740378;3.165087938308716;0.03901881352066994;89.74838256835938
219;1666359893.5025036;46.9755344;7.1803563;52.93000411987305;1666359893.2858324;5.062282562255859;0.4749056398868561;89.8758544921875
220;1666359893.695753;46.9755344;7.1803563;53.259002685546875;1666359893.4907923;5.11774206161499;0.08576261252164841;89.91334533691406
221;1666359893.8890011;46.9755344;7.180356199999999;53.570003509521484;1666359893.68697;2.732652425765991;-0.02521873451769352;90.22696685791016
222;1666359894.0949378;46.9755344;7.1803561;53.88300323486328;1666359893.8763142;0.24947109818458557;0.05862691253423691;90.4117660522461
223;1666359894.3145392;46.9755344;7.180356;54.20500183105469;1666359894.0822523;-1.319717288017273;0.10876504331827164;90.5126953125
224;1666359894.523404;46.975534499999995;7.1803558;54.53300094604492;1666359894.3028278;-3.1271960735321045;0.07895975559949875;90.61225128173828
225;1666359894.766427;46.975534499999995;7.1803557;54.86100387573242;1666359894.5038826;-2.590683937072754;0.0655454620718956;90.46385955810547
226;1666359894.951871;46.975534499999995;7.1803557;55.19000244140625;1666359894.7478843;-6.4954986572265625;0.29723110795021057;90.3918685913086
227;1666359895.1714728;46.975534499999995;7.1803557;55.49700164794922;1666359894.94016;-0.7538282871246338;0.14123086631298065;90.47683715820312
228;1666359895.3695974;46.975534499999995;7.1803557;55.810001373291016;1666359895.154879;-2.4589781761169434;0.1240776926279068;90.35123443603516
229;1666359895.5892017;46.975534499999995;7.1803557;56.138004302978516;1666359895.3530061;1.2674075365066528;0.31673669815063477;90.33475494384766
230;1666359895.7941658;46.975534499999995;7.1803557;56.47200393676758;1666359895.5774865;1.3463009595870972;0.002082341816276312;90.37944793701172
231;1666359896.0059538;46.975534499999995;7.1803557;56.807003021240234;1666359895.7726874;2.478961706161499;0.11633272469043732;90.54509735107422
232;1666359896.194322;46.975534499999995;7.1803557;57.14400100708008;1666359895.9913142;3.9855496883392334;0.10888174176216125;90.4840087890625
233;1666359896.4256344;46.975534499999995;7.1803557;57.47700119018555;1666359896.1816337;4.273661136627197;0.037164799869060516;90.63855743408203
234;1666359896.643284;46.975534499999995;7.1803558;57.78700256347656;1666359896.4090421;1.750919222831726;0.09327929466962814;90.54219055175781
235;1666359896.8638592;46.9755344;7.1803558;58.079002380371094;1666359896.6257138;2.1706833839416504;-0.12537525594234467;90.37483215332031
236;1666359897.0844376;46.975534499999995;7.1803557;58.34300231933594;1666359896.8433628;-2.25273060798645;0.15181642770767212;90.35530090332031
237;1666359897.290373;46.975534599999996;7.1803554;58.573001861572266;1666359897.0629668;-1.4163093566894531;-0.1532377302646637;90.27254486083984
238;1666359897.4758158;46.9755355;7.1803539;58.78000259399414;1666359897.2815912;11.719440460205078;-13.653151512145996;85.7410888671875
239;1666359897.6895607;46.975538;7.1803495999999996;58.91200256347656;1666359897.4660544;25.487186431884766;-35.68046951293945;76.91341400146484
240;1666359897.8925688;46.9755422;7.1803425;58.936004638671875;1666359897.6798017;26.77788734436035;-48.12747573852539;68.87218475341797
241;1666359898.0887465;46.975547899999995;7.180333999999999;58.95700454711914;1666359897.876953;10.075174331665039;-35.28657150268555;67.43256378173828
242;1666359898.3044426;46.975554599999995;7.180324499999999;59.013004302978516;1666359898.076058;-1.3379079103469849;-34.48258972167969;56.66204833984375
243;1666359898.5054994;46.9755627;7.180313399999999;59.064002990722656;1666359898.2878492;-10.934486389160156;-42.4294548034668;41.8670539855957
244;1666359898.725101;46.9755718;7.1803004999999995;59.09700393676758;1666359898.4937887;-23.4858455657959;-42.61156463623047;25.563983917236328
245;1666359898.9281116;46.9755816;7.1802861;59.11900329589844;1666359898.7114353;-30.982568740844727;-31.342571258544922;6.5509233474731445
246;1666359899.132092;46.9755919;7.1802700999999995;59.10600280761719;1666359898.912493;-36.86134338378906;-29.125669479370117;-4.0515241622924805
247;1666359899.3692622;46.975602699999996;7.180252599999999;59.09400177001953;1666359899.1213562;-39.83720779418945;-22.347549438476562;-17.707624435424805
248;1666359899.5644627;46.9756139;7.1802341;59.12300109863281;1666359899.3526723;-36.66712188720703;-12.078619003295898;-27.946956634521484
249;1666359899.8789008;46.9756259;7.180215;59.177001953125;1666359899.5468938;-38.60612487792969;-7.752743244171143;-29.0787296295166
250;1666359900.0897212;46.9756393;7.180195899999999;59.21900177001953;1666359899.8681664;-46.207130432128906;-4.873040676116943;-21.180925369262695
251;1666359900.308862;46.9756539;7.180176899999999;59.25800323486328;1666359900.0672705;-44.24821090698242;-16.68783187866211;-8.3137845993042
252;1666359900.5235848;46.975669499999995;7.180157899999999;59.29700469970703;1666359900.2893422;-41.77490997314453;-23.714435577392578;3.159385919570923
253;1666359900.755873;46.9756861;7.1801393;59.314002990722656;1666359900.5099194;-39.746395111083984;-31.65802001953125;15.436095237731934
254;1666359900.9579072;46.9757037;7.1801211;59.32400131225586;1666359900.7412326;-35.44705581665039;-35.3271598815918;26.15690040588379
255;1666359901.1531072;46.975721799999995;7.1801034999999995;59.36000442504883;1666359900.9383855;-28.76536750793457;-35.365848541259766;37.39035415649414
256;1666359901.37173;46.9757387;7.1800878;59.34800338745117;1666359901.13652;-10.16624641418457;-14.272316932678223;41.72801208496094
257;1666359901.586272;46.9757537;7.1800739;59.0680046081543;1666359901.3570902;11.343541145324707;87.5906982421875;46.46797180175781
258;1666359901.7938602;46.9757663;7.1800624;58.53600311279297;1666359901.5684223;4.158717632293701;58.061275482177734;40.69015884399414
259;1666359902.0090528;46.9757764;7.1800527999999995;57.910003662109375;1666359901.7743373;12.393294334411621;10.267017364501953;30.757402420043945
260;1666359902.21792;46.975784499999996;7.180044199999999;57.2650032043457;1666359901.9905107;15.80554485321045;0.264248251914978;19.5841007232666
261;1666359902.4228778;46.9757909;7.1800362;56.63600158691406;1666359902.206207;17.337587356567383;-8.10340404510498;7.714526653289795
262;1666359902.6610227;46.975795999999995;7.180028399999999;56.03000259399414;1666359902.4101913;15.645662307739258;-10.736331939697266;-2.8791332244873047
263;1666359902.8562233;46.9758001;7.180020799999999;55.478004455566406;1666359902.650291;1.921714186668396;-16.56665802001953;-12.30079174041748
264;1666359903.06997;46.9758037;7.1800133;54.97700119018555;1666359902.841585;-6.604344367980957;-9.360495567321777;-23.18099021911621
265;1666359903.287617;46.975806899999995;7.180005899999999;54.53000259399414;1666359903.057281;-10.28223705291748;-10.732829093933105;-30.985034942626953
266;1666359903.4867241;46.9758096;7.1799984;54.131004333496094;1666359903.2759066;-12.824914932250977;-12.302922248840332;-39.518829345703125
267;1666359903.7024293;46.975812;7.179990699999999;53.79500198364258;1666359903.4750113;-12.27588939666748;-10.67004108428955;-48.60780334472656
268;1666359903.900553;46.975814199999995;7.179983;53.531002044677734;1666359903.6897314;-12.686003684997559;-5.749067306518555;-54.404083251953125
269;1666359904.108438;46.9758164;7.1799754;53.33500289916992;1666359903.8878603;-13.059462547302246;-3.0492427349090576;-53.69728088378906
270;1666359904.3133981;46.9758186;7.1799683;53.21000289916992;1666359904.0957475;-9.982339859008789;2.460495948791504;-47.322322845458984
271;1666359904.5271413;46.975820999999996;7.1799615999999995;53.15400314331055;1666359904.3007114;-12.58536434173584;3.470245122909546;-38.378238677978516
272;1666359904.7174637;46.9758237;7.1799551;53.15700149536133;1666359904.4998138;-14.94798755645752;-1.4719122648239136;-28.06160545349121
273;1666359904.9214475;46.9758266;7.179949199999999;53.22700119018555;1666359904.7047746;-14.77564525604248;-1.5335146188735962;-18.532289505004883
274;1666359905.1244605;46.975830099999996;7.179943499999999;53.371002197265625;1666359904.9087596;-15.770751953125;-3.4196720123291016;-9.277746200561523
275;1666359905.337228;46.9758339;7.179938;53.58100128173828;1666359905.1107917;-15.622952461242676;-6.84069299697876;1.300958275794983
276;1666359905.5675614;46.975837999999996;7.179932699999999;53.849002838134766;1666359905.324536;-14.80398178100586;-8.785451889038086;13.347648620605469
277;1666359905.7676423;46.9758424;7.1799275;54.17500305175781;1666359905.5490193;-12.609882354736328;-11.972021102905273;25.893856048583984
278;1666359905.9843159;46.9758475;7.1799224;54.540000915527344;1666359905.7549536;-15.7317533493042;-15.514714241027832;38.73617935180664
279;1666359906.2039163;46.9758539;7.179916899999999;54.90300369262695;1666359905.969676;-16.36631965637207;-28.76677131652832;49.15508270263672
280;1666359906.4108303;46.975861699999996;7.1799111;55.2760009765625;1666359906.1922035;-13.89373779296875;-32.23761749267578;49.254512786865234
281;1666359906.5994885;46.9758705;7.1799045999999995;55.66200256347656;1666359906.3981416;-13.196778297424316;-29.585607528686523;46.84346389770508
282;1666359906.8239696;46.9758802;7.1798974;56.053001403808594;1666359906.5877779;-13.128289222717285;-36.886009216308594;46.36695861816406
283;1666359907.0367396;46.9758906;7.1798893999999995;56.467002868652344;1666359906.8073769;-12.118995666503906;-30.645998001098633;44.26372528076172
284;1666359907.2495093;46.9759017;7.179880499999999;56.89400100708008;1666359907.0250273;-13.213258743286133;-34.75429153442383;45.07308578491211
285;1666359907.4476385;46.9759137;7.1798708;57.30800247192383;1666359907.2377965;-15.847171783447266;-36.50016784667969;45.24312973022461
286;1666359907.65748;46.9759265;7.1798604;57.71600341796875;1666359907.4349487;-16.08223533630371;-35.96492004394531;41.703758239746094
287;1666359907.8809855;46.97594;7.1798487;58.09400177001953;1666359907.643813;-17.955379486083984;-36.22312545776367;31.81574249267578
288;1666359908.0752058;46.9759542;7.1798348;58.3900032043457;1666359907.868297;-29.951143264770508;-52.08031463623047;25.436431884765625
289;1666359908.2879758;46.9759684;7.1798186;58.64500427246094;1666359908.0634954;-31.268922805786133;-35.38315200805664;3.271942138671875
290;1666359908.4773211;46.9759825;7.179799999999999;58.89200210571289;1666359908.2762651;-34.703800201416016;-35.399295806884766;-5.666116237640381
291;1666359908.677402;46.9759969;7.179779099999999;59.1400032043457;1666359908.4656084;-42.64990997314453;-28.059606552124023;-18.338891983032227
292;1666359908.902857;46.976012399999995;7.1797564;59.31900405883789;1666359908.6637366;-56.639312744140625;-15.44765853881836;-27.859100341796875
293;1666359909.0931797;46.976029399999994;7.1797325999999995;59.45900344848633;1666359908.8882194;-59.786903381347656;-1.4753520488739014;-34.72800827026367
294;1666359909.3157077;46.976047699999995;7.1797084;59.5780029296875;1666359909.081468;-57.92697525024414;4.940889358520508;-37.69611358642578
295;1666359909.5226216;46.976067199999996;7.1796837;59.66400146484375;1666359909.3020427;-58.517520904541016;6.443901062011719;-41.654903411865234
296;1666359909.7344172;46.9760876;7.1796589;59.71900177001953;1666359909.5099332;-58.022911071777344;12.160256385803223;-47.75295639038086
297;1666359909.9325469;46.9761089;7.1796340999999995;59.76400375366211;1666359909.7197723;-55.84298324584961;15.345842361450195;-48.276981353759766
298;1666359910.129697;46.9761308;7.179608999999999;59.78900146484375;1666359909.9188788;-55.16655731201172;6.386137962341309;-42.22730255126953
299;1666359910.3405116;46.9761534;7.1795833;59.78300094604492;1666359910.117007;-59.6124382019043;5.006375312805176;-42.348934173583984
300;1666359910.550353;46.976176699999996;7.179557;59.75800323486328;1666359910.3297846;-59.59256362915039;3.614197015762329;-42.40771484375
301;1666359910.7758083;46.9762;7.179530199999999;59.728004455566406;1666359910.5386395;-53.627540588378906;1.2234574556350708;-41.97837829589844
302;1666359910.9836996;46.9762233;7.1795028;59.68800354003906;1666359910.7640972;-52.87493133544922;-0.5620432496070862;-41.737701416015625
303;1666359911.17402;46.9762463;7.1794752;59.6410026550293;1666359910.9612489;-52.33382034301758;-2.5732100009918213;-40.82912826538086
304;1666359911.383861;46.9762692;7.1794471;59.59400177001953;1666359911.1613305;-51.57704162597656;-1.1415454149246216;-42.496944427490234
305;1666359911.587846;46.9762918;7.1794189;59.55000305175781;1666359911.3721485;-50.97615432739258;-0.023422904312610626;-43.31483840942383
306;1666359911.7918305;46.9763142;7.1793906;59.52100372314453;1666359911.5771086;-51.48291015625;1.6982730627059937;-43.95045852661133
307;1666359911.9870303;46.976336599999996;7.1793622;59.509002685546875;1666359911.778166;-51.13700866699219;1.4478240013122559;-43.521480560302734
308;1666359912.193944;46.9763586;7.1793341999999996;59.49100112915039;1666359911.973365;-44.69812774658203;1.651666283607483;-42.65013885498047
309;1666359912.52188;46.976379699999995;7.1793073;59.458003997802734;1666359912.1822305;-34.915958404541016;0.14491288363933563;-41.275306701660156
310;1666359912.7102487;46.9763994;7.179282199999999;59.4160041809082;1666359912.5111454;-23.823768615722656;0.5594350695610046;-41.54072570800781
311;1666359912.929848;46.976416699999994;7.1792599;59.36700439453125;1666359912.6975644;-11.724431037902832;-1.5749554634094238;-40.1746940612793
312;1666359913.1592102;46.9764316;7.1792406;59.32200241088867;1666359912.916186;4.317192077636719;-2.3369832038879395;-41.16314697265625
313;1666359913.3563614;46.9764445;7.179223899999999;59.262001037597656;1666359913.1416414;5.109954833984375;-0.332550585269928;-43.127952575683594
314;1666359913.5593722;46.9764556;7.1792096;59.23100280761719;1666359913.345627;2.3342599868774414;-2.301413059234619;-42.031517028808594
315;1666359913.7721403;46.9764652;7.1791974;59.221004486083984;1666359913.5476582;7.944447040557861;1.8929492235183716;-41.5885009765625
316;1666359913.9819834;46.976473399999996;7.1791868;59.224002838134766;1666359913.7575011;-1.3759886026382446;-1.179333209991455;-42.251976013183594
317;1666359914.1957252;46.9764805;7.1791776;59.22200393676758;1666359913.9731972;-6.311863899230957;1.3893369436264038;-44.34761047363281
318;1666359914.3879988;46.9764865;7.1791697999999995;59.22600173950195;1666359914.1723025;2.816065549850464;-2.279803514480591;-44.343109130859375
319;1666359914.6036947;46.976491599999996;7.1791629;59.23100280761719;1666359914.375311;-4.504514694213867;-1.3997069597244263;-45.11516571044922
320;1666359914.8252494;46.9764961;7.1791569;59.2390022277832;1666359914.590031;10.123440742492676;-1.3931472301483154;-45.31467819213867
321;1666359915.0282567;46.976500099999996;7.1791516;59.23600387573242;1666359914.8125598;-6.265608787536621;1.101334571838379;-44.68246078491211
322;1666359915.2351716;46.9765034;7.1791469999999995;59.23400115966797;1666359915.016545;0.7498815655708313;-1.2706079483032227;-43.40039825439453
323;1666359915.4489162;46.9765063;7.179143;59.22600173950195;1666359915.223456;-6.8832688331604;0.745660126209259;-44.49101638793945
324;1666359915.6411874;46.9765087;7.1791398;59.217002868652344;1666359915.4362257;3.074359178543091;-0.298653244972229;-44.264923095703125
325;1666359915.8500512;46.9765107;7.179137;59.20500183105469;1666359915.6285028;2.150672435760498;-2.1393659114837646;-45.39480972290039
326;1666359916.054036;46.9765124;7.1791347;59.19900131225586;1666359915.837364;4.249930381774902;0.5284674167633057;-44.71352005004883
327;1666359916.2683096;46.9765139;7.1791328;59.18700408935547;1666359916.0403717;5.069746494293213;3.3765525817871094;-45.052974700927734
328;1666359916.4683905;46.9765151;7.179131099999999;59.17400360107422;1666359916.2536688;-3.890937328338623;0.5553552508354187;-43.99114990234375
329;1666359916.6733508;46.9765162;7.1791297;59.16100311279297;1666359916.4557033;-0.6198448538780212;-1.8299719095230103;-43.96629333496094
330;1666359916.8705044;46.976517199999996;7.179128599999999;59.15400314331055;1666359916.66164;-9.738409042358398;2.277297019958496;-44.71563720703125
331;1666359917.0852277;46.9765179;7.1791274;59.1510009765625;1666359916.8587942;4.99412202835083;-5.0485663414001465;-44.9838981628418
332;1666359917.2892096;46.9765192;7.1791252;59.160003662109375;1666359917.071562;-19.680612564086914;-3.210015058517456;-45.437034606933594
333;1666359917.4931958;46.976521899999995;7.179120299999999;59.13900375366211;1666359917.2784755;-39.59709167480469;-0.7460808753967285;-50.835933685302734
334;1666359917.6874194;46.976526199999995;7.1791126;59.06300354003906;1666359917.481487;-54.137176513671875;1.122538447380066;-52.451297760009766
335;1666359917.9060464;46.9765315;7.1791027;58.99700164794922;1666359917.6737561;-39.426658630371094;-6.766606330871582;-48.7701416015625
336;1666359918.3110957;46.9765376;7.1790914;58.98600387573242;1666359917.89238;-29.788246154785156;-5.376561164855957;-48.857215881347656
337;1666359918.5209277;46.9765446;7.1790783;59.00100326538086;1666359918.2818067;-38.93587875366211;-2.3929121494293213;-48.9111442565918
338;1666359918.753217;46.976552899999994;7.1790633999999995;59.025001525878906;1666359918.5062876;-45.91110610961914;-0.9932082891464233;-47.978355407714844
339;1666359918.9493916;46.9765622;7.1790468;59.05400466918945;1666359918.739551;-45.535221099853516;-3.413653612136841;-47.14815902709961
340;1666359919.167861;46.976572499999996;7.179028499999999;59.0880012512207;1666359918.9367049;-45.49635696411133;-2.235523223876953;-47.71409606933594
341;1666359919.3747745;46.9765838;7.1790087;59.12200164794922;1666359919.156148;-47.69917297363281;-1.9443755149841309;-47.48795700073242
342;1666359919.5787604;46.9765959;7.1789875;59.1670036315918;1666359919.364042;-46.987762451171875;-1.8503800630569458;-47.948856353759766
343;1666359919.7827432;46.9766088;7.1789651;59.2030029296875;1666359919.5553367;-50.816585540771484;-1.3844531774520874;-47.964210510253906
344;1666359919.999425;46.9766225;7.178941699999999;59.230003356933594;1666359919.7681024;-49.53516387939453;-0.4016515612602234;-48.388671875
345;1666359920.2248735;46.9766368;7.178917599999999;59.24800109863281;1666359919.9818525;-49.37569046020508;-0.4782893657684326;-48.09602355957031
346;1666359920.4190998;46.976651499999996;7.1788929999999995;59.25400161743164;1666359920.2034013;-47.87739181518555;1.0930075645446777;-49.23234176635742
347;1666359920.6230824;46.9766665;7.178868;59.25100326538086;1666359920.4044564;-46.13615417480469;0.0802953764796257;-49.34056854248047
348;1666359920.8397555;46.9766817;7.1788427;59.24400329589844;1666359920.6064909;-45.19906234741211;-0.27266737818717957;-49.64888000488281
349;1666359921.0456927;46.976696999999994;7.178817199999999;59.233001708984375;1666359920.8260956;-44.45366668701172;-0.44861137866973877;-50.1422004699707
350;1666359921.2477267;46.976712299999996;7.1787917;59.220001220703125;1666359921.031056;-43.973243713378906;0.23933731019496918;-50.77668380737305
351;1666359921.5473604;46.9767276;7.1787661;59.21000289916992;1666359921.233084;-44.390682220458984;-0.24457937479019165;-50.61315155029297
352;1666359921.767936;46.9767429;7.1787404;59.198001861572266;1666359921.5317442;-43.54689407348633;0.6630647778511047;-51.570350646972656
353;1666359921.9875395;46.9767581;7.1787145;59.18000411987305;1666359921.7513425;-44.9059944152832;-0.5579018592834473;-50.974159240722656
354;1666359922.180326;46.9767733;7.1786886;59.15900421142578;1666359921.962158;-44.68722152709961;-0.8620221018791199;-50.850730895996094
355;1666359922.3940713;46.9767884;7.1786629;59.12800216674805;1666359922.1627584;-42.584842681884766;-2.3619754314422607;-49.69340896606445
356;1666359922.6175737;46.976802799999994;7.178638299999999;59.10000228881836;1666359922.3774774;-30.592607498168945;1.361950397491455;-51.22223663330078
357;1666359922.8274171;46.9768164;7.178615199999999;59.06700134277344;1666359922.59903;-21.95760154724121;-1.448989748954773;-49.13114547729492
358;1666359923.038231;46.9768288;7.1785939;59.031002044677734;1666359922.810824;-14.444622993469238;-1.475644826889038;-49.5173454284668
359;1666359923.2412405;46.976839999999996;7.1785748;58.996002197265625;1666359923.027498;-9.50925064086914;-0.18139903247356415;-50.3352165222168
360;1666359923.439368;46.9768499;7.1785575999999995;58.967002868652344;1666359923.2295294;-8.513240814208984;-1.460420846939087;-50.473785400390625
361;1666359923.650187;46.976858799999995;7.178542299999999;58.93400192260742;1666359923.428637;-7.219260215759277;-0.7984015941619873;-51.068599700927734
362;1666359923.8590515;46.9768666;7.1785289;58.90800094604492;1666359923.637497;6.508424282073975;-1.3820545673370361;-51.55147171020508
363;1666359924.0532742;46.9768733;7.1785172;58.8910026550293;1666359923.8463652;1.5988212823867798;-0.6168532371520996;-51.625972747802734
364;1666359924.2894669;46.9768791;7.1785068999999995;58.87200164794922;1666359924.0405865;-6.526849269866943;1.414311170578003;-52.23602294921875
365;1666359924.4934552;46.976884;7.1784982;58.85600280761719;1666359924.2592123;3.0950818061828613;-2.400995969772339;-51.08403778076172
366;1666359924.7013419;46.9768883;7.1784905;58.83900451660156;1666359924.4778373;-8.152328491210938;2.5274248123168945;-51.77100372314453
367;1666359924.913135;46.9768918;7.1784840999999995;58.82600402832031;1666359924.6906085;11.711956024169922;-2.0495309829711914;-50.81121826171875
368;1666359925.112238;46.9768948;7.1784786;58.8180046081543;1666359924.9023988;0.927211344242096;0.06425326317548752;-50.14836502075195
369;1666359925.3171988;46.9768973;7.1784741;58.82100296020508;1666359925.0985758;9.573883056640625;2.3005874156951904;-49.78947830200195
370;1666359925.5270393;46.976899499999995;7.178470399999999;58.82400131225586;1666359925.3074455;-6.841701507568359;2.3204598426818848;-49.21132278442383
371;1666359925.7329767;46.976901299999994;7.1784675;58.829002380371094;1666359925.5143528;1.8915767669677734;2.1616103649139404;-48.203468322753906
372;1666359925.9457471;46.9769029;7.178465;58.83100128173828;1666359925.7193124;-12.468372344970703;2.392540216445923;-47.67293167114258
373;1666359926.1561203;46.9769041;7.178463;58.8380012512207;1666359925.9320822;6.776916027069092;-3.00325083732605;-46.7930908203125
374;1666359926.3591402;46.9769053;7.1784612999999995;58.84300231933594;1666359926.1453848;-2.1723647117614746;-1.0156936645507812;-45.2102165222168
375;1666359926.5592184;46.9769065;7.1784598;58.85400390625;1666359926.34645;2.665807008743286;0.2815917134284973;-45.102237701416016
376;1666359926.779804;46.9769072;7.1784588;58.86700439453125;1666359926.5455549;7.294241428375244;-1.9462827444076538;-45.85525894165039
377;1666359926.9798818;46.9769077;7.178458;58.87700271606445;1666359926.7661314;0.1579345464706421;-1.6834839582443237;-45.059112548828125
378;1666359927.183869;46.976907999999995;7.1784574999999995;58.887001037597656;1666359926.9691508;6.6685471534729;3.0799267292022705;-43.50598907470703
379;1666359927.3849235;46.9769083;7.178457099999999;58.94000244140625;1666359927.1672761;-7.46536922454834;-0.8211246132850647;-42.900760650634766
380;1666359927.5972438;46.9769088;7.1784577999999994;59.051002502441406;1666359927.370284;1.2359704971313477;12.846023559570312;-41.61981964111328
381;1666359927.8119652;46.9769096;7.178459699999999;59.21400451660156;1666359927.56601;-0.13621799647808075;15.582120895385742;-34.61830139160156
382;1666359928.0218058;46.9769114;7.178462799999999;59.423004150390625;1666359927.7895162;-10.098336219787598;21.4534969329834;-27.052717208862305
383;1666359928.2335975;46.976914;7.1784671;59.66800308227539;1666359928.0091178;-15.382247924804688;18.750057220458984;-15.880120277404785
384;1666359928.5478709;46.9769176;7.1784726999999995;59.932003021240234;1666359928.217005;-22.897768020629883;19.86089515686035;-7.471921920776367
385;1666359928.7664938;46.9769223;7.1784801;60.204002380371094;1666359928.5351832;-31.196853637695312;22.9647159576416;0.5500228404998779
386;1666359928.9636467;46.976928099999995;7.1784892;60.50200271606445;1666359928.7528296;-35.52663803100586;17.794147491455078;15.215922355651855
387;1666359929.1891057;46.976935;7.1785003;60.833003997802734;1666359928.9519403;-40.22687911987305;9.862955093383789;30.717599868774414
388;1666359929.3950424;46.976943399999996;7.178513499999999;61.13900375366211;1666359929.1754408;-49.256771087646484;1.5757713317871094;43.89212417602539
389;1666359929.6283085;46.976953099999996;7.178528399999999;61.39200210571289;1666359929.383333;-50.15925979614258;-4.8135247230529785;51.63735580444336
390;1666359929.8264332;46.9769639;7.1785445999999995;61.643001556396484;1666359929.6058612;-43.34193801879883;-7.4499592781066895;51.35371398925781
391;1666359930.134851;46.976975499999995;7.1785615;61.92400360107422;1666359929.8117957;-40.48545455932617;-4.539731025695801;47.921695709228516
392;1666359930.3466458;46.9769876;7.178579;62.2130012512207;1666359930.1211863;-41.35818862915039;-3.401122808456421;46.9243278503418
393;1666359930.56234;46.976999899999996;7.1785966;62.50700378417969;1666359930.3329802;-38.304473876953125;-1.9625047445297241;45.4235725402832
394;1666359930.7760882;46.9770123;7.178613899999999;62.803001403808594;1666359930.5496526;-37.97999954223633;-1.5013693571090698;45.60942459106445
395;1666359930.9673817;46.9770247;7.1786313999999996;63.096004486083984;1666359930.7653491;-35.816917419433594;-0.7553192377090454;45.4005126953125
396;1666359931.2035756;46.977036899999995;7.1786492;63.3900032043457;1666359930.9517667;-33.62773895263672;1.4242290258407593;45.08749771118164
397;1666359931.3929195;46.9770489;7.178666799999999;63.68700408935547;1666359931.1860073;-33.8446159362793;2.1416921615600586;44.50084686279297
398;1666359931.5988586;46.977060699999996;7.1786843;63.991004943847656;1666359931.3812068;-32.652679443359375;2.3512885570526123;44.19896697998047
399;1666359931.814553;46.977072299999996;7.1787015;64.29700469970703;1666359931.5871453;-31.695180892944336;1.7012078762054443;43.89491653442383
400;1666359932.0078044;46.977083699999994;7.1787182;64.60600280761719;1666359931.7921047;-30.921829223632812;0.9243482351303101;44.28022766113281
401;1666359932.2225235;46.977095;7.1787348;64.91699981689453;1666359931.994139;-29.922527313232422;0.13435091078281403;44.38645553588867
402;1666359932.414798;46.977106199999994;7.1787515;65.22900390625;1666359932.201052;-30.08722686767578;0.5012835264205933;44.65039825439453
403;1666359932.6187818;46.9771174;7.1787684;65.53700256347656;1666359932.401132;-30.280860900878906;0.3130754828453064;44.39231491088867
404;1666359932.8169107;46.9771286;7.1787852;65.84400177001953;1666359932.6060934;-29.351268768310547;0.28661346435546875;44.320823669433594
405;1666359933.1243536;46.9771399;7.178801999999999;66.1500015258789;1666359932.7993438;-29.042469024658203;0.5581402778625488;43.87128829956055
406;1666359933.333217;46.9771511;7.1788187;66.4530029296875;1666359933.110688;-28.445850372314453;0.847141683101654;43.404415130615234
407;1666359933.5332963;46.977162299999996;7.178834999999999;66.75200653076172;1666359933.3166227;-28.093286514282227;0.9095578789710999;43.184104919433594
408;1666359933.7480168;46.9771735;7.1788511999999995;67.04800415039062;1666359933.5206068;-28.20632553100586;0.9984376430511475;42.955257415771484
409;1666359933.9451704;46.9771843;7.1788671;67.31900024414062;1666359933.7255688;-28.161544799804688;1.0831350088119507;43.26177215576172
410;1666359934.1491554;46.9771946;7.178882199999999;67.56200408935547;1666359933.933458;-16.532936096191406;-0.49786078929901123;43.672203063964844
411;1666359934.3463087;46.977204;7.178896;67.7760009765625;1666359934.1393938;-12.482799530029297;-0.3720232844352722;43.88508605957031
412;1666359934.5522459;46.9772125;7.1789084999999995;67.96000671386719;1666359934.3326452;-11.000224113464355;-0.5204530358314514;43.48738479614258
413;1666359934.7484214;46.9772201;7.178919199999999;68.11300659179688;1666359934.5405326;-0.45221224427223206;0.07364644855260849;43.50135803222656
414;1666359934.9533823;46.977226699999996;7.1789285;68.24200439453125;1666359934.734756;-1.0768333673477173;-0.0722171813249588;43.75323486328125
415;1666359935.1456566;46.9772323;7.1789366999999995;68.35600280761719;1666359934.9406946;6.709450721740723;0.5373770594596863;44.32810592651367
416;1666359935.3691618;46.9772372;7.178943899999999;68.45899963378906;1666359935.1329668;6.749328136444092;0.7874900102615356;43.633182525634766
