;pos_time;latitude;longitude;altitude;alt_time;pitch;roll;yaw
0;1666858655.244221;46.9755347;7.1803567;-0.005000000353902578;1666858655.4101434;-0.6270994544029236;0.022247791290283203;87.92882537841797
1;1666858655.4599173;46.9755347;7.1803567;-0.00800000037997961;1666858655.6141274;-0.4792673587799072;0.12199781835079193;87.77137756347656
2;1666858655.6619508;46.9755347;7.180356799999999;-0.013000000268220901;1666858655.8132315;-0.5988534688949585;0.15923616290092468;87.8315200805664
3;1666858655.8678858;46.9755347;7.180356799999999;-0.015000000596046448;1666858656.014288;-0.5915520787239075;0.43439143896102905;87.6119384765625
4;1666858656.169471;46.9755348;7.180356799999999;-0.018000001087784767;1666858656.3256328;-0.6582323312759399;0.36134496331214905;87.52922821044922
5;1666858656.3744307;46.9755347;7.1803567;-0.021000001579523087;1666858656.5227828;-0.4977192282676697;0.31542840600013733;87.4793701171875
6;1666858656.5735352;46.9755347;7.1803567;-0.027000000700354576;1666858656.7345755;-0.673458456993103;0.255815327167511;87.3434829711914
7;1666858656.787281;46.975534599999996;7.1803567;-0.030000001192092896;1666858656.93856;-0.6592748761177063;0.20004183053970337;87.56240844726562
8;1666858656.9912627;46.975534599999996;7.1803567;-0.029000001028180122;1666858657.144495;-0.641979992389679;-0.02032669074833393;87.7028579711914
9;1666858657.2147708;46.975534599999996;7.1803567;-0.029000001028180122;1666858657.3553143;-0.5299131870269775;0.4020056426525116;87.51810455322266
10;1666858657.4148486;46.975534599999996;7.1803567;-0.036000002175569534;1666858657.5602722;-0.5645750164985657;0.10288792103528976;87.47168731689453
11;1666858657.620785;46.975534599999996;7.1803566;-0.04400000348687172;1666858657.7779224;-0.6567181944847107;-0.005564461462199688;87.4837875366211
12;1666858657.827698;46.975534499999995;7.1803566;-0.04700000211596489;1666858657.97312;-0.5237410664558411;-0.08504649996757507;87.74512481689453
13;1666858658.0209444;46.975534499999995;7.1803566;0.0020000000949949026;1666858658.183939;-0.5583459734916687;-0.08168002963066101;87.58932495117188
14;1666858658.2356644;46.975534499999995;7.180356499999999;0.0;1666858658.387923;-0.45591655373573303;-0.09072142094373703;87.65132904052734
15;1666858658.4455073;46.975534499999995;7.180356499999999;0.0;1666858658.587025;-0.5719351768493652;-0.3781190514564514;87.87199401855469
16;1666858658.6397288;46.975534499999995;7.1803566;0.0010000000474974513;1666858658.7988186;-0.4405405819416046;-0.11038995534181595;87.73931121826172
17;1666858658.8964186;46.975534499999995;7.1803566;0.007000000216066837;1666858659.034034;-0.4957846701145172;-0.2107391655445099;87.77007293701172
18;1666858659.0886898;46.975534499999995;7.1803566;0.01600000075995922;1666858659.24973;-0.6306988596916199;0.14392046630382538;87.75086212158203
19;1666858659.307314;46.975534499999995;7.180356499999999;0.01900000125169754;1666858659.4605465;-0.39900264143943787;-0.06956759095191956;87.82054138183594
20;1666858659.5122774;46.975534499999995;7.180356499999999;0.0;1666858659.675267;-0.6418306827545166;0.19300363957881927;87.76322937011719
21;1666858659.7397356;46.975534499999995;7.1803564;0.0;1666858659.9253933;-0.4390309453010559;-0.07358479499816895;87.83513641357422
22;1666858659.980921;46.975534599999996;7.1803563;-0.003000000026077032;1666858660.1258812;-0.5879172682762146;-0.030284706503152847;87.86615753173828
23;1666858660.178572;46.975534599999996;7.1803563;-0.0020000000949949026;1666858660.3543048;-0.38324204087257385;0.08932419866323471;87.89060974121094
24;1666858660.3992016;46.975534599999996;7.1803563;-0.0020000000949949026;1666858660.6711633;-0.6041417121887207;0.2939314544200897;87.826904296875
25;1666858660.7488446;46.975534599999996;7.1803564;-0.0020000000949949026;1666858660.9133048;-0.5475183129310608;0.21075421571731567;87.84867858886719
26;1666858660.9671128;46.975534599999996;7.1803564;0.0;1666858661.1311803;-0.4271559715270996;0.3988366425037384;87.9479751586914
27;1666858661.1809585;46.975534499999995;7.180356499999999;0.0;1666858661.3528438;-0.3990980088710785;0.37355130910873413;87.86691284179688
28;1666858661.406579;46.975534499999995;7.180356499999999;0.0020000000949949026;1666858661.5633528;-0.6539223194122314;0.5886676907539368;87.72891235351562
29;1666858661.6127243;46.975534499999995;7.180356499999999;0.0020000000949949026;1666858661.794468;-0.4675671458244324;0.8901115655899048;87.89592742919922
30;1666858661.8428545;46.975534499999995;7.180356499999999;0.005000000353902578;1666858662.0333726;-0.5520016551017761;2.7074997425079346;88.03775787353516
31;1666858662.1105733;46.9755344;7.180356499999999;0.01100000087171793;1666858662.2839878;-1.0989631414413452;4.15395450592041;87.65972900390625
32;1666858662.3235428;46.9755342;7.180356499999999;0.023000001907348633;1666858662.4896817;4.7748942375183105;-2.025414228439331;83.61760711669922
33;1666858662.5492709;46.975533899999995;7.1803566;0.05300000309944153;1666858662.7317817;1.5632379055023193;1.2690043449401855;82.53056335449219
34;1666858662.814744;46.9755336;7.1803566;0.09700000286102295;1666858662.9806623;5.108788013458252;-0.34284400939941406;83.24512481689453
35;1666858663.0402002;46.9755335;7.180356799999999;0.15600000321865082;1666858663.2158794;-2.48721981048584;-1.8792608976364136;84.42412567138672
36;1666858663.2744384;46.975533299999995;7.1803569;0.22800001502037048;1666858663.456951;-0.8906577825546265;-1.6724096536636353;85.70082092285156
37;1666858663.5086787;46.975533299999995;7.180357;0.31300002336502075;1666858663.7087595;-4.203403949737549;-1.1857143640518188;86.35099792480469
38;1666858663.8083115;46.975533399999996;7.180357099999999;0.41600000858306885;1666858663.992776;-4.897161483764648;-0.48696017265319824;86.73323059082031
39;1666858664.039626;46.9755336;7.1803573;0.5330000519752502;1666858664.2035937;-1.25072181224823;-0.39847445487976074;86.95759582519531
40;1666858664.2494643;46.9755338;7.1803574999999995;0.6630000472068787;1666858664.4329526;-0.7365125417709351;-0.23317743837833405;86.9059829711914
41;1666858664.477848;46.975533999999996;7.1803576;0.8060000538825989;1666858664.731608;0.6892147660255432;0.8646051287651062;86.7420883178711
42;1666858664.8262804;46.9755343;7.1803574;0.9660000205039978;1666858664.9765875;6.601445198059082;0.846578061580658;86.50305938720703
43;1666858665.021481;46.9755344;7.180357099999999;1.1400001049041748;1666858665.1805687;2.306706190109253;0.9613819718360901;86.31523132324219
44;1666858665.2293687;46.975534499999995;7.1803566;1.3260000944137573;1666858665.3904095;1.6374943256378174;1.2172056436538696;86.0725326538086
45;1666858665.4372568;46.975534599999996;7.180356199999999;1.5180001258850098;1666858665.595369;-0.8575666546821594;1.04998779296875;84.8248062133789
46;1666858665.6500278;46.975534599999996;7.1803558;1.7120001316070557;1666858665.8169212;-0.8982892632484436;0.9892042875289917;84.44937133789062
47;1666858665.8598676;46.975534599999996;7.1803555999999995;1.9040000438690186;1666858666.1067958;-6.018465042114258;0.3509994149208069;84.58636474609375
48;1666858666.1594977;46.975534599999996;7.180356;2.0960001945495605;1666858666.315659;-1.8642314672470093;0.7138029932975769;84.0774154663086
49;1666858666.4845088;46.9755347;7.1803566;2.2840001583099365;1666858666.6348102;-4.835720539093018;0.4449906051158905;83.9793701171875
50;1666858666.692395;46.9755348;7.1803573;2.4770002365112305;1666858666.859291;-0.6742324829101562;0.4817611277103424;83.95916748046875
51;1666858666.9071147;46.9755349;7.180358;2.6710002422332764;1666858667.0574234;0.7463058829307556;1.0246152877807617;83.65385437011719
52;1666858667.1042697;46.9755349;7.180358399999999;2.866000175476074;1666858667.2731154;-0.9334685802459717;1.0204445123672485;83.49115753173828
53;1666858667.319965;46.9755349;7.180358699999999;3.067000150680542;1666858667.4575808;6.831886291503906;0.9565306901931763;83.87406921386719
54;1666858667.4985743;46.9755349;7.180358699999999;3.266000270843506;1666858667.67035;2.343273162841797;0.5010168552398682;84.20720672607422
55;1666858667.7279315;46.9755349;7.1803583;3.4660000801086426;1666858667.8997085;3.1740612983703613;0.12051849812269211;84.42695617675781
56;1666858667.950463;46.9755348;7.1803576;3.6700000762939453;1666858668.1036954;2.8355836868286133;0.43191975355148315;84.03388214111328
57;1666858668.1681082;46.9755349;7.180357;3.871000289916992;1666858668.325246;-0.016260065138339996;1.2322224378585815;83.19566345214844
58;1666858668.3857565;46.9755349;7.180356499999999;4.072000026702881;1666858668.5302048;0.8910608291625977;0.23381759226322174;82.89824676513672
59;1666858668.5858366;46.9755348;7.180356199999999;4.271000385284424;1666858668.7400472;-2.1859166622161865;1.1561052799224854;83.54905700683594
60;1666858668.7859163;46.9755349;7.1803564;4.473999977111816;1666858668.9508631;-1.7744313478469849;0.5017768740653992;84.10980224609375
61;1666858669.0035672;46.975535;7.180356799999999;4.678000450134277;1666858669.15875;-3.546609878540039;0.33559709787368774;84.31194305419922
62;1666858669.2114553;46.975535099999995;7.1803573;4.88200044631958;1666858669.3783498;-3.6161201000213623;1.2399169206619263;83.90924835205078
63;1666858669.4310536;46.975535199999996;7.1803577;5.087000370025635;1666858669.5872138;-1.9618079662322998;1.0552806854248047;83.69874572753906
64;1666858669.6360168;46.975535199999996;7.1803582;5.2910003662109375;1666858669.7980301;-2.092384099960327;0.8781976699829102;83.3988265991211
65;1666858669.8526864;46.975535199999996;7.1803585;5.498000144958496;1666858669.998111;0.04479454085230827;0.5372543334960938;83.1917724609375
66;1666858670.046913;46.975535199999996;7.1803585;5.702000141143799;1666858670.2030706;1.3686673641204834;0.14624746143817902;83.46931457519531
67;1666858670.2518709;46.975535099999995;7.1803583;5.908000469207764;1666858670.4177935;1.2194888591766357;0.6267494559288025;83.73194885253906
68;1666858670.446095;46.975535099999995;7.1803577999999995;6.118000507354736;1666858670.609091;3.776933431625366;0.6397461295127869;83.88475036621094
69;1666858670.655935;46.975535099999995;7.1803573;6.328000068664551;1666858670.8150253;1.3654924631118774;0.47961708903312683;83.89798736572266
70;1666858670.8716319;46.975535199999996;7.180356799999999;6.5370001792907715;1666858671.0316978;3.552852153778076;0.9897792935371399;83.63429260253906
71;1666858671.0922086;46.975535199999996;7.180356499999999;6.75100040435791;1666858671.2561767;1.2744581699371338;0.43907245993614197;83.46240234375
72;1666858671.3010721;46.975535099999995;7.1803563;6.960000514984131;1666858671.4572318;0.20253874361515045;0.4873080253601074;83.73499298095703
73;1666858671.507986;46.975535199999996;7.180356499999999;7.168000221252441;1666858671.6856158;-1.3534135818481445;0.47880417108535767;83.82941436767578
74;1666858671.7510083;46.975535199999996;7.1803569;7.377000331878662;1666858671.908145;-2.016897439956665;0.5710153579711914;83.98910522460938
75;1666858671.9628015;46.9755353;7.1803573;7.587000370025635;1666858672.1209133;-1.996738076210022;1.0418803691864014;83.85926818847656
76;1666858672.1736164;46.9755353;7.1803576;7.799000263214111;1666858672.3385613;-4.1480865478515625;0.9575992822647095;83.81919860839844
77;1666858672.386385;46.9755354;7.1803577999999995;8.01200008392334;1666858672.5415707;0.12441357970237732;0.8682704567909241;84.0077133178711
78;1666858672.5981772;46.9755353;7.1803579;8.221000671386719;1666858672.7689807;-1.7309900522232056;0.5524278283119202;84.32025909423828
79;1666858672.823634;46.9755353;7.1803577999999995;8.437000274658203;1666858672.9846737;-1.6355434656143188;0.6795166730880737;84.23129272460938
80;1666858673.0383558;46.9755353;7.1803574999999995;8.659000396728516;1666858673.217941;7.472663879394531;0.5075733661651611;84.25109100341797
81;1666858673.2921145;46.9755353;7.180357;8.879000663757324;1666858673.4326584;-0.6651507616043091;1.0899848937988281;83.84024810791016
82;1666858673.4814603;46.9755353;7.1803566;9.095000267028809;1666858673.6532352;2.983992576599121;0.5903326272964478;83.6653823852539
83;1666858673.6981301;46.9755353;7.1803563;9.315999984741211;1666858673.8562424;2.0774197578430176;1.0904242992401123;83.26750183105469
84;1666858673.9069953;46.975535199999996;7.180356199999999;9.532000541687012;1666858674.058276;-0.859502375125885;0.35626527667045593;83.02401733398438
85;1666858674.109027;46.975535199999996;7.180356499999999;9.746000289916992;1666858674.2612846;3.854218006134033;0.5406943559646606;83.5804214477539
86;1666858674.315941;46.9755353;7.180356799999999;9.96500015258789;1666858674.47015;-2.767918348312378;0.31995850801467896;84.04940795898438
87;1666858674.5238295;46.9755353;7.1803571999999996;10.190000534057617;1666858674.6946275;1.0246038436889648;-0.055509768426418304;84.16722869873047
88;1666858674.7639236;46.9755353;7.1803574999999995;10.474000930786133;1666858674.913252;-0.9108235239982605;0.06170029193162918;83.50253295898438
89;1666858674.9610758;46.9755354;7.1803574999999995;10.824000358581543;1666858675.1035721;-3.866478204727173;0.7635874152183533;82.90365600585938
90;1666858675.1631088;46.9755354;7.1803574;11.205000877380371;1666858675.3212204;-4.437182903289795;0.5041025876998901;83.0748519897461
91;1666858675.3680704;46.9755354;7.1803571999999996;11.588000297546387;1666858675.5232534;-3.328352451324463;1.0287117958068848;83.41161346435547
92;1666858675.585718;46.9755354;7.1803573;11.971000671386719;1666858675.749686;-1.3009965419769287;0.7905220985412598;83.430908203125
93;1666858675.7848215;46.9755354;7.1803574999999995;12.35200023651123;1666858675.972215;0.5430750846862793;0.7688029408454895;83.6298828125
94;1666858676.0200403;46.9755354;7.1803577999999995;12.733000755310059;1666858676.1674135;2.893052816390991;0.8882638216018677;83.79510498046875
95;1666858676.2347574;46.9755354;7.180358099999999;13.11500072479248;1666858676.3870142;5.270158767700195;0.21493841707706451;84.00242614746094
96;1666858676.4319124;46.9755353;7.180358099999999;13.483000755310059;1666858676.5890486;3.9426052570343018;0.7174588441848755;84.10700225830078
97;1666858676.6495597;46.9755353;7.1803579;13.847001075744629;1666858676.8018143;4.140749454498291;0.30887144804000854;84.26225280761719
98;1666858676.83988;46.9755353;7.1803576;14.207000732421875;1666858677.0009186;0.02512284927070141;0.5101542472839355;83.9893798828125
99;1666858677.164888;46.9755353;7.1803573;14.567000389099121;1666858677.307383;-1.3040266036987305;0.5052253603935242;84.08197021484375
100;1666858677.3698468;46.9755353;7.180357;14.928000450134277;1666858677.5260086;-2.8930504322052;0.2908858358860016;83.7983627319336
101;1666858677.5816388;46.9755353;7.180356799999999;15.292000770568848;1666858677.7534156;-4.037147045135498;0.5284001231193542;83.34881591796875
102;1666858677.8100257;46.975535199999996;7.1803566;15.646000862121582;1666858677.9554486;-3.128551959991455;0.6157704591751099;83.29183959960938
103;1666858678.000344;46.975535199999996;7.180356799999999;16.006999969482422;1666858678.1594357;-4.181821823120117;0.33497706055641174;83.37550354003906
104;1666858678.2150662;46.975535199999996;7.180357099999999;16.368000030517578;1666858678.3682954;1.8359500169754028;1.1069544553756714;83.25452423095703
105;1666858678.4180722;46.9755353;7.1803574999999995;16.73400115966797;1666858678.5830162;1.241289734840393;0.7870389223098755;82.97587585449219
106;1666858678.625962;46.9755353;7.1803577999999995;17.101001739501953;1666858678.8201854;4.881274223327637;0.4388796389102936;82.71455383300781
107;1666858678.8728888;46.9755353;7.1803579;17.46700096130371;1666858679.0261223;3.6745758056640625;0.8038884997367859;83.4013900756836
108;1666858679.0788286;46.9755353;7.180358;17.82900047302246;1666858679.2398655;4.555095195770264;0.4961768090724945;83.75127410888672
109;1666858679.3062356;46.975535199999996;7.1803579;18.177000045776367;1666858679.4692283;3.2742836475372314;0.24024350941181183;84.03254699707031
110;1666858679.5150993;46.975535099999995;7.1803577999999995;18.527000427246094;1666858679.6614985;0.39011555910110474;1.1140568256378174;84.13587188720703
111;1666858679.7190826;46.975535199999996;7.1803576;18.876001358032227;1666858679.876218;0.35450994968414307;0.42469322681427;84.3289566040039
112;1666858679.9230669;46.975535199999996;7.1803574;19.227001190185547;1666858680.099725;-4.879737377166748;1.3231059312820435;84.11978912353516
113;1666858680.1494985;46.975535199999996;7.1803573;19.578001022338867;1666858680.3027306;-1.8284409046173096;0.554864227771759;84.10826110839844
114;1666858680.3544588;46.975535199999996;7.1803573;19.933000564575195;1666858680.5301404;-4.659943580627441;1.4582486152648926;83.78571319580078
115;1666858680.576013;46.975535099999995;7.180357099999999;20.280000686645508;1666858680.746812;-1.976317286491394;0.41497018933296204;84.10050201416016
116;1666858680.7975655;46.975535;7.180357099999999;20.635000228881836;1666858680.9771469;-2.9308643341064453;0.48971685767173767;84.04586791992188
117;1666858681.0308294;46.9755349;7.180357099999999;20.994001388549805;1666858681.1869876;1.2586851119995117;0.5966277122497559;83.68866729736328
118;1666858681.2523813;46.9755349;7.1803573;21.356000900268555;1666858681.4134219;1.55275559425354;0.7347682118415833;84.02774047851562
119;1666858681.488572;46.9755349;7.1803574999999995;21.718000411987305;1666858681.6388764;3.629300117492676;0.5985107421875;83.84562683105469
120;1666858681.6935337;46.9755349;7.1803576;22.077001571655273;1666858681.8838522;3.4112343788146973;0.6709425449371338;83.48333740234375
121;1666858681.9365568;46.9755349;7.1803576;22.43600082397461;1666858682.0917401;3.519838333129883;0.1439133733510971;83.45225524902344
122;1666858682.1463969;46.9755349;7.1803574999999995;22.782001495361328;1666858682.3347642;-2.4071366786956787;0.31213998794555664;83.40240478515625
123;1666858682.483119;46.9755349;7.1803574;23.130001068115234;1666858682.6402535;1.5920957326889038;0.5103304982185364;83.23709106445312
124;1666858682.6890538;46.9755349;7.1803576;23.479001998901367;1666858682.8647337;-3.586394786834717;0.36710238456726074;83.65506744384766
125;1666858682.9125612;46.975535;7.1803577999999995;23.827001571655273;1666858683.064814;-1.572974443435669;0.842095673084259;84.01921844482422
126;1666858683.128255;46.975535099999995;7.1803577999999995;24.177001953125;1666858683.2766063;-5.601014137268066;0.5197609663009644;84.17682647705078
127;1666858683.3244317;46.975535099999995;7.1803577999999995;24.5260009765625;1666858683.4718053;-3.252201557159424;0.6661216020584106;84.02542877197266
128;1666858683.5245101;46.975535;7.1803577;24.863000869750977;1666858683.669936;-2.504952907562256;0.607007622718811;83.84163665771484
129;1666858683.713856;46.975535;7.1803577999999995;25.20600128173828;1666858683.8758726;0.21290624141693115;0.5515316128730774;83.65757751464844
130;1666858683.9275997;46.975535;7.1803579;25.553001403808594;1666858684.0837605;1.4739742279052734;0.4810057580471039;83.27314758300781
131;1666858684.127681;46.975535;7.1803577999999995;25.9010009765625;1666858684.2896972;2.2908170223236084;0.6591525077819824;83.37168884277344
132;1666858684.336545;46.975535;7.1803577999999995;26.246002197265625;1666858684.479041;3.859265089035034;0.7490656971931458;83.62797546386719
133;1666858684.5405302;46.975535;7.1803577999999995;26.60300064086914;1666858684.6976638;4.952467441558838;0.40184906125068665;84.06024932861328
134;1666858684.7547972;46.975535;7.1803576;26.926000595092773;1666858684.9100149;0.7415012121200562;0.383586049079895;83.98944854736328
135;1666858684.9568574;46.975535;7.1803574;27.266000747680664;1666858685.110088;1.8868825435638428;0.4805912971496582;84.03271484375
136;1666858685.170149;46.975535;7.1803574;27.61100196838379;1666858685.3204758;0.8818971514701843;0.6270821690559387;83.44429016113281
137;1666858685.368297;46.975535099999995;7.1803573;27.957000732421875;1666858685.5400732;0.04911037161946297;0.846666157245636;83.58661651611328
138;1666858685.6015627;46.975535199999996;7.180357099999999;28.306001663208008;1666858685.7545729;-2.552445650100708;0.592436671257019;83.56289672851562
139;1666858685.799474;46.975535199999996;7.180357;28.658000946044922;1666858685.9801888;-5.815674304962158;0.7772871851921082;83.32034301757812
140;1666858686.0270605;46.975535199999996;7.180356799999999;29.003002166748047;1666858686.1793146;-3.7807605266571045;0.6936887502670288;83.09233856201172
141;1666858686.228117;46.975535199999996;7.180357;29.352001190185547;1666858686.381878;-2.8600902557373047;0.650736391544342;82.8380355834961
142;1666858686.4365346;46.975535199999996;7.1803574;29.70600128173828;1666858686.6014767;-1.4077470302581787;0.5721123218536377;83.4059829711914
143;1666858686.672729;46.975535199999996;7.1803577999999995;30.062002182006836;1666858686.83084;2.421250820159912;0.06075691804289818;83.8976058959961
144;1666858686.8815925;46.9755353;7.180358099999999;30.417001724243164;1666858687.0411804;2.9186325073242188;0.9491021037101746;84.13203430175781
145;1666858687.0938857;46.9755354;7.1803582;30.770002365112305;1666858687.2544918;4.621356010437012;0.8201671838760376;83.9209213256836
146;1666858687.3005755;46.9755354;7.1803583;31.12200164794922;1666858687.4439886;4.6367573738098145;0.48232302069664;83.95469665527344
147;1666858687.4927914;46.9755353;7.1803582;31.463001251220703;1666858687.6450438;3.465938091278076;0.5845827460289001;84.1326675415039
148;1666858687.698723;46.9755353;7.1803579;31.806001663208008;1666858687.8691237;1.551435947418213;0.6641954183578491;83.94844055175781
149;1666858687.920358;46.9755353;7.1803576;32.14800262451172;1666858688.0627425;-0.49355030059814453;0.29863008856773376;84.35417175292969
150;1666858688.1212983;46.9755353;7.1803571999999996;32.49300003051758;1666858688.2716043;-2.153409004211426;0.42542821168899536;84.58638000488281
151;1666858688.3204055;46.9755354;7.1803569;32.8390007019043;1666858688.4833968;-4.502920150756836;0.5698685050010681;84.31311798095703
152;1666858688.5409815;46.9755354;7.1803567;33.1879997253418;1666858688.6922593;-4.084112167358398;0.920762836933136;83.89641571044922
153;1666858688.7508197;46.9755353;7.180356499999999;33.53000259399414;1666858688.911868;-5.644766330718994;0.3520534336566925;84.07542419433594
154;1666858688.9587188;46.9755353;7.1803566;33.88199996948242;1666858689.1285539;-1.756186604499817;0.7006152272224426;83.60245513916016
155;1666858689.1773407;46.975535199999996;7.1803569;34.23500061035156;1666858689.3471644;-1.7856196165084839;0.827431321144104;83.62748718261719
156;1666858689.3998685;46.975535199999996;7.180357099999999;34.59300231933594;1666858689.572676;0.9971399307250977;0.4035792946815491;83.80915069580078
157;1666858689.6234336;46.9755353;7.1803573;34.95100021362305;1666858689.8000853;2.4037511348724365;0.9057597517967224;83.84717559814453
158;1666858689.8537657;46.9755353;7.1803574999999995;35.307003021240234;1666858690.0195196;2.9672152996063232;0.530066967010498;84.0699691772461
159;1666858690.0731978;46.975535199999996;7.1803576;35.66200256347656;1666858690.2332618;4.2144551277160645;0.21161720156669617;83.68208312988281
160;1666858690.2810867;46.975535199999996;7.1803576;36.01100158691406;1666858690.4587195;3.3783562183380127;0.6758543252944946;83.21407318115234
161;1666858690.5182545;46.975535099999995;7.1803574999999995;36.362003326416016;1666858690.6675837;2.9581942558288574;0.4752223491668701;82.74029541015625
162;1666858690.7388313;46.975535099999995;7.180357099999999;36.7130012512207;1666858690.8975596;-0.01772894896566868;-0.20969051122665405;82.69772338867188
163;1666858690.945385;46.975535;7.180356799999999;37.06500244140625;1666858691.12497;-0.814102828502655;0.782283365726471;82.74502563476562
164;1666858691.1776729;46.975535;7.180356499999999;37.41800308227539;1666858691.332131;-4.749887943267822;0.2614549696445465;83.1806869506836
165;1666858691.382884;46.9755349;7.180356199999999;37.772003173828125;1666858691.5292828;-4.482561111450195;-0.026538768783211708;83.53510284423828
166;1666858691.5790558;46.9755349;7.1803561;38.121002197265625;1666858691.7576659;-4.874591827392578;0.8549099564552307;83.60914611816406
167;1666858691.8162293;46.9755349;7.1803563;38.47800064086914;1666858691.97192;-3.2651021480560303;0.4269583225250244;83.81327056884766
168;1666858692.0280626;46.9755349;7.180356499999999;38.84000015258789;1666858692.184134;-0.03376370668411255;0.7386269569396973;84.08232879638672
169;1666858692.2339082;46.9755349;7.1803567;39.202003479003906;1666858692.397329;2.3625881671905518;0.18385453522205353;84.06350708007812
170;1666858692.4510076;46.9755349;7.180357;39.564002990722656;1666858692.597926;2.370138168334961;0.09249674528837204;84.08421325683594
171;1666858692.6594229;46.9755349;7.180357099999999;39.92500305175781;1666858692.959661;5.314620018005371;0.44505932927131653;83.96516418457031
172;1666858693.018212;46.9755349;7.1803571999999996;40.284000396728516;1666858693.1626651;2.7527806758880615;0.9958510398864746;83.65545654296875
173;1666858693.2192657;46.9755349;7.1803573;40.63300323486328;1666858693.3890913;3.610604763031006;0.2267950028181076;83.34378051757812
174;1666858693.4457033;46.9755349;7.1803571999999996;40.98400115966797;1666858693.6086946;-0.12227525562047958;0.73920738697052;83.0400390625
175;1666858693.663704;46.9755349;7.180357099999999;41.3390007019043;1666858693.8531964;-0.1807500272989273;0.06277311593294144;83.02112579345703
176;1666858693.9095154;46.9755348;7.180357099999999;41.69700241088867;1666858694.1017787;-2.0036792755126953;0.47213467955589294;83.31575012207031
177;1666858694.1576183;46.9755348;7.180357;42.053001403808594;1666858694.3010805;-4.644723892211914;0.570536196231842;83.29601287841797
178;1666858694.3498824;46.9755348;7.1803569;42.40700149536133;1666858694.526912;-4.054074764251709;-0.22157883644104004;83.58729553222656
179;1666858694.601087;46.9755348;7.180356799999999;42.755001068115234;1666858694.8568003;-1.3300788402557373;0.5662330389022827;83.63573455810547
180;1666858694.9085271;46.9755348;7.180356799999999;43.11100387573242;1666858695.0647652;-1.8740787506103516;0.19160261750221252;84.04196166992188
181;1666858695.1209075;46.9755349;7.1803567;43.46900177001953;1666858695.296593;0.6810847520828247;0.9370121359825134;84.38817596435547
182;1666858695.3459017;46.9755349;7.1803567;43.8280029296875;1666858695.530879;4.159195423126221;0.5638425350189209;84.56153106689453
183;1666858695.602131;46.9755349;7.1803567;44.18800354003906;1666858695.7906828;2.956472158432007;0.5986366868019104;84.2301254272461
184;1666858695.8892627;46.9755349;7.1803567;44.54900360107422;1666858696.0463998;4.320907115936279;0.5247656106948853;84.06281280517578
185;1666858696.0903091;46.9755348;7.1803567;44.909000396728516;1666858696.277702;2.5312981605529785;-0.21505896747112274;84.03824615478516
186;1666858696.3362648;46.9755348;7.1803567;45.262001037597656;1666858696.6232119;1.7517616748809814;-0.13242477178573608;84.0077133178711
187;1666858696.6651776;46.9755347;7.1803567;45.617000579833984;1666858696.8623307;-0.9025464653968811;0.22793836891651154;83.8040771484375
188;1666858696.9384563;46.9755348;7.180356799999999;45.97300338745117;1666858697.1963704;-1.119111180305481;-0.04452313110232353;83.67900848388672
189;1666858697.261763;46.9755348;7.1803569;46.329002380371094;1666858697.4198737;-3.162637710571289;-0.04190877079963684;83.91035461425781
190;1666858697.470625;46.9755349;7.180357;46.685001373291016;1666858697.6405017;-5.508138179779053;0.8397359251976013;83.54685974121094
191;1666858697.6902792;46.9755349;7.180357;47.04300308227539;1666858697.880598;-1.970389723777771;0.4547213017940521;83.7535171508789
192;1666858697.9435937;46.9755349;7.180357;47.39600372314453;1666858698.1173046;-2.2497262954711914;0.4776817858219147;83.73980712890625
193;1666858698.1661046;46.9755349;7.1803569;47.75600051879883;1666858698.3359315;0.290565550327301;0.35689395666122437;83.53651428222656
194;1666858698.3993697;46.9755349;7.180356799999999;48.12000274658203;1666858698.5580034;0.9997604489326477;0.45806628465652466;84.0972900390625
195;1666858698.6116805;46.9755349;7.180356799999999;48.48600387573242;1666858698.7834566;2.9193549156188965;0.5722673535346985;84.06278228759766
196;1666858698.8420165;46.9755349;7.1803567;48.849002838134766;1666858699.0157475;2.438462018966675;0.6152493357658386;84.06258392333984
197;1666858699.0625925;46.9755349;7.1803566;49.20900344848633;1666858699.2294898;4.111734867095947;0.6563000679016113;84.03492736816406
198;1666858699.290002;46.9755348;7.180356499999999;49.564002990722656;1666858699.4285944;2.438129186630249;0.4615875780582428;83.30615234375
199;1666858699.4803233;46.9755348;7.1803563;49.92100143432617;1666858699.6276996;1.1848535537719727;0.4019239544868469;83.12528991699219
200;1666858699.6804013;46.9755348;7.180356199999999;50.27700424194336;1666858699.8443718;-0.6687034964561462;0.4819706678390503;83.15065002441406
201;1666858699.8951228;46.9755347;7.180356199999999;50.634002685546875;1666858700.0590918;-2.5534892082214355;0.10050948709249496;83.07525634765625
202;1666858700.107892;46.9755347;7.1803563;50.992000579833984;1666858700.2679555;-3.028752088546753;0.4687832295894623;83.31008911132812
203;1666858700.3187063;46.9755347;7.1803564;51.35200119018555;1666858700.4822154;-3.877873420715332;0.31040215492248535;83.6951904296875
204;1666858700.53492;46.9755347;7.180356499999999;51.70900344848633;1666858700.7076697;-3.1460185050964355;0.21009311079978943;83.93354797363281
205;1666858700.7593966;46.9755347;7.180356499999999;52.05900192260742;1666858701.0121815;-2.502992630004883;0.5050630569458008;83.90016174316406
206;1666858701.061996;46.975534599999996;7.1803567;52.413002014160156;1666858701.222532;-1.1587148904800415;0.2144465297460556;84.01240539550781
207;1666858701.2742574;46.975534599999996;7.180356799999999;52.76900100708008;1666858701.42215;0.8439913988113403;0.6033181548118591;83.5661392211914
208;1666858701.471925;46.975534499999995;7.180357;53.12600326538086;1666858701.6300473;1.7804434299468994;0.1359357088804245;83.69277954101562
209;1666858701.6837502;46.975534499999995;7.180357099999999;53.48100280761719;1666858701.8516552;5.003233909606934;0.804161548614502;83.76715087890625
210;1666858701.9102595;46.975534499999995;7.180357099999999;53.836002349853516;1666858702.0648487;4.761512279510498;-0.17671117186546326;83.84332275390625
211;1666858702.111185;46.975534499999995;7.180357;54.18700408935547;1666858702.2572255;2.582540273666382;0.4080175757408142;84.0698013305664
212;1666858702.3070018;46.975534499999995;7.1803567;54.540000915527344;1666858702.449499;1.1242321729660034;0.7632848620414734;84.46859741210938
213;1666858702.5002494;46.975534499999995;7.1803563;54.893001556396484;1666858702.668122;-3.228909969329834;0.11986414343118668;84.28990173339844
214;1666858702.7149723;46.975534499999995;7.180356;55.24800109863281;1666858702.8813763;-3.0344810485839844;1.0134612321853638;84.15350341796875
215;1666858702.9350548;46.975534499999995;7.1803558;55.60200119018555;1666858703.0982063;-5.737649917602539;0.3285030424594879;84.05779266357422
216;1666858703.1509094;46.975534499999995;7.1803557;55.95600128173828;1666858703.303034;-4.1745381355285645;0.7863885760307312;83.94306945800781
217;1666858703.3524973;46.975534499999995;7.1803557;56.30900192260742;1666858703.5028017;-4.167566776275635;0.3710157573223114;84.03938293457031
218;1666858703.5525784;46.9755344;7.180356;56.663002014160156;1666858703.7417567;-0.3163556754589081;0.4590643644332886;83.95701599121094
219;1666858703.7905633;46.9755344;7.1803563;57.0160026550293;1666858703.951598;-2.2674765586853027;0.5751716494560242;83.9245376586914
220;1666858704.0023491;46.9755344;7.1803567;57.35400390625;1666858704.1555834;5.792103290557861;0.29258614778518677;83.64400482177734
221;1666858704.2054095;46.9755343;7.1803569;57.64500427246094;1666858704.3547637;2.4316747188568115;-0.3292575776576996;83.77236938476562
222;1666858704.407469;46.9755343;7.180357099999999;57.88900375366211;1666858704.566555;2.122450113296509;0.07484844326972961;83.36811065673828
223;1666858704.624162;46.9755343;7.180357099999999;58.090003967285156;1666858704.7803254;6.76143217086792;0.21084076166152954;82.79102325439453
224;1666858704.8291233;46.9755343;7.180357099999999;58.259002685546875;1666858704.9862611;2.2601678371429443;-8.867791175842285;81.48505401611328
225;1666858705.0379868;46.9755344;7.180357;58.4010009765625;1666858705.1873722;23.30693244934082;-33.782474517822266;70.55110168457031
226;1666858705.2420266;46.9755353;7.1803557;58.525001525878906;1666858705.393316;20.09954261779785;-51.24051284790039;62.611915588378906
227;1666858705.458708;46.9755378;7.1803516;58.60400390625;1666858705.606083;4.733217239379883;-45.78318405151367;55.32501220703125
228;1666858705.6578112;46.9755422;7.1803446;58.6150016784668;1666858705.8227575;-7.401673316955566;-34.27731704711914;43.021705627441406
229;1666858705.8756123;46.975547999999996;7.1803357;58.61100387573242;1666858706.0190938;-15.319019317626953;-38.09942626953125;30.139379501342773
230;1666858706.0689185;46.975555;7.1803254;58.62900161743164;1666858706.22215;-26.128360748291016;-35.421058654785156;18.31370735168457
231;1666858706.2749057;46.975563199999996;7.1803139;58.65400314331055;1666858706.4315968;-36.54984664916992;-36.462162017822266;6.785283088684082
232;1666858706.4882038;46.9755725;7.180301;58.67000198364258;1666858706.6375918;-40.591304779052734;-28.60419464111328;-8.774984359741211
233;1666858706.6902974;46.9755828;7.180286499999999;58.64800262451172;1666858706.848476;-38.9119758605957;-19.897281646728516;-19.5903377532959
234;1666858706.9040983;46.975593599999996;7.1802703;58.61700439453125;1666858707.059548;-38.080684661865234;-9.874979019165039;-28.015207290649414
235;1666858707.1118007;46.9756048;7.180252899999999;58.61000442504883;1666858707.2513812;-43.61656951904297;-2.019299030303955;-35.58583450317383
236;1666858707.3031096;46.9756164;7.180234899999999;58.64600372314453;1666858707.4588487;-47.490211486816406;13.095309257507324;-38.69832992553711
237;1666858707.5066693;46.9756291;7.1802163;58.69000244140625;1666858707.6711562;-44.0227165222168;9.343523979187012;-25.263629913330078
238;1666858707.7297142;46.975643299999994;7.1801983;58.71600341796875;1666858707.905394;-36.546878814697266;-0.9057788848876953;-9.885702133178711
239;1666858707.959079;46.9756587;7.1801813999999995;58.74900436401367;1666858708.1191418;-5.052352428436279;8.818203926086426;4.832615852355957
240;1666858708.1620831;46.9756742;7.1801663;58.788002014160156;1666858708.4207993;28.21333122253418;26.038677215576172;17.634485244750977
241;1666858708.4813094;46.975687699999995;7.1801539;58.75300216674805;1666858708.6287427;24.47565460205078;11.13178539276123;7.023355960845947
242;1666858708.6873028;46.9756991;7.1801435;58.540000915527344;1666858708.9503646;25.692340850830078;5.188703536987305;-6.5021867752075195
243;1666858709.0186844;46.9757083;7.1801349;58.198001861572266;1666858709.1846046;24.174821853637695;-2.2015461921691895;-19.433256149291992
244;1666858709.244141;46.9757154;7.1801277;57.763004302978516;1666858709.401796;20.906410217285156;-7.346049785614014;-31.60239601135254
245;1666858709.4593785;46.9757205;7.180121799999999;57.27300262451172;1666858709.614105;-4.661446571350098;-10.295726776123047;-39.61669921875
246;1666858709.675591;46.975724299999996;7.1801166;56.77400207519531;1666858709.8805563;-7.618512153625488;-9.889657974243164;-51.17026901245117
247;1666858709.9439907;46.975727299999996;7.1801110999999995;56.31500244140625;1666858710.1333354;-5.950730323791504;-8.427840232849121;-54.59122085571289
248;1666858710.1870148;46.975729799999996;7.180104999999999;55.913002014160156;1666858710.3539128;-6.6402058601379395;-6.220714092254639;-55.624088287353516
249;1666858710.417353;46.9757317;7.1800988;55.56800079345703;1666858710.5657058;-8.753005981445312;-5.098849296569824;-54.6153564453125
250;1666858710.6389046;46.975733399999996;7.1800923999999995;55.28900146484375;1666858710.853624;-9.686568260192871;-2.415008544921875;-54.14916229248047
251;1666858710.913163;46.975735;7.180085999999999;55.077003479003906;1666858711.0903368;-10.802284240722656;-2.703760862350464;-49.541015625
252;1666858711.1479223;46.9757367;7.1800796;54.93300247192383;1666858711.291986;-10.54490852355957;-2.1022324562072754;-41.23235321044922
253;1666858711.347616;46.9757384;7.1800735;54.86000442504883;1666858711.515488;-11.147040367126465;-0.7267226576805115;-32.41059875488281
254;1666858711.5633152;46.9757403;7.1800676999999995;54.86100387573242;1666858711.711664;-10.375626564025879;-5.0796942710876465;-24.413589477539062
255;1666858711.78096;46.9757428;7.1800619999999995;54.926002502441406;1666858711.9415631;-9.983057975769043;-6.023001194000244;-15.302136421203613
256;1666858711.9893894;46.975745599999996;7.1800562999999995;55.05000305175781;1666858712.1378124;-7.701022624969482;-7.1267991065979;-3.700577974319458
257;1666858712.1978688;46.975748599999996;7.1800504;55.2390022277832;1666858712.3569586;-18.165895462036133;-13.193032264709473;7.561511516571045
258;1666858712.4060106;46.975752;7.1800445999999996;55.48200225830078;1666858712.5729165;-23.63652992248535;-24.411836624145508;19.1754093170166
259;1666858712.6306677;46.9757563;7.180038499999999;55.75700378417969;1666858712.7917094;-23.736738204956055;-27.559019088745117;29.22321128845215
260;1666858712.8463664;46.975761899999995;7.1800317;56.03700256347656;1666858713.0337603;-16.77315330505371;-25.403043746948242;37.03056335449219
261;1666858713.0884182;46.975768699999996;7.180024599999999;56.32400131225586;1666858713.2465253;-10.36621379852295;-30.04978370666504;44.31147384643555
262;1666858713.3011823;46.975776499999995;7.1800171;56.625003814697266;1666858713.4603386;-7.685744285583496;-41.766571044921875;48.25621795654297
263;1666858713.5257313;46.9757854;7.180008699999999;56.939002990722656;1666858713.685796;-8.845120429992676;-36.03727722167969;47.38831329345703
264;1666858713.758995;46.975795299999994;7.1799991;57.243003845214844;1666858713.9073465;-9.85153579711914;-41.42015838623047;47.853416442871094
265;1666858713.9610262;46.9758061;7.1799886;57.547000885009766;1666858714.132344;-17.57833480834961;-48.1447639465332;49.19308090209961
266;1666858714.2084713;46.975818;7.1799769;57.816001892089844;1666858714.3753679;-28.74969482421875;-8.025408744812012;43.28826904296875
267;1666858714.4300265;46.975831199999995;7.1799653;58.05400085449219;1666858714.6057084;-18.68448829650879;63.46723937988281;37.17357635498047
268;1666858714.6588545;46.975843499999996;7.1799561999999995;58.177001953125;1666858714.8561366;-20.465438842773438;80.06059265136719;44.20231628417969
269;1666858714.9098165;46.975853799999996;7.17995;58.01700210571289;1666858715.1045535;-17.83355712890625;18.620813369750977;44.090484619140625
270;1666858715.1724153;46.9758618;7.1799463999999995;57.64400100708008;1666858715.3217463;-11.398104667663574;-1.2193222045898438;31.91044807434082
271;1666858715.361761;46.9758688;7.1799446;57.25200271606445;1666858715.5199263;-0.3366372883319855;0.436110258102417;18.135515213012695
272;1666858715.564822;46.975875099999996;7.1799433;56.90200424194336;1666858715.7293062;-0.5651447772979736;-12.936798095703125;8.423749923706055
273;1666858715.792748;46.9758809;7.179942;56.60400390625;1666858715.985019;2.1498470306396484;-30.63482093811035;-6.8069658279418945
274;1666858716.031872;46.9758861;7.1799392;56.3650016784668;1666858716.1814158;1.5955166816711426;-29.03508186340332;-21.79896354675293
275;1666858716.248763;46.975890299999996;7.179933999999999;56.18600082397461;1666858716.4010222;0.16319648921489716;-24.819923400878906;-34.28990936279297
276;1666858716.4586008;46.975893199999994;7.179926999999999;56.07500076293945;1666858716.6469676;-4.65445613861084;-21.129486083984375;-43.13555145263672
277;1666858716.706509;46.9758949;7.179918799999999;56.048004150390625;1666858716.9153688;-6.526012420654297;-16.548437118530273;-52.716087341308594
278;1666858716.9651442;46.9758956;7.179909599999999;56.10900115966797;1666858717.1243033;-7.334320545196533;-12.121106147766113;-56.476619720458984
279;1666858717.1731088;46.9758956;7.1798999;56.26000213623047;1666858717.3777025;-19.349132537841797;-11.615351676940918;-54.98930740356445
280;1666858717.4421196;46.9758954;7.1798895;56.506004333496094;1666858717.6275616;-41.07820129394531;-4.867709636688232;-54.13502883911133
281;1666858717.6812396;46.9758959;7.1798772;56.790000915527344;1666858717.87156;-27.91777801513672;3.4108023643493652;-52.25916290283203
282;1666858717.9349988;46.9758977;7.179863;57.03400421142578;1666858718.1214168;-17.70247459411621;-2.0591862201690674;-44.03947448730469
283;1666858718.1721685;46.9759004;7.1798487;57.29300308227539;1666858718.3357382;-26.025299072265625;-8.244828224182129;-33.708675384521484
284;1666858718.3923333;46.9759039;7.1798344;57.5780029296875;1666858718.6695204;-12.979738235473633;16.508012771606445;-24.988283157348633
285;1666858718.742718;46.975907899999996;7.1798207;57.8380012512207;1666858718.8930216;1.4982303380966187;45.238616943359375;-9.289667129516602
286;1666858718.9453537;46.975912199999996;7.17981;58.03600311279297;1666858719.212777;0.466392457485199;36.48879623413086;-1.2307729721069336
287;1666858719.2752395;46.975916;7.179803799999999;58.096004486083984;1666858719.437265;-4.683164119720459;5.556928634643555;10.526928901672363
288;1666858719.4958165;46.975919399999995;7.1798001;58.137001037597656;1666858719.644252;-18.786712646484375;27.07400894165039;17.54400634765625
289;1666858719.6989155;46.9759226;7.1797983;58.221004486083984;1666858719.8790138;-24.28990936279297;30.915876388549805;25.864139556884766
290;1666858719.9258587;46.9759258;7.1797996;58.301002502441406;1666858720.075705;-22.90692901611328;19.84114646911621;39.982791900634766
291;1666858720.133286;46.975929099999995;7.179804;58.36600112915039;1666858720.2992716;-19.1462459564209;8.540035247802734;50.448951721191406
292;1666858720.3480716;46.9759323;7.1798103;58.45500183105469;1666858720.5091107;-12.291717529296875;2.9069533348083496;51.4821662902832
293;1666858720.5725517;46.9759356;7.1798177;58.55400466918945;1666858720.712118;-5.253593921661377;-2.9209256172180176;47.8919677734375
294;1666858720.7687278;46.975939;7.179824999999999;58.63500213623047;1666858720.9395816;-9.670774459838867;0.5466712117195129;47.32006072998047
295;1666858720.9864273;46.9759424;7.1798319;58.70100402832031;1666858721.1534574;-1.0950819253921509;-10.242982864379883;46.296104431152344
296;1666858721.205186;46.9759458;7.1798383999999995;58.75100326538086;1666858721.3506258;5.067806720733643;-29.50875473022461;34.91399383544922
297;1666858721.4091868;46.9759494;7.1798435;58.78000259399414;1666858721.5678263;11.466914176940918;-42.071475982666016;22.870933532714844
298;1666858721.6215012;46.9759531;7.179845299999999;58.76900100708008;1666858721.7796905;-2.664365291595459;-40.20338439941406;21.65264892578125
299;1666858721.8275135;46.975956599999996;7.179843;58.72300338745117;1666858721.9836755;-10.828973770141602;-31.098535537719727;13.31264591217041
300;1666858722.0471177;46.9759605;7.1798381;58.67500305175781;1666858722.2003574;-18.692054748535156;-27.11310386657715;5.278567790985107
301;1666858722.2520742;46.9759647;7.1798312;58.65200424194336;1666858722.405035;-30.4991397857666;-25.155410766601562;-3.4502367973327637
302;1666858722.452859;46.9759697;7.1798226;58.6510009765625;1666858722.6236594;-35.129112243652344;-18.31202507019043;-17.41994285583496
303;1666858722.671488;46.9759755;7.1798123;58.65500259399414;1666858722.8305779;-32.672664642333984;-8.2705659866333;-37.06258010864258
304;1666858722.8739357;46.975982099999996;7.1798003999999995;58.66400146484375;1666858723.0364678;-35.85336685180664;-2.0633704662323;-52.5207633972168
305;1666858723.0926147;46.975989299999995;7.179786999999999;58.70900344848633;1666858723.256204;-47.57795715332031;11.718759536743164;-61.649139404296875
306;1666858723.3118007;46.9759974;7.1797717;58.79600143432617;1666858723.4764981;-46.750038146972656;17.12019157409668;-56.79759979248047
307;1666858723.5360336;46.976006999999996;7.1797547999999995;58.85900115966797;1666858723.7107375;-45.99020767211914;16.483753204345703;-51.82908630371094
308;1666858723.78303;46.9760184;7.179736999999999;58.927001953125;1666858723.9426954;-49.25666427612305;15.874088287353516;-50.00364303588867
309;1666858723.9914954;46.9760315;7.179718899999999;58.97700119018555;1666858724.1628125;-46.42969512939453;12.561140060424805;-45.68635559082031
310;1666858724.211611;46.9760461;7.1797005;59.01900100708008;1666858724.3570378;-45.44354248046875;11.088150024414062;-46.81983184814453
311;1666858724.4065595;46.9760618;7.1796818;59.04700469970703;1666858724.5749521;-45.46235275268555;6.769425868988037;-44.25337600708008
312;1666858724.6501608;46.976078199999996;7.179663;59.070003509521484;1666858724.8254101;-44.406028747558594;8.198036193847656;-47.064796447753906
313;1666858724.8829951;46.976095199999996;7.1796438;59.086002349853516;1666858725.0470355;-42.630348205566406;5.398355960845947;-46.393089294433594
314;1666858725.1055872;46.9761124;7.179624199999999;59.096004486083984;1666858725.2683353;-43.69517135620117;4.397192001342773;-45.906654357910156
315;1666858725.3220189;46.9761299;7.179604299999999;59.10200119018555;1666858725.4660227;-42.85205841064453;3.4984796047210693;-45.75611877441406
316;1666858725.5245843;46.976147399999995;7.1795841;59.10000228881836;1666858725.7071;-42.7835578918457;4.365665435791016;-46.18102264404297
317;1666858725.787128;46.9761649;7.1795637;59.096004486083984;1666858726.0370507;-42.877784729003906;4.065194129943848;-45.239933013916016
318;1666858726.0868297;46.9761824;7.179543;59.0880012512207;1666858726.2449372;-42.787113189697266;3.091925621032715;-44.38554763793945
319;1666858726.3913398;46.976199799999996;7.1795221;59.08200454711914;1666858726.542617;-42.233551025390625;3.901784658432007;-44.04443359375
320;1666858726.5964262;46.9762172;7.1795010999999995;59.079002380371094;1666858726.7888467;-43.53369903564453;0.5713105797767639;-42.21438980102539
321;1666858726.8454556;46.9762346;7.1794799;59.07600402832031;1666858727.002599;-43.0616455078125;1.3565165996551514;-42.283790588378906
322;1666858727.0523684;46.9762519;7.1794585;59.073001861572266;1666858727.2056012;-43.167991638183594;1.936129093170166;-42.08707046508789
323;1666858727.275874;46.9762693;7.179437;59.06700134277344;1666858727.4466724;-43.289344787597656;1.204032063484192;-41.254432678222656
324;1666858727.502315;46.976286699999996;7.1794153;59.05900192260742;1666858727.6483572;-43.50967025756836;3.3956336975097656;-42.404937744140625
325;1666858727.7059338;46.9763041;7.1793935;59.05500411987305;1666858727.8923476;-43.331085205078125;2.013315200805664;-41.62301254272461
326;1666858727.9430995;46.9763215;7.1793717;59.05500411987305;1666858728.104139;-43.26926803588867;0.3997654318809509;-40.90584182739258
327;1666858728.1637456;46.976338899999995;7.1793498;59.05600357055664;1666858728.3325927;-40.051513671875;1.8844953775405884;-40.549049377441406
328;1666858728.3891997;46.9763564;7.1793279;59.05000305175781;1666858728.567811;-28.039974212646484;0.2996424734592438;-40.50361251831055
329;1666858728.6127694;46.976373599999995;7.1793065;59.03400421142578;1666858728.8045816;-18.563751220703125;0.4068767726421356;-40.565242767333984
330;1666858728.8631392;46.976389999999995;7.1792859;59.01900100708008;1666858729.0178857;-12.899434089660645;0.1426127552986145;-39.819759368896484
331;1666858729.0750074;46.976405199999995;7.1792668;59.00700378417969;1666858729.3502402;-10.770254135131836;0.7369762063026428;-38.783721923828125
332;1666858729.4030032;46.9764194;7.1792491;59.00100326538086;1666858729.5581162;-8.706828117370605;1.5316628217697144;-38.60143280029297
333;1666858729.605103;46.9764323;7.179233;58.99400329589844;1666858729.7895627;-0.7219894528388977;-0.6133877038955688;-39.182865142822266
334;1666858729.8422663;46.976444;7.1792187;58.98200225830078;1666858730.0219405;7.061524868011475;-0.031402427703142166;-40.1825065612793
335;1666858730.0883067;46.9764541;7.1792061;58.967002868652344;1666858730.2449846;-5.15242862701416;1.116697072982788;-41.51115036010742
336;1666858730.3084238;46.9764629;7.179195099999999;58.958003997802734;1666858730.5836592;-2.6126930713653564;1.4392141103744507;-42.00497817993164
337;1666858730.641247;46.9764707;7.1791855;58.948001861572266;1666858730.8325925;-9.961014747619629;-0.6259990334510803;-41.82817459106445
338;1666858730.8809326;46.976477499999994;7.1791772;58.941001892089844;1666858731.069817;6.968795299530029;1.0629826784133911;-42.876853942871094
339;1666858731.1332672;46.9764835;7.1791697999999995;58.932003021240234;1666858731.2894151;-3.0839924812316895;-4.1089091300964355;-39.918609619140625
340;1666858731.3528585;46.976488599999996;7.1791635;58.928001403808594;1666858731.5148723;9.103137969970703;1.7023274898529053;-40.48280334472656
341;1666858731.5978382;46.9764931;7.1791578;58.926002502441406;1666858731.8027928;-4.2089972496032715;0.292930543422699;-40.734100341796875
342;1666858731.8594007;46.9764969;7.1791529999999995;58.92500305175781;1666858732.0399637;0.31471896171569824;3.200988292694092;-42.134273529052734
343;1666858732.0848563;46.9765002;7.1791487;58.923004150390625;1666858732.2499695;-9.21573543548584;0.47129786014556885;-41.12482452392578
344;1666858732.3212066;46.976503199999996;7.1791450999999995;58.92100143432617;1666858732.4998167;3.0467123985290527;-1.857791543006897;-41.515132904052734
345;1666858732.551547;46.9765059;7.1791418;58.92000198364258;1666858732.7116144;-5.596832752227783;-3.6324808597564697;-39.42158508300781
346;1666858732.7691948;46.9765081;7.1791388;58.927001953125;1666858732.9219112;17.12245750427246;-0.6299831867218018;-38.187599182128906
347;1666858732.9785175;46.9765101;7.179136199999999;58.92900466918945;1666858733.1414988;-3.525573968887329;-1.692883849143982;-37.0523681640625
348;1666858733.191792;46.976511599999995;7.1791339;58.923004150390625;1666858733.3743048;3.8912243843078613;6.585472106933594;-39.54823684692383
349;1666858733.4231074;46.976512799999995;7.1791320999999995;58.92200469970703;1666858733.57491;0.7891280055046082;4.385859966278076;-38.49824142456055
350;1666858733.6276155;46.9765139;7.179130799999999;58.928001403808594;1666858733.8979704;-7.108126640319824;-0.19772681593894958;-34.62776565551758
351;1666858733.9527879;46.9765151;7.1791297;58.93700408935547;1666858734.17096;1.6822658777236938;3.4347965717315674;-33.91268539428711
352;1666858734.2051198;46.9765162;7.1791287;58.94600296020508;1666858734.3856797;-9.057425498962402;-4.654634952545166;-33.13262939453125
353;1666858734.4540012;46.9765173;7.1791279999999995;58.954002380371094;1666858734.6394398;-16.327524185180664;-5.827221870422363;-36.76133346557617
354;1666858734.6902559;46.976518399999996;7.179126699999999;58.958003997802734;1666858734.8678918;-44.59467315673828;-6.412354946136475;-45.86553192138672
355;1666858734.917666;46.9765203;7.1791236;58.96800231933594;1666858735.0874894;-46.87226867675781;0.6538969278335571;-54.46904373168945
356;1666858735.1509297;46.976523799999995;7.1791174;58.92000198364258;1666858735.408668;-31.126781463623047;-1.0372250080108643;-54.079166412353516
357;1666858735.4643037;46.9765285;7.179108899999999;58.87300109863281;1666858735.6326807;-37.90066909790039;-3.060783624649048;-51.62972640991211
358;1666858735.6868768;46.9765339;7.1790986;58.87200164794922;1666858735.8459632;-41.13778305053711;1.0760828256607056;-51.49473571777344
359;1666858735.908427;46.9765404;7.1790864;58.875003814697266;1666858736.1036274;-38.3460578918457;-0.35502123832702637;-49.873878479003906
360;1666858736.1555176;46.976548;7.179072199999999;58.893001556396484;1666858736.3224812;-43.98101806640625;-1.3716744184494019;-48.54301071166992
361;1666858736.3800652;46.976556599999995;7.1790565;58.923004150390625;1666858736.54561;-43.94300842285156;-1.379370093345642;-48.790374755859375
362;1666858736.5875773;46.976566299999995;7.1790389999999995;58.94400405883789;1666858736.762828;-43.70832824707031;-0.4434131383895874;-48.51837158203125
363;1666858736.83114;46.9765769;7.1790199999999995;58.970001220703125;1666858736.9873002;-47.2809944152832;0.08222819119691849;-48.73960876464844
364;1666858737.039027;46.9765885;7.1789996;59.01400375366211;1666858737.20007;-49.357730865478516;0.5853642821311951;-48.68608856201172
365;1666858737.2625344;46.976600999999995;7.1789779;59.057003021240234;1666858737.4225976;-49.327213287353516;0.3961717486381531;-48.435707092285156
366;1666858737.4840844;46.976614399999995;7.178954999999999;59.08700180053711;1666858737.6407604;-48.86054992675781;0.33559945225715637;-49.00680160522461
367;1666858737.6866322;46.9766285;7.1789312;59.10600280761719;1666858737.881374;-47.759254455566406;0.7155200839042664;-49.10847854614258
368;1666858737.9345222;46.9766432;7.1789065999999995;59.118003845214844;1666858738.0965376;-45.870872497558594;0.8485616445541382;-49.6239128112793
369;1666858738.1505244;46.9766583;7.1788814;59.12200164794922;1666858738.328681;-45.51483154296875;0.4083918631076813;-49.54928207397461
370;1666858738.3706374;46.9766738;7.1788557;59.121002197265625;1666858738.5355828;-44.99138641357422;0.5655102729797363;-49.78875732421875
371;1666858738.5882835;46.9766895;7.178829599999999;59.12000274658203;1666858738.7795844;-45.02204132080078;0.36601996421813965;-50.014869689941406
372;1666858738.8313088;46.9767054;7.178803299999999;59.1150016784668;1666858739.0148284;-44.88469696044922;0.5246528387069702;-50.601417541503906
373;1666858739.0587473;46.976721399999995;7.178776699999999;59.11000442504883;1666858739.2031941;-44.74932861328125;0.4720085859298706;-50.770111083984375
374;1666858739.25297;46.9767374;7.1787499;59.105003356933594;1666858739.4589105;-44.11579513549805;0.42679181694984436;-50.77484893798828
375;1666858739.51161;46.9767535;7.1787228;59.10000228881836;1666858739.6570385;-42.760955810546875;0.22144198417663574;-50.55260467529297
376;1666858739.7175467;46.976769499999996;7.1786957;59.09300231933594;1666858739.8845208;-28.693992614746094;1.8352452516555786;-50.79471206665039
377;1666858739.936246;46.976785199999995;7.1786689;59.077003479003906;1666858740.1325486;-20.045488357543945;-1.262221336364746;-48.7765998840332
378;1666858740.1823869;46.976800399999995;7.1786432;59.060001373291016;1666858740.379603;-14.162142753601074;-1.1414943933486938;-49.664852142333984
379;1666858740.431337;46.976814499999996;7.1786191;59.04700469970703;1666858740.720894;-6.6870856285095215;-2.1751158237457275;-49.2311897277832
380;1666858740.7955663;46.9768273;7.1785972;59.031002044677734;1666858740.954201;0.6655982136726379;-0.922225832939148;-49.25615692138672
381;1666858741.003972;46.976838799999996;7.1785774;59.0160026550293;1666858741.158182;3.5446999073028564;-1.14522123336792;-50.16415786743164
382;1666858741.2206452;46.9768488;7.1785600999999994;59.00100326538086;1666858741.363141;4.378183841705322;-0.6083008646965027;-50.97018051147461
383;1666858741.4148679;46.9768575;7.178545;58.98200225830078;1666858741.581963;-3.2862744331359863;1.1153311729431152;-51.688934326171875
384;1666858741.6307633;46.976865;7.1785317;58.970001220703125;1666858741.7960865;-4.88520622253418;1.0854109525680542;-51.298065185546875
385;1666858741.8478138;46.9768717;7.17852;58.96200180053711;1666858742.0108116;2.8994626998901367;-1.5835955142974854;-49.8965950012207
386;1666858742.0591424;46.9768775;7.1785099;58.952003479003906;1666858742.2045665;-0.2722645699977875;-0.003566252300515771;-49.94309997558594
387;1666858742.2553303;46.976882599999996;7.178501;58.94700241088867;1666858742.399101;11.974637031555176;-0.7808467745780945;-49.6476936340332
388;1666858742.4537554;46.976887;7.1784935;58.941001892089844;1666858742.601134;0.13798195123672485;1.1489510536193848;-50.4460563659668
389;1666858742.6499321;46.9768906;7.178487199999999;58.939002990722656;1666858742.8139029;4.840494155883789;1.1370849609375;-49.98832702636719
390;1666858742.8831956;46.9768936;7.178482;58.93700408935547;1666858743.0374062;-4.902566432952881;0.9501433968544006;-49.683311462402344
391;1666858743.0891323;46.9768963;7.1784775;58.935001373291016;1666858743.2350843;-0.9687281250953674;0.3503320813179016;-49.168975830078125
392;1666858743.2809582;46.9768986;7.1784737;58.927001953125;1666858743.430285;-1.6822965145111084;1.3614554405212402;-49.827232360839844
393;1666858743.4839675;46.976900699999995;7.1784702;58.92200469970703;1666858743.6518364;-3.203890800476074;-2.9834187030792236;-48.73995590209961
394;1666858743.7006383;46.9769025;7.1784672;58.91800308227539;1666858743.8782718;10.249094009399414;1.4157938957214355;-48.83015060424805
395;1666858743.9329295;46.976904;7.1784645;58.915000915527344;1666858744.089824;1.220069169998169;-2.304755687713623;-48.65511703491211
396;1666858744.1415458;46.9769052;7.1784626;58.913002014160156;1666858744.2957568;12.728681564331055;1.3378527164459229;-48.72882843017578
397;1666858744.3474813;46.976906;7.1784611;58.91800308227539;1666858744.5026684;-9.412368774414062;-0.6073116064071655;-48.709163665771484
398;1666858744.5534198;46.9769066;7.1784599;58.92200469970703;1666858744.7155013;-0.6818943023681641;2.30659818649292;-48.6317138671875
399;1666858744.8667805;46.9769072;7.1784588;58.92100143432617;1666858745.0112603;-4.447530269622803;0.548244059085846;-48.29543685913086
400;1666858745.0703342;46.9769078;7.1784577999999994;58.923004150390625;1666858745.2207344;-6.691464424133301;1.0173556804656982;-47.23465347290039
401;1666858745.268746;46.9769084;7.178457;58.932003021240234;1666858745.4131947;1.1751676797866821;11.049154281616211;-44.10841751098633
402;1666858745.468825;46.9769091;7.1784564;58.99100112915039;1666858745.6343153;7.429532051086426;11.82293701171875;-36.48755645751953
403;1666858745.6879923;46.9769098;7.178457099999999;59.103004455566406;1666858745.862696;-3.478402853012085;22.570051193237305;-30.961994171142578
404;1666858745.9114962;46.9769108;7.1784592;59.268001556396484;1666858746.0784078;-11.913286209106445;21.913528442382812;-23.604690551757812
405;1666858746.125259;46.9769126;7.1784627;59.47700119018555;1666858746.2678144;-18.354875564575195;14.151803970336914;-11.205465316772461
406;1666858746.3234475;46.976915299999995;7.178467299999999;59.724002838134766;1666858746.4737506;-22.547470092773438;13.517839431762695;4.455968379974365
407;1666858746.5391443;46.976918999999995;7.1784726;60.005001068115234;1666858746.6874933;-30.264781951904297;13.529634475708008;19.12928009033203
408;1666858746.7587423;46.9769235;7.178478999999999;60.316001892089844;1666858746.9139292;-43.9505500793457;12.397696495056152;32.33516311645508
409;1666858746.9802973;46.9769289;7.1784871;60.64800262451172;1666858747.136008;-51.77019119262695;3.3405821323394775;44.770755767822266
410;1666858747.1848116;46.976935499999996;7.1784978;60.954002380371094;1666858747.332184;-47.59245681762695;-5.74282169342041;53.059505462646484
411;1666858747.3965993;46.9769436;7.1785109;61.23500442504883;1666858747.5547125;-46.27011489868164;-8.725604057312012;53.4605598449707
412;1666858747.6064394;46.976953099999996;7.1785258;61.51700210571289;1666858747.7811456;-49.73520278930664;-6.443498611450195;50.33163833618164
413;1666858747.839704;46.976963999999995;7.1785422;61.80000305175781;1666858748.0144083;-45.62319564819336;-6.272911548614502;48.963844299316406
414;1666858748.0778484;46.976976099999995;7.1785597;62.0780029296875;1666858748.2248032;-41.35163497924805;-3.993940830230713;47.430213928222656
415;1666858748.2804337;46.9769891;7.178578099999999;62.37200164794922;1666858748.4375703;-39.99209976196289;-1.9995595216751099;46.9717903137207
416;1666858748.5059118;46.9770026;7.178597;62.67200469970703;1666858748.6708593;-36.85574722290039;-0.94383305311203;46.28260803222656
417;1666858748.7274632;46.9770162;7.1786163;62.97900390625;1666858748.8994322;-35.65403747558594;-0.17313247919082642;46.100799560546875
418;1666858748.946282;46.9770298;7.1786356;63.29300308227539;1666858749.100959;-33.846431732177734;0.27199071645736694;45.91533660888672
