;pos_time;latitude;longitude;altitude;alt_time;pitch;roll;yaw
0;1673428428.2630637;47.1306424;7.240619799999999;-0.007000000216066837;1673428428.2503753;-0.11608721315860748;0.07781411707401276;90.39342498779297
1;1673428428.4527166;47.1306424;7.240619799999999;-0.006000000052154064;1673428428.4394886;-0.07047346979379654;-0.11638389527797699;90.51335906982422
2;1673428428.6423607;47.1306424;7.240619799999999;-0.007000000216066837;1673428428.629991;-0.16655561327934265;0.17649228870868683;90.3141098022461
3;1673428428.8402445;47.1306424;7.240619799999999;-0.010000000707805157;1673428428.825606;-0.25828656554222107;-0.1024429202079773;90.45396423339844
4;1673428429.032946;47.1306424;7.2406198999999996;-0.012000000104308128;1673428429.0201983;-0.2722870111465454;0.15487127006053925;90.4843978881836
5;1673428429.240338;47.1306423;7.240619799999999;-0.013000000268220901;1673428429.2276485;-0.01959291659295559;-0.011805973947048187;90.59896087646484
6;1673428429.4349685;47.1306423;7.240619799999999;-0.013000000268220901;1673428429.4201162;-0.2801654636859894;-0.05195986106991768;90.50716400146484
7;1673428429.6342769;47.1306423;7.240619799999999;-0.012000000104308128;1673428429.6215327;-0.1640809178352356;-0.0018631217535585165;90.5034408569336
8;1673428429.8322573;47.1306424;7.240619799999999;-0.012000000104308128;1673428429.8195734;-0.13737130165100098;-0.03701965883374214;90.4432144165039
9;1673428430.0296152;47.1306424;7.2406198999999996;0.0;1673428430.0147352;0.0021214939188212156;0.7281444668769836;90.25511169433594
10;1673428430.2329853;47.1306424;7.24062;0.0010000000474974513;1673428430.2202876;-0.39691781997680664;0.9445905685424805;90.42362213134766
11;1673428430.4273028;47.1306424;7.24062;0.0010000000474974513;1673428430.4158554;-0.30175474286079407;0.7076517939567566;90.27564239501953
12;1673428430.6395528;47.1306424;7.2406201;0.0010000000474974513;1673428430.627836;-0.10024897754192352;0.6708945035934448;90.39669799804688
13;1673428430.8544273;47.1306424;7.2406201;-0.004000000189989805;1673428430.8402212;-0.18762634694576263;0.6423482298851013;90.46047973632812
14;1673428431.050009;47.1306424;7.24062;-0.009000000543892384;1673428431.038712;-0.2826113700866699;0.9036717414855957;90.38737487792969
15;1673428431.2429707;47.1306424;7.24062;-0.014000000432133675;1673428431.2312279;-0.2989954650402069;0.7914341688156128;90.25047302246094
16;1673428431.4468806;47.1306424;7.24062;-0.018000001087784767;1673428431.4351435;-0.43678244948387146;1.2684285640716553;90.53353881835938
17;1673428431.6490684;47.1306425;7.2406198999999996;-0.004000000189989805;1673428431.634746;-0.23010748624801636;1.5510915517807007;90.38321685791016
18;1673428431.8525722;47.1306425;7.24062;-0.005000000353902578;1673428431.8388555;-0.412637859582901;1.3337010145187378;90.31503295898438
19;1673428432.0578723;47.1306424;7.24062;-0.005000000353902578;1673428432.0441663;-0.23961158096790314;0.8589243292808533;90.19947814941406
20;1673428432.2588305;47.1306424;7.2406201;-0.003000000026077032;1673428432.2480953;-0.4272642135620117;0.8894327878952026;89.99334716796875
21;1673428432.4639516;47.1306424;7.2406201;-0.003000000026077032;1673428432.4512634;-0.3554091155529022;0.626129150390625;90.0221176147461
22;1673428432.6729908;47.1306424;7.2406201;-0.003000000026077032;1673428432.6603038;-0.5420669317245483;0.5981231927871704;90.05380249023438
23;1673428432.869479;47.1306424;7.2406201999999995;-0.0020000000949949026;1673428432.8577654;-0.6205510497093201;0.49826547503471375;90.17647552490234
24;1673428433.069738;47.1306423;7.2406201999999995;-0.003000000026077032;1673428433.0560796;-0.29295408725738525;0.3955695927143097;90.10918426513672
25;1673428433.2615309;47.130642099999996;7.2406201999999995;-0.004000000189989805;1673428433.249766;-0.31695783138275146;0.3788648247718811;89.05520629882812
26;1673428433.470857;47.1306416;7.2406204;0.0010000000474974513;1673428433.4581716;0.10634812712669373;-1.2181707620620728;84.45466613769531
27;1673428433.6705127;47.130641;7.240620799999999;0.020000001415610313;1673428433.6509926;0.7114706039428711;-5.202517986297607;84.31034088134766
28;1673428433.8643105;47.1306401;7.2406215;0.04000000283122063;1673428433.8545508;3.7265186309814453;-8.21594524383545;87.72539520263672
29;1673428434.0669096;47.130638999999995;7.2406223;0.05700000375509262;1673428434.0532606;7.575809001922607;-11.611254692077637;88.63789367675781
30;1673428434.2476192;47.130637799999995;7.240623299999999;0.08100000023841858;1673428434.2367272;8.972101211547852;-14.870256423950195;88.4137191772461
31;1673428434.4359803;47.1306365;7.2406245;0.11600000411272049;1673428434.4242778;9.434598922729492;-16.62843894958496;88.29293060302734
32;1673428434.6268873;47.1306356;7.2406255999999996;0.16100001335144043;1673428434.6141944;10.358858108520508;-17.561248779296875;88.21623992919922
33;1673428434.8358955;47.130634699999995;7.2406266;0.22200001776218414;1673428434.8232088;11.70641803741455;-18.755634307861328;88.19352722167969
34;1673428435.036473;47.130634199999996;7.240627399999999;0.2939999997615814;1673428435.0238204;13.02001953125;-20.319454193115234;88.24312591552734
35;1673428435.2396798;47.130634;7.240628;0.3760000169277191;1673428435.226006;14.367325782775879;-21.83420753479004;88.30484771728516
36;1673428435.4456444;47.130634199999996;7.2406280999999995;0.4700000286102295;1673428435.4329462;15.974818229675293;-23.041711807250977;88.45145416259766
37;1673428435.6453347;47.130634699999995;7.2406277999999995;0.562000036239624;1673428435.631663;17.566566467285156;-24.107376098632812;88.6502456665039
38;1673428435.860233;47.1306357;7.240627;0.6630000472068787;1673428435.837721;17.103200912475586;-22.996095657348633;89.15644073486328
39;1673428436.0627773;47.130637;7.2406258;0.7700000405311584;1673428436.0519483;15.5379056930542;-21.245473861694336;89.49830627441406
40;1673428436.292263;47.130638499999996;7.2406242999999995;0.8850000500679016;1673428436.2805321;13.44240951538086;-17.745800018310547;90.00652313232422
41;1673428436.510157;47.1306399;7.2406228;1.0070000886917114;1673428436.48347;11.49871826171875;-13.547536849975586;90.71781921386719
42;1673428436.731569;47.1306411;7.2406215;1.1400001049041748;1673428436.7199051;9.954166412353516;-13.943520545959473;91.1667709350586
43;1673428436.907666;47.130641999999995;7.2406203;1.287000060081482;1673428436.8969305;8.84652328491211;-11.619462013244629;92.23600769042969
44;1673428437.093411;47.1306425;7.2406196;1.4450000524520874;1673428437.0816846;8.594817161560059;-8.822371482849121;93.4082260131836
45;1673428437.272815;47.1306429;7.240619199999999;1.6220000982284546;1673428437.2601326;8.826883316040039;-13.084529876708984;93.97935485839844
46;1673428437.4634364;47.130643;7.2406191;1.8060001134872437;1673428437.4504871;9.79319953918457;-13.479897499084473;95.760986328125
47;1673428437.6529427;47.1306428;7.240619199999999;1.9890000820159912;1673428437.6402493;10.673234939575195;-11.164202690124512;96.4865493774414
48;1673428437.850013;47.1306425;7.2406194;2.180000066757202;1673428437.8363466;11.661029815673828;-14.123697280883789;96.60159301757812
49;1673428438.059233;47.1306423;7.2406197;2.370000123977661;1673428438.0465074;12.470519065856934;-16.743270874023438;96.60502624511719
50;1673428438.2607086;47.130641999999995;7.24062;2.562000036239624;1673428438.248857;13.339090347290039;-13.476836204528809;97.13246154785156
51;1673428438.4709332;47.1306419;7.2406203;2.755000114440918;1673428438.4610603;14.01772403717041;-14.759496688842773;97.5728759765625
52;1673428438.6773796;47.1306419;7.2406204999999995;2.943000078201294;1673428438.6537642;14.050496101379395;-16.52605438232422;97.51824951171875
53;1673428438.8590157;47.1306419;7.2406204999999995;3.134000062942505;1673428438.8471675;13.854205131530762;-13.255739212036133;97.68682098388672
54;1673428439.0575664;47.1306419;7.2406204;3.332000255584717;1673428439.0476434;13.539541244506836;-13.30859088897705;97.59635925292969
55;1673428439.2566009;47.1306419;7.2406203;3.5300002098083496;1673428439.2448926;13.401586532592773;-16.514474868774414;97.44481658935547
56;1673428439.468915;47.130641999999995;7.2406201999999995;3.7210001945495605;1673428439.455978;13.306049346923828;-13.949667930603027;97.5620346069336
57;1673428439.6579533;47.130642099999996;7.2406201;3.9170002937316895;1673428439.6469693;12.887249946594238;-12.03145694732666;97.66755676269531
58;1673428439.8539882;47.130642099999996;7.24062;4.0960001945495605;1673428439.8412716;12.611842155456543;-15.263204574584961;97.44376373291016
59;1673428440.0507483;47.1306422;7.24062;4.285000324249268;1673428440.036108;12.878254890441895;-14.607799530029297;97.37882995605469
60;1673428440.2488887;47.130642099999996;7.2406198999999996;4.484000205993652;1673428440.2352223;12.686089515686035;-11.921555519104004;97.75985717773438
61;1673428440.4560728;47.1306419;7.2406198999999996;4.683000087738037;1673428440.440448;12.719196319580078;-14.72746467590332;97.53661346435547
62;1673428440.6629267;47.1306419;7.24062;4.880000114440918;1673428440.6452253;12.968628883361816;-16.304813385009766;97.24899291992188
63;1673428440.8951516;47.1306418;7.24062;5.077000141143799;1673428440.8844275;13.091835021972656;-12.719245910644531;97.50507354736328
64;1673428441.079418;47.1306417;7.24062;5.284000396728516;1673428441.0686827;13.109941482543945;-13.953757286071777;97.52828216552734
65;1673428441.2767518;47.1306418;7.24062;5.4760003089904785;1673428441.263085;13.09622573852539;-16.597410202026367;97.11316680908203
66;1673428441.4748447;47.1306418;7.24062;5.680000305175781;1673428441.4581175;13.127456665039062;-13.464856147766113;97.61944580078125
67;1673428441.6644788;47.1306417;7.24062;5.890000343322754;1673428441.6522274;12.878376007080078;-13.018667221069336;97.66766357421875
68;1673428441.8552399;47.1306417;7.2406198999999996;6.080000400543213;1673428441.8445017;13.041099548339844;-16.13113784790039;97.48482513427734
69;1673428442.0432522;47.1306418;7.2406198999999996;6.277000427246094;1673428442.0315373;13.073601722717285;-14.767048835754395;97.41775512695312
70;1673428442.2474477;47.1306419;7.2406198999999996;6.474000453948975;1673428442.229735;12.965370178222656;-12.067689895629883;97.55941772460938
71;1673428442.4550674;47.1306419;7.2406198999999996;6.673000335693359;1673428442.4343197;12.857637405395508;-15.39745807647705;97.21277618408203
72;1673428442.6564584;47.130641999999995;7.2406198999999996;6.874000549316406;1673428442.644591;12.761394500732422;-14.761269569396973;97.48963928222656
73;1673428442.8632672;47.130641999999995;7.2406198999999996;7.079000473022461;1673428442.8495991;12.915461540222168;-11.893239974975586;97.7676010131836
74;1673428443.0705206;47.1306419;7.2406198999999996;7.281000137329102;1673428443.051782;12.726080894470215;-14.56285572052002;97.45747375488281
75;1673428443.2682543;47.1306418;7.2406198999999996;7.482000350952148;1673428443.2577507;13.052861213684082;-16.59358024597168;97.28350067138672
76;1673428443.468811;47.1306417;7.2406198999999996;7.683000564575195;1673428443.4575188;13.118088722229004;-13.054006576538086;97.44985961914062
77;1673428443.6569378;47.1306416;7.24062;7.887000560760498;1673428443.645218;12.845547676086426;-13.578207015991211;97.49120330810547
78;1673428443.8473754;47.1306417;7.24062;8.093000411987305;1673428443.8356638;12.969297409057617;-16.825801849365234;97.15776062011719
79;1673428444.0474305;47.1306417;7.2406201;8.294000625610352;1673428444.0337803;12.987911224365234;-14.240880966186523;97.55442810058594
80;1673428444.2521417;47.1306416;7.2406201;8.494000434875488;1673428444.2394648;13.154845237731934;-12.809752464294434;97.61843872070312
81;1673428444.4535534;47.1306416;7.2406201;8.695000648498535;1673428444.441859;13.098973274230957;-15.766867637634277;97.33458709716797
82;1673428444.6759772;47.1306417;7.2406201999999995;8.893000602722168;1673428444.6632156;13.079347610473633;-15.637312889099121;97.27869415283203
83;1673428444.8483763;47.1306417;7.2406201999999995;9.09000015258789;1673428444.835687;13.030755043029785;-12.195114135742188;97.55919647216797
84;1673428445.1115098;47.1306417;7.2406201999999995;9.290000915527344;1673428445.0949159;12.838177680969238;-15.059489250183105;97.34624481201172
85;1673428445.2930298;47.1306418;7.2406203;9.49000072479248;1673428445.278322;13.02696418762207;-15.550293922424316;97.28045654296875
86;1673428445.47653;47.1306418;7.2406203;9.694000244140625;1673428445.4652507;13.192506790161133;-12.257903099060059;97.68392944335938
87;1673428445.6489022;47.1306417;7.2406203;9.897000312805176;1673428445.63818;13.136869430541992;-14.328804016113281;97.68146514892578
88;1673428445.8364856;47.1306417;7.2406204;10.10200023651123;1673428445.8234353;13.280917167663574;-16.312931060791016;97.40550994873047
89;1673428446.0892904;47.1306417;7.2406203;10.345000267028809;1673428446.076445;13.049810409545898;-13.180062294006348;97.24151611328125
90;1673428446.2809677;47.1306419;7.2406201999999995;10.699000358581543;1673428446.270668;13.275293350219727;-15.03059196472168;96.94803619384766
91;1673428446.4508808;47.1306423;7.24062;11.075000762939453;1673428446.439007;13.00562572479248;-17.739511489868164;96.73914337158203
92;1673428446.6411865;47.130642699999996;7.2406198999999996;11.463000297546387;1673428446.6284978;12.566742897033691;-14.591913223266602;97.02810668945312
93;1673428446.8370235;47.1306431;7.2406197;11.858000755310059;1673428446.8252108;12.323678016662598;-11.790629386901855;97.22766876220703
94;1673428447.0478756;47.1306434;7.240619499999999;12.257000923156738;1673428447.0371404;11.863330841064453;-13.628780364990234;97.09111022949219
95;1673428447.2387822;47.1306436;7.240619499999999;12.656000137329102;1673428447.227069;12.045371055603027;-13.08495807647705;97.2528076171875
96;1673428447.435915;47.1306437;7.2406194;13.054000854492188;1673428447.4232268;11.959711074829102;-9.809520721435547;97.6313247680664
97;1673428447.63611;47.1306436;7.240619499999999;13.454000473022461;1673428447.6224139;11.939162254333496;-12.915300369262695;97.42034912109375
98;1673428447.864753;47.1306435;7.240619499999999;13.857000350952148;1673428447.8481715;12.179123878479004;-13.874849319458008;97.2936019897461
99;1673428448.0653205;47.130643299999996;7.2406196;14.266000747680664;1673428448.0486321;12.778960227966309;-11.474335670471191;97.55046081542969
100;1673428448.3701046;47.130643;7.2406196;14.679000854492188;1673428448.3623006;12.611459732055664;-13.863786697387695;97.37074279785156
101;1673428448.5798194;47.1306428;7.2406197;15.090001106262207;1673428448.5714521;12.697625160217285;-15.899876594543457;97.28682708740234
102;1673428448.8250804;47.130642599999995;7.2406197;15.51400089263916;1673428448.8172646;12.786107063293457;-13.56944751739502;97.2825698852539
103;1673428448.9596946;47.1306425;7.2406197;15.905000686645508;1673428448.950911;12.869632720947266;-13.356884002685547;97.4138412475586
104;1673428449.1484573;47.1306425;7.240619799999999;16.312000274658203;1673428449.139151;12.875116348266602;-16.481874465942383;96.9853744506836
105;1673428449.3239317;47.130642599999995;7.240619799999999;16.722000122070312;1673428449.3122373;12.569238662719727;-13.582235336303711;97.2669448852539
106;1673428449.5338035;47.130642599999995;7.2406197;17.134000778198242;1673428449.520774;12.725439071655273;-12.433988571166992;97.37419891357422
107;1673428449.7650912;47.130642699999996;7.2406197;17.543001174926758;1673428449.758035;12.468450546264648;-15.494534492492676;97.1547622680664
108;1673428449.9443097;47.130642699999996;7.2406197;17.94700050354004;1673428449.933574;12.566095352172852;-14.496517181396484;97.08645629882812
109;1673428450.1391225;47.1306428;7.2406197;18.349000930786133;1673428450.1283154;12.375444412231445;-11.631636619567871;97.46341705322266
110;1673428450.3105593;47.1306428;7.2406197;18.756000518798828;1673428450.3017688;12.403285026550293;-14.188285827636719;97.17073059082031
111;1673428450.5042045;47.1306429;7.2406197;19.16400146484375;1673428450.490523;12.51562213897705;-14.811515808105469;97.23550415039062
112;1673428450.703359;47.1306429;7.2406197;19.57200050354004;1673428450.6897573;12.650264739990234;-11.553242683410645;97.60850524902344
113;1673428450.8990319;47.1306429;7.2406197;19.981000900268555;1673428450.8863797;12.413308143615723;-13.257824897766113;97.3828125
114;1673428451.104184;47.1306429;7.2406197;20.385000228881836;1673428451.0924618;12.563737869262695;-15.19852066040039;97.08574676513672
115;1673428451.3050737;47.1306428;7.2406197;20.78700065612793;1673428451.2923758;12.640970230102539;-12.440587043762207;97.2479248046875
116;1673428451.529127;47.1306428;7.2406197;21.191001892089844;1673428451.519367;12.643156051635742;-12.647601127624512;97.53205871582031
117;1673428451.743409;47.1306428;7.2406197;21.59400177001953;1673428451.732524;12.543889045715332;-15.640730857849121;97.09420013427734
118;1673428451.9398377;47.1306428;7.2406197;22.001001358032227;1673428451.92714;12.923749923706055;-13.277705192565918;97.48392486572266
119;1673428452.1059828;47.1306428;7.2406197;22.41200065612793;1673428452.0952566;12.722061157226562;-12.018875122070312;97.384521484375
120;1673428452.3289301;47.1306428;7.2406197;22.836000442504883;1673428452.3172183;12.725549697875977;-14.826148986816406;97.2195816040039
121;1673428452.5184765;47.1306428;7.2406197;23.22300148010254;1673428452.5056756;12.709927558898926;-14.948864936828613;97.22492980957031
122;1673428452.6990952;47.1306428;7.2406196;23.621000289916992;1673428452.6864123;12.697284698486328;-11.750638961791992;97.39866638183594
123;1673428452.9004064;47.1306428;7.2406196;24.0210018157959;1673428452.887706;12.478570938110352;-14.369118690490723;97.33721160888672
124;1673428453.0790558;47.1306429;7.2406196;24.424001693725586;1673428453.0691338;12.561247825622559;-14.851545333862305;97.36573028564453
125;1673428453.2518184;47.1306428;7.2406196;24.83100128173828;1673428453.2391307;12.638396263122559;-11.545699119567871;97.61664581298828
126;1673428453.5495555;47.1306428;7.2406196;25.235000610351562;1673428453.5378458;12.648398399353027;-13.681269645690918;97.36080932617188
127;1673428453.7573173;47.130642699999996;7.2406196;25.63500213623047;1673428453.7434945;12.7180814743042;-15.329580307006836;97.1777114868164
128;1673428453.9733918;47.130642599999995;7.2406196;26.032001495361328;1673428453.9606946;12.78264331817627;-12.613375663757324;97.34920501708984
129;1673428454.1792314;47.130642599999995;7.2406196;26.4320011138916;1673428454.1675265;12.672774314880371;-13.207127571105957;97.41344451904297
130;1673428454.3615603;47.130642699999996;7.2406196;26.834001541137695;1673428454.3488717;12.730563163757324;-15.609752655029297;97.06640625
131;1673428454.5535429;47.130642699999996;7.2406196;27.239002227783203;1673428454.5428057;12.680439949035645;-13.095612525939941;97.33208465576172
132;1673428454.7469459;47.130642699999996;7.2406196;27.644001007080078;1673428454.7352333;12.818860054016113;-12.284343719482422;97.31700134277344
133;1673428454.9442506;47.130642699999996;7.2406196;28.047000885009766;1673428454.9305959;12.578596115112305;-14.907184600830078;97.25247955322266
134;1673428455.1428902;47.130642699999996;7.240619499999999;28.448001861572266;1673428455.130201;12.669970512390137;-13.846885681152344;97.28580474853516
135;1673428455.3422298;47.1306428;7.240619499999999;28.845001220703125;1673428455.3285654;12.510496139526367;-11.345427513122559;97.43949127197266
136;1673428455.5442522;47.1306428;7.240619499999999;29.2450008392334;1673428455.5305827;12.454967498779297;-14.301913261413574;97.23027801513672
137;1673428455.7445514;47.1306428;7.240619499999999;29.649002075195312;1673428455.7318642;12.692986488342285;-14.648760795593262;97.23636627197266
138;1673428455.9443762;47.130642699999996;7.240619499999999;30.054000854492188;1673428455.9316883;12.585697174072266;-11.469854354858398;97.49018859863281
139;1673428456.1428816;47.1306425;7.2406194;30.4580020904541;1673428456.130187;12.423914909362793;-14.066863059997559;97.35514068603516
140;1673428456.341695;47.1306425;7.240619499999999;30.871002197265625;1673428456.3277988;12.681943893432617;-15.491713523864746;97.25706481933594
141;1673428456.5405064;47.1306424;7.240619499999999;31.249000549316406;1673428456.5278184;12.696208000183105;-12.642082214355469;97.37482452392578
142;1673428456.7601979;47.1306424;7.2406196;31.649002075195312;1673428456.7475102;12.729695320129395;-13.448042869567871;97.32275390625
143;1673428456.9553347;47.1306424;7.2406196;32.05000305175781;1673428456.9426575;12.464937210083008;-15.751407623291016;97.02185821533203
144;1673428457.1749878;47.1306424;7.2406196;32.45600128173828;1673428457.1602228;12.87353801727295;-12.823685646057129;97.37699127197266
145;1673428457.3830523;47.1306424;7.2406197;32.8640022277832;1673428457.3711452;12.879064559936523;-12.589698791503906;97.50822448730469
146;1673428457.6145105;47.1306424;7.2406197;33.26900100708008;1673428457.6008465;12.784960746765137;-15.386542320251465;97.39331817626953
147;1673428457.8652835;47.1306424;7.2406197;33.669002532958984;1673428457.854514;12.961884498596191;-13.428184509277344;97.3034439086914
148;1673428458.0519173;47.1306425;7.2406197;34.06500244140625;1673428458.0400546;12.918818473815918;-12.021716117858887;97.41416931152344
149;1673428458.272074;47.130642599999995;7.2406197;34.46600341796875;1673428458.2623148;12.55301570892334;-14.946749687194824;97.16928100585938
150;1673428458.443142;47.130642699999996;7.2406197;34.875;1673428458.432405;12.80871868133545;-14.015434265136719;97.24211120605469
151;1673428458.6427038;47.130642599999995;7.2406197;35.28600311279297;1673428458.6300278;12.867403984069824;-11.577872276306152;97.42859649658203
152;1673428458.8553758;47.130642599999995;7.2406197;35.69300079345703;1673428458.8309102;12.610310554504395;-14.27013111114502;97.21685028076172
153;1673428459.0361943;47.130642599999995;7.240619799999999;36.095001220703125;1673428459.0264304;12.793987274169922;-14.67653751373291;97.27930450439453
154;1673428459.221647;47.130642599999995;7.240619799999999;36.4890022277832;1673428459.2070065;12.669849395751953;-11.394763946533203;97.49229431152344
155;1673428459.40468;47.130642599999995;7.240619799999999;36.88800048828125;1673428459.3914323;12.75932788848877;-13.538654327392578;97.36829376220703
156;1673428459.6003795;47.130642699999996;7.240619799999999;37.29100036621094;1673428459.5890918;12.673784255981445;-15.186836242675781;97.1689682006836
157;1673428459.8028333;47.130642699999996;7.240619799999999;37.69700241088867;1673428459.7901115;12.742603302001953;-11.784914016723633;97.43204498291016
158;1673428459.981183;47.130642699999996;7.240619799999999;38.10000228881836;1673428459.969434;12.720643997192383;-13.047612190246582;97.21775817871094
159;1673428460.1688528;47.130642599999995;7.240619799999999;38.52100372314453;1673428460.1571481;12.652349472045898;-15.580340385437012;97.10336303710938
160;1673428460.3639896;47.130642699999996;7.240619799999999;38.92000198364258;1673428460.347397;12.811552047729492;-12.548920631408691;97.45320129394531
161;1673428460.5877862;47.130642699999996;7.240619799999999;39.29800033569336;1673428460.5750895;12.725150108337402;-12.000517845153809;97.58470153808594
162;1673428460.7705588;47.130642699999996;7.2406198999999996;39.694000244140625;1673428460.7578733;12.789549827575684;-15.215514183044434;97.25951385498047
163;1673428460.987876;47.130642699999996;7.2406198999999996;40.09600067138672;1673428460.9712749;13.125173568725586;-13.066015243530273;97.44452667236328
164;1673428461.1850166;47.130642599999995;7.24062;40.50200271606445;1673428461.1732943;13.118807792663574;-11.895349502563477;97.53376007080078
165;1673428461.3837254;47.130642599999995;7.24062;40.90500259399414;1673428461.3708272;12.930145263671875;-14.685172080993652;97.3154067993164
166;1673428461.585985;47.130642599999995;7.24062;41.301002502441406;1673428461.5741851;12.993653297424316;-14.423420906066895;97.22574615478516
167;1673428461.7915647;47.130642599999995;7.2406198999999996;41.694000244140625;1673428461.7778585;13.100909233093262;-11.535898208618164;97.5453872680664
168;1673428461.9910004;47.130642599999995;7.2406198999999996;42.092002868652344;1673428461.9761617;12.80313491821289;-13.972576141357422;97.40767669677734
169;1673428462.1861749;47.130642699999996;7.240619799999999;42.49400329589844;1673428462.1742597;12.808940887451172;-14.448858261108398;97.40382385253906
170;1673428462.3943968;47.130642599999995;7.240619799999999;42.900001525878906;1673428462.3796844;12.924263000488281;-11.69222354888916;97.40156555175781
171;1673428462.5995076;47.1306425;7.2406197;43.307003021240234;1673428462.5877616;12.727253913879395;-12.821159362792969;97.4457015991211
172;1673428462.7897165;47.1306425;7.2406197;43.711002349853516;1673428462.7789829;12.71742057800293;-15.409651756286621;97.3161849975586
173;1673428462.9913464;47.1306425;7.2406197;44.11100387573242;1673428462.9796214;12.79521656036377;-12.351150512695312;97.19561767578125
174;1673428463.190153;47.1306425;7.2406197;44.50100326538086;1673428463.1794074;12.8294095993042;-12.856204986572266;97.35153198242188
175;1673428463.3874185;47.1306425;7.2406197;44.897003173828125;1673428463.375704;12.776497840881348;-15.459234237670898;97.1708755493164
176;1673428463.589822;47.1306425;7.2406197;45.29900360107422;1673428463.575102;12.77129077911377;-12.81151008605957;97.32908630371094
177;1673428463.7834325;47.1306425;7.2406197;45.704002380371094;1673428463.7697768;12.806610107421875;-12.559072494506836;97.23151397705078
178;1673428463.9956188;47.1306425;7.2406197;46.10600280761719;1673428463.9838963;12.696640968322754;-14.865752220153809;97.23894500732422
179;1673428464.193677;47.1306425;7.2406197;46.50300216674805;1673428464.181928;12.819963455200195;-13.843125343322754;97.16268920898438
180;1673428464.3907607;47.1306425;7.2406197;46.89500045776367;1673428464.3809922;12.825886726379395;-11.453660011291504;97.43974304199219
181;1673428464.5824192;47.130642599999995;7.2406197;47.29600143432617;1673428464.5686634;12.697395324707031;-14.492108345031738;97.12384033203125
182;1673428464.7830348;47.130642599999995;7.2406197;47.70000076293945;1673428464.7713234;12.77010440826416;-13.853948593139648;97.3023681640625
183;1673428464.9792006;47.130642599999995;7.2406197;48.105003356933594;1673428464.9694302;12.791356086730957;-11.438838005065918;97.57181549072266
184;1673428465.1822267;47.1306425;7.240619799999999;48.46800231933594;1673428465.1675863;12.867709159851074;-14.549454689025879;97.25472259521484
185;1673428465.4012794;47.1306424;7.2406198999999996;48.7760009765625;1673428465.3866205;13.005980491638184;-15.220415115356445;97.00093078613281
186;1673428465.5943785;47.1306423;7.24062;49.031002044677734;1673428465.5826569;12.935845375061035;-11.542655944824219;97.40877532958984
187;1673428465.8318;47.1306422;7.2406201999999995;49.24500274658203;1673428465.7954838;13.345785140991211;-13.531525611877441;97.37447357177734
188;1673428466.071359;47.130641999999995;7.2406204;49.4160041809082;1673428466.0606236;17.08153533935547;-10.972603797912598;97.86196899414062
189;1673428466.258262;47.130641399999995;7.24062;49.5780029296875;1673428466.248497;31.105266571044922;14.752124786376953;107.88699340820312
190;1673428466.4563427;47.1306393;7.240617599999999;49.724002838134766;1673428466.444545;35.84575271606445;38.21330642700195;118.93914794921875
191;1673428466.6437232;47.1306349;7.2406118;49.836002349853516;1673428466.632818;33.86317443847656;51.42531967163086;125.43402862548828
192;1673428466.8245401;47.1306278;7.2406026;49.89800262451172;1673428466.811857;19.411653518676758;53.70445251464844;133.15164184570312
193;1673428467.0153372;47.1306182;7.2405903;49.93800354003906;1673428467.0058906;2.9840521812438965;54.36422348022461;146.7185516357422
194;1673428467.2184412;47.130606799999995;7.240575799999999;49.97600173950195;1673428467.196874;-15.126416206359863;50.413658142089844;158.0922088623047
195;1673428467.4195902;47.1305937;7.2405596999999995;50.00800323486328;1673428467.4063516;-30.83379364013672;43.54398727416992;170.60824584960938
196;1673428467.6907587;47.130579;7.240542199999999;50.02400207519531;1673428467.681975;-43.38291931152344;40.81533432006836;-177.53163146972656
197;1673428467.856432;47.1305627;7.240523;50.0260009765625;1673428467.8456607;-51.62051773071289;36.05909729003906;-165.1273956298828
198;1673428468.075378;47.1305452;7.2405018;50.00100326538086;1673428468.067587;-50.92227554321289;28.110931396484375;-154.24920654296875
199;1673428468.255453;47.1305269;7.2404793;49.94600296020508;1673428468.242699;-45.54161071777344;22.249481201171875;-149.06007385253906
200;1673428468.4398541;47.1305082;7.2404562;49.887001037597656;1673428468.4309995;-46.845252990722656;19.16295051574707;-143.8516082763672
201;1673428468.6217632;47.1304892;7.240432299999999;49.83700180053711;1673428468.6068451;-48.83790588378906;15.976879119873047;-136.97576904296875
202;1673428468.8221066;47.130469999999995;7.240407599999999;49.797000885009766;1673428468.8079057;-47.52284622192383;10.985740661621094;-129.51919555664062
203;1673428469.008027;47.1304507;7.2403825;49.76000213623047;1673428468.996289;-44.61846923828125;6.299006938934326;-128.16424560546875
204;1673428469.2213004;47.1304313;7.240357599999999;49.72800064086914;1673428469.2097042;-41.82884979248047;6.6080098152160645;-132.01852416992188
205;1673428469.3955002;47.1304119;7.240333;49.715003967285156;1673428469.3847845;-44.46488952636719;8.343271255493164;-133.95257568359375
206;1673428469.5774744;47.1303923;7.2403086;49.71800231933594;1673428469.5665739;-47.837650299072266;10.024694442749023;-134.4487762451172
207;1673428469.7765913;47.1303725;7.240284;49.73800277709961;1673428469.7590299;-49.098480224609375;11.3296537399292;-134.61354064941406
208;1673428469.9914653;47.1303525;7.240259;49.76100158691406;1673428469.9797611;-48.594783782958984;11.985311508178711;-134.47305297851562
209;1673428470.1988943;47.1303324;7.2402337;49.78200149536133;1673428470.1881454;-48.00748825073242;12.288707733154297;-134.3441619873047
210;1673428470.4069433;47.1303123;7.240208099999999;49.80400085449219;1673428470.3952255;-47.543975830078125;12.493233680725098;-134.24746704101562
211;1673428470.6093776;47.1302923;7.2401823;49.827003479003906;1673428470.5985873;-47.634891510009766;12.714676856994629;-134.16622924804688
212;1673428470.7870247;47.1302722;7.2401561999999995;49.84400177001953;1673428470.7753315;-47.94831466674805;12.884042739868164;-134.0815887451172
213;1673428470.9761655;47.1302522;7.24013;49.84800338745117;1673428470.9634788;-47.12975311279297;12.633100509643555;-133.88951110839844
214;1673428471.171967;47.130232299999996;7.240103599999999;49.85200119018555;1673428471.1591647;-46.0928840637207;12.405144691467285;-133.9915008544922
215;1673428471.3675513;47.1302125;7.2400772;49.85600280761719;1673428471.3548505;-45.86885452270508;12.407464027404785;-134.0699005126953
216;1673428471.5641124;47.130192799999996;7.240050699999999;49.86300277709961;1673428471.5523803;-46.52225875854492;12.565211296081543;-134.11126708984375
217;1673428471.7667685;47.1301731;7.240024099999999;49.87200164794922;1673428471.7529504;-47.13127899169922;12.654353141784668;-134.08441162109375
218;1673428471.9800081;47.1301534;7.239997499999999;49.88100051879883;1673428471.9663513;-47.30807113647461;12.57977294921875;-134.01657104492188
219;1673428472.1881523;47.130133799999996;7.2399708;49.87700271606445;1673428472.1744406;-46.658843994140625;12.386725425720215;-133.94308471679688
220;1673428472.3821375;47.1301142;7.2399441;49.875003814697266;1673428472.370433;-45.95404052734375;12.114946365356445;-134.00543212890625
221;1673428472.5937731;47.1300947;7.2399173999999995;49.87600326538086;1673428472.580086;-46.17496109008789;12.25601577758789;-134.1436309814453
222;1673428472.826653;47.1300752;7.239890699999999;49.87800216674805;1673428472.8153646;-46.93663024902344;12.332433700561523;-134.1063690185547
223;1673428472.9969456;47.1300557;7.239864;49.87800216674805;1673428472.9832547;-47.095062255859375;12.318371772766113;-134.03216552734375
224;1673428473.1896248;47.1300361;7.239837199999999;49.87900161743164;1673428473.1769361;-46.74628448486328;12.168766021728516;-134.00331115722656
225;1673428473.3762288;47.1300166;7.2398105;49.880001068115234;1673428473.3625283;-46.652679443359375;12.094337463378906;-134.02882385253906
226;1673428473.5728571;47.1299972;7.2397838;49.874000549316406;1673428473.559194;-46.696998596191406;12.121602058410645;-133.99810791015625
227;1673428473.779686;47.1299777;7.239757099999999;49.86900329589844;1673428473.7669573;-46.626182556152344;12.087263107299805;-133.99371337890625
228;1673428474.0016453;47.1299582;7.2397304;49.8640022277832;1673428473.9899406;-46.49009323120117;12.031966209411621;-133.97006225585938
229;1673428474.2057884;47.129937999999996;7.2397027;49.86100387573242;1673428474.1960266;-46.71636962890625;12.149104118347168;-133.98989868164062
230;1673428474.4187973;47.1299193;7.2396771;49.85600280761719;1673428474.406275;-47.02177047729492;12.133902549743652;-133.90821838378906
231;1673428474.6133084;47.1298999;7.2396505;49.858001708984375;1673428474.6045136;-46.94681930541992;12.106807708740234;-133.88751220703125
232;1673428474.777556;47.1298804;7.2396239;49.855003356933594;1673428474.766821;-47.002166748046875;12.081958770751953;-133.86280822753906
233;1673428474.9928129;47.129861;7.239597099999999;49.849002838134766;1673428474.9781218;-46.6751708984375;11.950014114379883;-133.82081604003906
234;1673428475.204183;47.1298415;7.2395703;49.842002868652344;1673428475.1905205;-46.47111892700195;11.829634666442871;-133.81939697265625
235;1673428475.3988128;47.1298221;7.239543599999999;49.8380012512207;1673428475.3868673;-46.49704360961914;11.847928047180176;-133.8203887939453
236;1673428475.6054397;47.1298026;7.2395169;49.83700180053711;1673428475.5927544;-46.70496368408203;11.84714412689209;-133.79354858398438
237;1673428475.8063178;47.1297831;7.2394903;49.83500289916992;1673428475.7915213;-46.774688720703125;11.866291046142578;-133.7544403076172
238;1673428476.008042;47.1297637;7.2394636;49.83700180053711;1673428475.9951875;-46.901371002197266;11.86358642578125;-133.7169189453125
239;1673428476.1992683;47.1297442;7.239436899999999;49.8390007019043;1673428476.1855986;-47.00572204589844;11.845893859863281;-133.63894653320312
240;1673428476.4186237;47.1297248;7.2394102;49.842002868652344;1673428476.3990765;-46.82490539550781;11.771918296813965;-133.56752014160156
241;1673428476.617521;47.1297053;7.2393833999999995;49.84700393676758;1673428476.6058128;-46.777259826660156;11.691947937011719;-133.53982543945312
242;1673428476.806186;47.1296858;7.2393567;49.85100173950195;1673428476.7953193;-46.74436950683594;11.661432266235352;-133.47528076171875
243;1673428476.9885437;47.1296663;7.2393298999999995;49.85700225830078;1673428476.977792;-46.89479064941406;11.673383712768555;-133.4689178466797
244;1673428477.1994154;47.129646799999996;7.2393031;49.8640022277832;1673428477.1848066;-47.10883712768555;11.620905876159668;-133.371337890625
245;1673428477.3919218;47.129627299999996;7.239276299999999;49.868003845214844;1673428477.3810992;-47.215553283691406;11.572277069091797;-133.28099060058594
246;1673428477.5948534;47.129607799999995;7.2392495;49.868003845214844;1673428477.569448;-46.833648681640625;11.394314765930176;-133.18563842773438
247;1673428477.7764711;47.129588299999995;7.2392227;49.86900329589844;1673428477.7655606;-46.56370544433594;11.267460823059082;-133.1379852294922
248;1673428477.9735417;47.1295688;7.2391958999999995;49.87300109863281;1673428477.96183;-46.671119689941406;11.257521629333496;-133.0881805419922
249;1673428478.1792068;47.129549399999995;7.2391691;49.880001068115234;1673428478.1664972;-47.15684127807617;11.323688507080078;-133.0055694580078
250;1673428478.387696;47.1295299;7.2391423999999995;49.88600158691406;1673428478.3750143;-47.45244598388672;11.229740142822266;-132.8386688232422
251;1673428478.5754287;47.1295103;7.2391156;49.89200210571289;1673428478.5637283;-47.18239212036133;11.113856315612793;-132.74078369140625
252;1673428478.7964194;47.1294908;7.2390887;49.89900207519531;1673428478.785683;-46.992103576660156;10.920506477355957;-132.5817108154297
253;1673428478.9893353;47.1294713;7.2390618;49.90500259399414;1673428478.978594;-47.18761444091797;10.856971740722656;-132.4678497314453
254;1673428479.1912048;47.1294517;7.239034999999999;49.90700149536133;1673428479.1785161;-47.175865173339844;10.722261428833008;-132.29696655273438
255;1673428479.3933945;47.129432099999995;7.2390080999999995;49.90800094604492;1673428479.3797107;-46.95414352416992;10.638738632202148;-132.12843322753906
256;1673428479.672708;47.1294125;7.2389812;49.910003662109375;1673428479.6452792;-46.84078598022461;11.262845993041992;-132.12478637695312
257;1673428479.8558283;47.129393;7.238954199999999;49.919002532958984;1673428479.844121;-46.70371627807617;13.99511432647705;-132.24468994140625
258;1673428480.039457;47.129373699999995;7.2389269999999994;49.93000411987305;1673428480.0277445;-46.970394134521484;14.837876319885254;-131.2860107421875
259;1673428480.221792;47.1293546;7.2388996;49.939002990722656;1673428480.2100785;-47.56053161621094;13.868348121643066;-130.48419189453125
260;1673428480.4372;47.1293358;7.2388718999999995;49.94900131225586;1673428480.424944;-46.81476593017578;15.432866096496582;-130.5702667236328
261;1673428480.6251192;47.1293173;7.2388439;49.96200180053711;1673428480.6134026;-45.839080810546875;16.537168502807617;-129.876220703125
262;1673428480.8205879;47.1292992;7.238815799999999;49.974002838134766;1673428480.8118007;-46.40501022338867;17.432395935058594;-129.43228149414062
263;1673428481.0160053;47.1292816;7.2387872;49.9890022277832;1673428481.003321;-45.37683868408203;19.685226440429688;-129.0319061279297
264;1673428481.2059758;47.1292639;7.2387573;50.00800323486328;1673428481.1942322;-38.655548095703125;17.441282272338867;-127.74259185791016
265;1673428481.4017837;47.1292483;7.2387301;50.038002014160156;1673428481.388105;-23.599594116210938;18.73979949951172;-129.77578735351562
266;1673428481.6013281;47.129233;7.2387035;50.06500244140625;1673428481.5896165;-6.619730472564697;17.552324295043945;-132.64920043945312
267;1673428481.7931917;47.1292191;7.238679599999999;50.08100128173828;1673428481.7803376;6.745776653289795;14.852657318115234;-135.41116333007812
268;1673428482.0053937;47.1292069;7.2386592;50.08400344848633;1673428481.9927223;15.626823425292969;13.895130157470703;-136.4597625732422
269;1673428482.208735;47.129196;7.238642;50.082000732421875;1673428482.1960528;19.827289581298828;17.04582977294922;-137.15115356445312
270;1673428482.41089;47.129187699999996;7.2386295;50.07200241088867;1673428482.3991923;21.666105270385742;13.216634750366211;-138.37185668945312
271;1673428482.6065774;47.1291806;7.2386194999999995;50.066001892089844;1673428482.5939255;18.254146575927734;12.85366439819336;-137.95689392089844
272;1673428482.8025892;47.1291748;7.238611799999999;50.06900405883789;1673428482.7908883;12.794560432434082;17.5765323638916;-136.19322204589844
273;1673428483.0073826;47.129170099999996;7.238605799999999;50.07400131225586;1673428482.9955094;5.350428581237793;19.26272201538086;-134.57850646972656
274;1673428483.2207265;47.1291662;7.2386007999999995;50.079002380371094;1673428483.1992447;-0.11940287798643112;20.39008331298828;-133.6754913330078
275;1673428483.3970857;47.1291629;7.2385964;50.08100128173828;1673428483.385208;-3.2717182636260986;21.969064712524414;-132.96585083007812
276;1673428483.5948768;47.1291599;7.2385924;50.08100128173828;1673428483.5831292;-4.470438480377197;22.6301326751709;-131.736328125
277;1673428483.821177;47.1291571;7.2385885;50.08500289916992;1673428483.8094637;-4.019589424133301;21.595592498779297;-130.42236328125
278;1673428484.0124323;47.129154299999996;7.2385845;50.09100341796875;1673428483.9987695;-3.3162152767181396;18.868284225463867;-129.69259643554688
279;1673428484.2123039;47.129151799999995;7.238580799999999;50.11300277709961;1673428484.1927717;-16.069242477416992;17.691347122192383;-134.88043212890625
280;1673428484.403425;47.1291485;7.238575999999999;50.202003479003906;1673428484.390486;-35.93679428100586;16.747108459472656;-141.22535705566406
281;1673428484.6068487;47.1291438;7.238569399999999;50.33500289916992;1673428484.5941703;-32.07197952270508;8.924298286437988;-137.93028259277344
282;1673428484.8070803;47.1291375;7.238561799999999;50.53000259399414;1673428484.7934139;-23.496862411499023;7.359049320220947;-136.59878540039062
283;1673428485.0113196;47.1291303;7.238554199999999;50.80600357055664;1673428485.0000124;-20.421531677246094;3.8569209575653076;-134.68043518066406
284;1673428485.2159715;47.1291224;7.2385461;51.14800262451172;1673428485.2071884;-33.670257568359375;21.50038719177246;-135.64756774902344
285;1673428485.412028;47.1291139;7.238535799999999;51.518001556396484;1673428485.3993409;-37.84703063964844;26.33713150024414;-134.7130889892578
286;1673428485.624163;47.1291052;7.2385231;51.89900207519531;1673428485.6102931;-34.50775146484375;25.717613220214844;-135.40179443359375
287;1673428485.8088622;47.1290963;7.2385088;52.28400421142578;1673428485.7971506;-31.821706771850586;23.16412925720215;-135.72854614257812
288;1673428486.0080137;47.1290871;7.238493399999999;52.67000198364258;1673428485.996318;-28.684293746948242;19.565494537353516;-135.9471893310547
289;1673428486.2030237;47.129077699999996;7.2384775999999995;53.05600357055664;1673428486.1893618;-25.731374740600586;15.745152473449707;-136.1904296875
290;1673428486.3981092;47.1290681;7.2384619;53.44300079345703;1673428486.3872116;-23.015640258789062;13.256999969482422;-136.34963989257812
291;1673428486.6056015;47.1290584;7.2384467;53.832000732421875;1673428486.5927646;-21.411544799804688;11.98687744140625;-136.55677795410156
292;1673428486.804358;47.1290486;7.238431899999999;54.22100067138672;1673428486.7915351;-19.889802932739258;11.97097396850586;-136.80145263671875
293;1673428487.0013683;47.1290388;7.238417699999999;54.60900115966797;1673428486.9896617;-19.365432739257812;13.013368606567383;-137.11477661132812
294;1673428487.193867;47.129028999999996;7.2384040999999995;54.99800109863281;1673428487.181178;-19.691925048828125;15.589337348937988;-137.61045837402344
295;1673428487.3904092;47.129019199999995;7.2383907999999995;55.3900032043457;1673428487.3777335;-20.552461624145508;17.055866241455078;-137.60678100585938
296;1673428487.6083274;47.1290093;7.2383779;55.78200149536133;1673428487.595531;-21.47449493408203;17.096006393432617;-137.5458984375
297;1673428487.8116775;47.1289995;7.238365099999999;56.17900085449219;1673428487.8009439;-23.15072250366211;16.18039894104004;-137.06637573242188
298;1673428488.014739;47.1289896;7.2383522;56.5780029296875;1673428488.0040052;-23.676856994628906;16.09333038330078;-136.73745727539062
299;1673428488.2062225;47.128979699999995;7.2383391999999995;56.97700119018555;1673428488.1953583;-24.155227661132812;16.31085777282715;-136.65953063964844
300;1673428488.4034321;47.1289699;7.2383258999999995;57.37700271606445;1673428488.3917196;-24.35918617248535;17.176311492919922;-136.7866668701172
301;1673428488.610571;47.1289601;7.2383124;57.77900314331055;1673428488.5973508;-23.844499588012695;18.460954666137695;-136.97979736328125
302;1673428488.80817;47.1289503;7.2382988;58.17900466918945;1673428488.790603;-23.698209762573242;19.007535934448242;-137.19166564941406
303;1673428489.005176;47.1289405;7.2382851;58.57500457763672;1673428488.994325;-23.605350494384766;18.433326721191406;-137.16854858398438
304;1673428489.1926138;47.1289306;7.2382713999999995;58.97300338745117;1673428489.1809096;-23.602453231811523;16.57360076904297;-136.82803344726562
305;1673428489.3870482;47.128920699999995;7.238257699999999;59.37200164794922;1673428489.3752236;-23.606901168823242;15.623170852661133;-136.5623321533203
306;1673428489.5872695;47.1289107;7.238244099999999;59.77000427246094;1673428489.5755584;-23.526704788208008;15.354802131652832;-136.60984802246094
307;1673428489.7905898;47.128900699999996;7.238230499999999;60.1670036315918;1673428489.7787023;-23.325716018676758;15.367255210876465;-136.52508544921875
308;1673428489.9898164;47.1288908;7.2382168;60.56300354003906;1673428489.9761474;-23.13795280456543;16.163089752197266;-136.59925842285156
309;1673428490.20979;47.1288809;7.2382031;60.95700454711914;1673428490.1980505;-22.75714874267578;17.26889991760254;-136.87249755859375
310;1673428490.4262335;47.1288711;7.2381895;61.35400390625;1673428490.4143689;-23.049510955810547;17.848936080932617;-137.0355987548828
311;1673428490.6123343;47.128861199999996;7.2381758;61.75200271606445;1673428490.6005685;-22.821842193603516;18.5048885345459;-137.03651428222656
312;1673428490.8150911;47.1288513;7.2381622;62.151004791259766;1673428490.802243;-23.13490867614746;18.699872970581055;-137.13511657714844
313;1673428491.0235908;47.128841099999995;7.238148;62.566001892089844;1673428491.0109034;-23.114009857177734;18.57461929321289;-137.09312438964844
314;1673428491.2207894;47.1288316;7.2381348;62.94900131225586;1673428491.2090676;-23.330730438232422;18.330280303955078;-137.12261962890625
315;1673428491.4058187;47.1288218;7.238121199999999;63.349002838134766;1673428491.3941004;-23.42395782470703;17.76991081237793;-136.99417114257812
316;1673428491.5957706;47.128811899999995;7.2381075;63.750003814697266;1673428491.585024;-23.593547821044922;16.789155960083008;-136.81692504882812
317;1673428491.7914824;47.128802;7.2380939;64.1510009765625;1673428491.7797558;-23.702205657958984;16.31390380859375;-136.68325805664062
318;1673428492.0082915;47.1287922;7.2380803;64.5510025024414;1673428491.9974773;-23.726970672607422;15.611210823059082;-136.63087463378906
319;1673428492.2084112;47.1287823;7.2380667;64.9530029296875;1673428492.1947463;-23.927244186401367;15.43436336517334;-136.58810424804688
320;1673428492.4347916;47.1287725;7.238053099999999;65.35400390625;1673428492.410906;-23.937471389770508;15.091964721679688;-136.53512573242188
321;1673428492.6257603;47.128762599999995;7.238039499999999;65.75300598144531;1673428492.614017;-23.89110565185547;15.308404922485352;-136.61497497558594
322;1673428492.808928;47.1287527;7.238025899999999;66.1510009765625;1673428492.7981946;-23.844507217407227;15.708646774291992;-136.67025756835938
323;1673428493.0055954;47.1287428;7.238012299999999;66.54800415039062;1673428492.9929929;-23.751934051513672;16.384510040283203;-136.76126098632812
324;1673428493.1970904;47.128732899999996;7.2379986;66.94400024414062;1673428493.186355;-23.60801887512207;17.049972534179688;-136.98268127441406
325;1673428493.4203253;47.128722599999996;7.237984399999999;67.35600280761719;1673428493.4076402;-23.615421295166016;17.241565704345703;-136.9385986328125
326;1673428493.6360183;47.1287131;7.2379712;67.73699951171875;1673428493.623321;-23.45258140563965;17.83616065979004;-137.05311584472656
327;1673428493.8395598;47.1287032;7.2379574;68.13500213623047;1673428493.8278468;-23.275436401367188;18.029821395874023;-137.12188720703125
328;1673428494.0318003;47.1286932;7.2379437;68.53400421142578;1673428494.0200949;-23.4988956451416;18.02849769592285;-137.11685180664062
329;1673428494.2341185;47.1286833;7.2379299999999995;68.93500518798828;1673428494.2214286;-23.555387496948242;17.97095489501953;-137.10842895507812
330;1673428494.4405663;47.1286734;7.2379164;69.33600616455078;1673428494.4288352;-23.64836883544922;17.4650936126709;-136.96995544433594
331;1673428494.6457548;47.128662999999996;7.2379023;69.75200653076172;1673428494.6358542;-23.762893676757812;17.83146095275879;-137.06094360351562
332;1673428494.8485918;47.128653299999996;7.2378893;70.13500213623047;1673428494.834926;-23.88100242614746;17.455228805541992;-136.86679077148438
333;1673428495.0354495;47.1286433;7.237875799999999;70.5320053100586;1673428495.0247295;-24.202478408813477;17.040733337402344;-136.79466247558594
334;1673428495.2323651;47.1286334;7.2378621999999995;70.92900085449219;1673428495.221631;-24.137601852416992;16.977493286132812;-136.75265502929688
335;1673428495.4430294;47.128623399999995;7.237848499999999;71.32600402832031;1673428495.4244316;-24.20687484741211;16.885448455810547;-136.7104949951172
336;1673428495.6359534;47.1286135;7.2378348;71.72200012207031;1673428495.6242414;-24.275373458862305;16.773574829101562;-136.68707275390625
337;1673428495.8693783;47.128603299999995;7.2378203999999995;72.13400268554688;1673428495.8464203;-24.175823211669922;16.582292556762695;-136.68421936035156
338;1673428496.0626898;47.1285938;7.2378070999999995;72.51700592041016;1673428496.0499723;-24.050352096557617;16.25043296813965;-136.688720703125
339;1673428496.2568955;47.128584;7.2377932;72.91800689697266;1673428496.2474766;-24.01616668701172;16.019908905029297;-136.70362854003906
340;1673428496.4483368;47.128574099999994;7.2377794;73.31999969482422;1673428496.4374733;-23.930532455444336;16.059375762939453;-136.7483673095703
341;1673428496.6220958;47.1285641;7.2377655999999995;73.71800231933594;1673428496.611205;-23.792911529541016;16.101903915405273;-136.77806091308594
342;1673428496.8099265;47.128554199999996;7.237751899999999;74.11800384521484;1673428496.7972236;-23.77374839782715;16.29942512512207;-136.77845764160156
343;1673428497.044825;47.1285442;7.2377382;74.52000427246094;1673428497.0321023;-23.68667221069336;16.663515090942383;-136.8140411376953
344;1673428497.2276042;47.1285343;7.2377246;74.92200469970703;1673428497.2168498;-23.727569580078125;16.915281295776367;-136.9213409423828
345;1673428497.412088;47.128524299999995;7.2377109;75.32100677490234;1673428497.3993094;-23.61020851135254;17.245121002197266;-136.95623779296875
346;1673428497.6450183;47.1285144;7.2376973;75.71700286865234;1673428497.6292078;-23.68833351135254;17.36350440979004;-136.96493530273438
347;1673428497.890034;47.1285045;7.2376835999999996;76.11300659179688;1673428497.8802814;-23.795860290527344;17.454856872558594;-136.9393310546875
348;1673428498.0707307;47.128494599999996;7.23767;76.50900268554688;1673428498.0590193;-23.958419799804688;17.459497451782227;-136.910888671875
349;1673428498.2564974;47.1284847;7.237656299999999;76.90400695800781;1673428498.2432656;-24.077669143676758;17.68061065673828;-136.96444702148438
350;1673428498.4581742;47.1284747;7.2376426;77.29900360107422;1673428498.4439628;-24.34365463256836;17.490463256835938;-136.95326232910156
351;1673428498.6553047;47.128464799999996;7.2376289;77.69500732421875;1673428498.6406558;-24.20255470275879;17.565706253051758;-136.93016052246094
352;1673428498.8533015;47.1284548;7.2376152;78.09400177001953;1673428498.8404653;-24.126293182373047;17.584339141845703;-136.92843627929688
353;1673428499.036461;47.1284449;7.2376014;78.49500274658203;1673428499.0256975;-24.038862228393555;17.454076766967773;-136.9087371826172
354;1673428499.215637;47.1284345;7.2375871;78.91000366210938;1673428499.2037833;-23.957061767578125;17.263025283813477;-136.92007446289062
355;1673428499.408914;47.128425;7.2375739;79.29000091552734;1673428499.3962257;-23.852418899536133;17.28141975402832;-136.95462036132812
356;1673428499.6055148;47.1284151;7.2375601;79.68500518798828;1673428499.5917056;-23.956951141357422;17.178237915039062;-136.91224670410156
357;1673428499.8285007;47.128405199999996;7.237546399999999;80.0780029296875;1673428499.8168068;-23.81832504272461;17.137651443481445;-136.936279296875
358;1673428500.0594032;47.1283953;7.237532799999999;80.47200012207031;1673428500.0471454;-23.755617141723633;17.09358787536621;-136.94004821777344
359;1673428500.2618308;47.1283854;7.2375191;80.86700439453125;1673428500.250014;-23.81574821472168;17.2141056060791;-136.95790100097656
360;1673428500.4539819;47.1283755;7.2375054;81.26600646972656;1673428500.4411874;-23.751306533813477;17.37091636657715;-136.97763061523438
361;1673428500.657439;47.128365599999995;7.2374918;81.66700744628906;1673428500.6455462;-23.787742614746094;17.224565505981445;-136.92845153808594
362;1673428500.836551;47.1283557;7.2374782;82.06500244140625;1673428500.8248303;-24.126667022705078;17.175453186035156;-136.9781036376953
363;1673428501.0204544;47.1283454;7.237463999999999;82.4780044555664;1673428501.0076106;-23.93610382080078;17.23624038696289;-136.9439239501953
364;1673428501.2201903;47.128335899999996;7.2374509;82.85800170898438;1673428501.2064757;-23.83782386779785;17.122928619384766;-136.9192352294922
365;1673428501.4273708;47.128326;7.2374372;83.2540054321289;1673428501.4145877;-23.934181213378906;17.24968719482422;-136.97706604003906
366;1673428501.6370862;47.1283161;7.2374236;83.64800262451172;1673428501.6234226;-23.85777473449707;17.314002990722656;-136.9615936279297
367;1673428501.8404558;47.1283062;7.23741;84.04000091552734;1673428501.8306968;-23.961132049560547;17.404613494873047;-136.9611053466797
368;1673428502.0287273;47.128296299999995;7.2373964;84.4320068359375;1673428502.0160375;-23.970857620239258;17.341503143310547;-136.95127868652344
369;1673428502.218152;47.1282864;7.2373828;84.82400512695312;1673428502.2054708;-24.048154830932617;17.446645736694336;-136.95770263671875
370;1673428502.4083583;47.1282765;7.2373692;85.21500396728516;1673428502.3956692;-23.989370346069336;17.36119842529297;-136.93096923828125
371;1673428502.6081953;47.128266599999996;7.2373555;85.60600280761719;1673428502.5963283;-24.001779556274414;17.32209587097168;-136.94287109375
372;1673428502.8033116;47.1282566;7.237341799999999;86.00000762939453;1673428502.7914498;-23.884708404541016;17.371793746948242;-136.95635986328125
373;1673428503.0332673;47.1282467;7.2373281;86.39300537109375;1673428503.0223796;-23.870840072631836;17.160215377807617;-136.93421936035156
374;1673428503.251893;47.128236799999996;7.2373144;86.78700256347656;1673428503.2372434;-23.81552505493164;17.10555648803711;-136.95301818847656
375;1673428503.4394393;47.1282269;7.2373008;87.1810073852539;1673428503.4277313;-23.858821868896484;17.154190063476562;-136.97955322265625
376;1673428503.632985;47.1282171;7.2372871;87.57500457763672;1673428503.6193204;-23.956233978271484;17.094974517822266;-136.9987335205078
377;1673428503.836066;47.1282072;7.2372735;87.97000122070312;1673428503.8252964;-24.015928268432617;17.105579376220703;-136.98667907714844
378;1673428504.0512958;47.128197199999995;7.2372599;88.36600494384766;1673428504.034701;-24.014476776123047;17.08796501159668;-136.96002197265625
379;1673428504.253973;47.1281873;7.2372463;88.76000213623047;1673428504.229533;-23.820159912109375;17.108325958251953;-136.9641876220703
380;1673428504.4648364;47.1281774;7.2372327;89.1510009765625;1673428504.4531252;-23.843660354614258;17.165925979614258;-136.95233154296875
381;1673428504.6578727;47.128167399999995;7.2372191;89.53800201416016;1673428504.6490757;-23.953481674194336;17.252151489257812;-136.98504638671875
382;1673428504.8477397;47.1281575;7.237205599999999;89.93000793457031;1673428504.837948;-24.110260009765625;17.329673767089844;-136.97996520996094
383;1673428505.040543;47.1281475;7.237191999999999;90.32100677490234;1673428505.028815;-24.00824546813965;17.283823013305664;-136.9310760498047
384;1673428505.228951;47.128137599999995;7.2371783999999995;90.71000671386719;1673428505.218223;-23.889516830444336;17.235687255859375;-136.95042419433594
385;1673428505.439885;47.1281276;7.2371647999999995;91.09900665283203;1673428505.4281473;-24.018476486206055;17.20094108581543;-136.96324157714844
386;1673428505.6432354;47.1281177;7.2371512;91.48700714111328;1673428505.630375;-23.981666564941406;17.208438873291016;-136.9679412841797
387;1673428505.8439848;47.128107799999995;7.2371376;91.8790054321289;1673428505.8322756;-23.9974365234375;17.219833374023438;-136.95986938476562
388;1673428506.0369296;47.1280979;7.237124;92.27200317382812;1673428506.0242252;-24.067651748657227;17.12758445739746;-136.9412078857422
389;1673428506.234265;47.1280879;7.2371105;92.66600799560547;1673428506.2215755;-24.073514938354492;17.121538162231445;-136.94985961914062
390;1673428506.5034542;47.1280779;7.2370969999999994;93.05900573730469;1673428506.4836817;-24.132577896118164;17.190189361572266;-136.95265197753906
391;1673428506.6841528;47.128068;7.2370833999999995;93.4520034790039;1673428506.6724446;-24.00728416442871;17.224441528320312;-136.93540954589844
392;1673428506.8595603;47.128057999999996;7.2370699;93.84400177001953;1673428506.8478348;-23.88165855407715;17.472837448120117;-136.92701721191406
393;1673428507.0413475;47.128048;7.2370563;94.23400115966797;1673428507.028648;-24.030912399291992;17.27149200439453;-136.92051696777344
394;1673428507.236827;47.1280381;7.2370427;94.62300109863281;1673428507.2260885;-24.110374450683594;17.340261459350586;-136.9248046875
395;1673428507.4548116;47.128028199999996;7.237029199999999;95.01500701904297;1673428507.4401717;-24.131397247314453;17.13357925415039;-136.90823364257812
396;1673428507.667516;47.1280182;7.237015599999999;95.406005859375;1673428507.6381965;-24.150407791137695;17.279010772705078;-136.90884399414062
397;1673428507.9096599;47.1280082;7.2370019999999995;95.79900360107422;1673428507.8999014;-24.062572479248047;17.32070541381836;-136.89122009277344
398;1673428508.1085174;47.1279982;7.2369885;96.19200134277344;1673428508.0733833;-23.897750854492188;17.427204132080078;-136.8857879638672
399;1673428508.3540976;47.1279882;7.2369748;96.58600616455078;1673428508.3187356;-23.8465576171875;17.46649169921875;-136.88621520996094
400;1673428508.517723;47.1279782;7.2369612;96.98200225830078;1673428508.5030859;-23.741130828857422;17.494831085205078;-136.8854522705078
401;1673428508.7084756;47.1279683;7.236947499999999;97.3800048828125;1673428508.6996582;-23.99530601501465;17.200838088989258;-136.89111328125
402;1673428508.9208786;47.1279584;7.2369338999999995;97.77800750732422;1673428508.893447;-23.819475173950195;17.27187156677246;-136.8814697265625
403;1673428509.1035693;47.1279484;7.236920199999999;98.1760025024414;1673428509.0908659;-23.77165412902832;17.269550323486328;-136.91639709472656
404;1673428509.2745152;47.1279385;7.236906599999999;98.57400512695312;1673428509.2637296;-23.54952049255371;17.309133529663086;-136.88331604003906
405;1673428509.4628854;47.127928499999996;7.236892999999999;98.97000122070312;1673428509.4520648;-23.859867095947266;17.22209930419922;-136.88198852539062
406;1673428509.6300216;47.1279186;7.236879399999999;99.36900329589844;1673428509.6199274;-23.88018035888672;17.234333038330078;-136.88671875
407;1673428509.8401473;47.1279087;7.2368657999999995;99.76900482177734;1673428509.8106563;-23.750839233398438;17.26219940185547;-136.8571014404297
408;1673428510.1284564;47.1278988;7.2368521999999995;100.16700744628906;1673428510.094788;-23.832660675048828;17.12232208251953;-136.89622497558594
409;1673428510.3201485;47.127888899999995;7.2368386;100.56200408935547;1673428510.3092034;-23.85688018798828;17.18192481994629;-136.8845672607422
410;1673428510.5549958;47.127879;7.236825;100.9590072631836;1673428510.5135748;-23.91748046875;17.20572853088379;-136.8704833984375
411;1673428510.7283368;47.1278687;7.2368109;101.37200164794922;1673428510.7174926;-24.007301330566406;17.33991050720215;-136.86398315429688
412;1673428510.9332857;47.127859099999995;7.2367979;101.75000762939453;1673428510.9244883;-24.0148868560791;17.245838165283203;-136.8675994873047
413;1673428511.1076078;47.1278492;7.2367843;102.14300537109375;1673428511.0968742;-23.963634490966797;17.351987838745117;-136.86114501953125
414;1673428511.3022914;47.127838999999994;7.236770099999999;102.55500793457031;1673428511.288627;-24.042070388793945;17.115327835083008;-136.8695831298828
415;1673428511.5008512;47.1278295;7.236757;102.93900299072266;1673428511.4900942;-24.040481567382812;17.19216537475586;-136.8706512451172
416;1673428511.6901994;47.1278195;7.2367434;103.34000396728516;1673428511.6810265;-24.026981353759766;17.24565887451172;-136.86370849609375
417;1673428511.8949366;47.1278096;7.2367298;103.74100494384766;1673428511.8832366;-24.185760498046875;17.172029495239258;-136.83189392089844
