;pos_time;latitude;longitude;altitude;alt_time;pitch;roll;yaw
0;1673429199.4523933;47.1306425;7.240619799999999;-0.0010000000474974513;1673429199.6161144;0.2033349871635437;-0.758579671382904;90.50341796875
1;1673429199.6961253;47.1306425;7.240619799999999;-0.009000000543892384;1673429199.8351064;0.1246710866689682;-0.5629407167434692;90.4980239868164
2;1673429199.8840182;47.1306425;7.2406197;-0.01100000087171793;1673429200.0260818;0.006490590516477823;0.08815959841012955;90.39007568359375
3;1673429200.0666485;47.1306425;7.240619799999999;-0.01600000075995922;1673429200.2048278;-0.12827157974243164;0.09423981606960297;90.44020080566406
4;1673429200.2479284;47.1306424;7.240619799999999;-0.021000001579523087;1673429200.414178;-0.02098822221159935;-0.16321559250354767;90.59117889404297
5;1673429200.459688;47.1306424;7.2406197;-0.027000000700354576;1673429200.6102338;0.08898011595010757;0.14377732574939728;90.40189361572266
6;1673429200.6548676;47.1306424;7.2406197;-0.02800000086426735;1673429200.7923281;-0.03562663495540619;-0.21290042996406555;90.59945678710938
7;1673429200.841695;47.1306424;7.240619799999999;-0.029000001028180122;1673429200.9880953;-0.18149307370185852;-0.004665369167923927;90.66665649414062
8;1673429201.040975;47.1306424;7.2406198999999996;-0.029000001028180122;1673429201.1741529;-0.20554684102535248;-0.09016179293394089;90.50933837890625
9;1673429201.2122796;47.1306424;7.240619799999999;-0.029000001028180122;1673429201.356062;-0.17802979052066803;-0.04613779857754707;90.4930419921875
10;1673429201.4000576;47.1306424;7.240619799999999;-0.030000001192092896;1673429201.55954;-0.2720796465873718;-0.10513388365507126;90.5142822265625
11;1673429201.6075091;47.1306424;7.240619799999999;-0.029000001028180122;1673429201.7716212;-0.2677393853664398;-0.0911668986082077;90.51660919189453
12;1673429201.8266122;47.1306424;7.240619799999999;-0.03100000135600567;1673429201.978972;-0.2476528286933899;-0.09297588467597961;90.44625854492188
13;1673429202.0202713;47.1306424;7.240619799999999;-0.03400000184774399;1673429202.180051;-0.19797319173812866;-0.16786327958106995;90.48263549804688
14;1673429202.2220285;47.1306425;7.2406198999999996;-0.03800000250339508;1673429202.3903332;-0.17681391537189484;0.444352388381958;90.65673065185547
15;1673429202.445781;47.1306424;7.24062;0.0;1673429202.5923016;-0.03930363059043884;1.3175263404846191;90.51738739013672
16;1673429202.6348917;47.1306424;7.2406201;-0.004000000189989805;1673429202.7879908;-0.11007450520992279;0.7384772300720215;90.66657257080078
17;1673429202.8380945;47.1306425;7.2406201999999995;-0.006000000052154064;1673429202.988041;-0.21475623548030853;0.9346901774406433;90.46402740478516
18;1673429203.0336797;47.1306425;7.2406201999999995;-0.00800000037997961;1673429203.19483;-0.17910321056842804;0.8287860751152039;90.80624389648438
19;1673429203.2320924;47.1306425;7.2406201999999995;-0.014000000432133675;1673429203.3696375;-0.2000773400068283;0.8677289485931396;90.65829467773438
20;1673429203.4087226;47.1306425;7.2406201;-0.01900000125169754;1673429203.5762343;-0.47193530201911926;1.6821917295455933;90.6158676147461
21;1673429203.6323292;47.1306425;7.2406201999999995;-0.020000001415610313;1673429203.7969015;-0.32690542936325073;1.4210830926895142;90.59258270263672
22;1673429203.843329;47.1306425;7.2406201999999995;0.0;1673429203.9933143;-0.5615026354789734;0.37361854314804077;90.4860610961914
23;1673429204.0324266;47.1306424;7.2406201999999995;0.0;1673429204.166957;-0.49694377183914185;-0.044438961893320084;90.76173400878906
24;1673429204.2242212;47.1306424;7.2406201999999995;0.0010000000474974513;1673429204.375757;-0.6659528017044067;0.28271692991256714;90.6500244140625
25;1673429204.453103;47.1306424;7.2406201999999995;0.005000000353902578;1673429204.6144633;-0.7390275001525879;0.5031270980834961;90.62269592285156
26;1673429204.6512933;47.1306424;7.2406201999999995;0.00800000037997961;1673429204.8197176;-0.6323950886726379;0.25969573855400085;90.65799713134766
27;1673429204.864635;47.1306423;7.2406201999999995;0.01100000087171793;1673429205.0287168;-0.8105167746543884;0.2524498403072357;90.74271392822266
28;1673429205.069018;47.1306422;7.2406201;0.012000000104308128;1673429205.2324865;-0.6569487452507019;0.2621857225894928;89.08271789550781
29;1673429205.2740743;47.1306419;7.2406201;0.014000000432133675;1673429205.4319978;-0.23189257085323334;0.23661209642887115;85.08465576171875
30;1673429205.4713442;47.130641399999995;7.2406204;0.015000000596046448;1673429205.6117263;0.6287203431129456;-1.2582658529281616;81.44672393798828
31;1673429205.6513176;47.1306405;7.240621;0.021000001579523087;1673429205.8037837;1.3849153518676758;-0.8526244759559631;88.03810119628906
32;1673429205.8481038;47.1306389;7.2406223;-0.0010000000474974513;1673429205.9973986;2.7319672107696533;-3.429931163787842;88.5848388671875
33;1673429206.0464365;47.1306365;7.2406244;0.003000000026077032;1673429206.1816611;4.478869915008545;-10.513428688049316;88.43885040283203
34;1673429206.220741;47.130633599999996;7.2406272;0.01900000125169754;1673429206.3712082;6.917563438415527;-12.701399803161621;88.71353149414062
35;1673429206.414977;47.1306301;7.2406307;0.04700000211596489;1673429206.5750792;8.06431770324707;-13.273146629333496;88.97578430175781
36;1673429206.6209974;47.130626299999996;7.2406345;0.08500000089406967;1673429206.7863252;9.227834701538086;-15.894977569580078;88.9227294921875
37;1673429206.8273213;47.1306225;7.2406386;0.13900001347064972;1673429206.9819398;10.415722846984863;-17.25905418395996;88.94522857666016
38;1673429207.0302906;47.1306186;7.2406428;0.20600001513957977;1673429207.1947744;11.79672622680664;-18.01398277282715;89.06112670898438
39;1673429207.2441576;47.130614699999995;7.2406469;0.27000001072883606;1673429207.3942416;13.180389404296875;-20.03485107421875;89.07247161865234
40;1673429207.4457338;47.130610999999995;7.240651;0.3270000219345093;1673429207.594296;14.533031463623047;-21.404272079467773;89.08330535888672
41;1673429207.6434925;47.130607499999996;7.2406549;0.3800000250339508;1673429207.7955508;15.974909782409668;-22.78360939025879;89.16555786132812
42;1673429207.8431892;47.1306042;7.240658499999999;0.4270000159740448;1673429207.9920087;17.49553680419922;-24.344646453857422;89.32090759277344
43;1673429208.0380554;47.130601299999995;7.2406618;0.4610000252723694;1673429208.1817298;19.037853240966797;-25.841697692871094;89.54512023925781
44;1673429208.226628;47.1305988;7.2406646;0.49000000953674316;1673429208.383914;20.709129333496094;-27.100317001342773;89.88349151611328
45;1673429208.4231606;47.1305967;7.2406669;0.5160000324249268;1673429208.5666754;22.432138442993164;-28.833999633789062;90.14297485351562
46;1673429208.609662;47.130595199999995;7.2406685;0.5390000343322754;1673429208.7583933;24.286405563354492;-30.036510467529297;90.62738800048828
47;1673429208.8019547;47.1305943;7.2406695;0.5600000023841858;1673429208.9551578;26.241615295410156;-31.3629093170166;91.12317657470703
48;1673429209.0052361;47.130593999999995;7.2406698;0.581000030040741;1673429209.2142546;28.328310012817383;-32.69158172607422;91.71945190429688
49;1673429209.2509866;47.1305944;7.2406694;0.6010000109672546;1673429209.3815005;30.512502670288086;-34.017066955566406;92.34288024902344
50;1673429209.4218674;47.1305955;7.2406681;0.6150000095367432;1673429209.5669463;32.84839630126953;-35.209232330322266;93.13768768310547
51;1673429209.6101394;47.1305975;7.240666;0.6300000548362732;1673429209.7599747;35.355018615722656;-36.19072341918945;94.09530639648438
52;1673429209.8050253;47.1306005;7.240662899999999;0.6450000405311584;1673429209.9581883;37.594825744628906;-36.156375885009766;95.48243713378906
53;1673429210.0092525;47.130604399999996;7.2406589;0.6610000133514404;1673429210.1757429;34.6778564453125;-32.334842681884766;97.68340301513672
54;1673429210.22003;47.1306091;7.240653999999999;0.6710000038146973;1673429210.3996058;30.75468635559082;-28.0117244720459;99.37055206298828
55;1673429210.4566996;47.1306142;7.2406486999999995;0.6730000376701355;1673429210.603182;26.058664321899414;-23.7368221282959;100.4842758178711
56;1673429210.6474123;47.1306193;7.2406434;0.6710000038146973;1673429210.8332956;20.39560890197754;-19.382699966430664;100.9375228881836
57;1673429210.8898194;47.1306242;7.2406383;0.6880000233650208;1673429211.0460021;18.36406898498535;-18.1088809967041;100.37124633789062
58;1673429211.0881715;47.130628599999994;7.2406337;0.7520000338554382;1673429211.227146;14.174251556396484;-14.80101203918457;100.50090789794922
59;1673429211.2682424;47.130632299999995;7.2406299;0.8190000653266907;1673429211.4252229;12.542641639709473;-13.41070556640625;100.42794036865234
60;1673429211.4740863;47.1306352;7.240627;0.8990000486373901;1673429211.635895;12.296210289001465;-14.61571979522705;99.93801879882812
61;1673429211.6818967;47.130637199999995;7.240624899999999;0.9860000610351562;1673429211.8339846;13.425498008728027;-14.8982572555542;99.93911743164062
62;1673429211.8755183;47.130638499999996;7.2406238;1.0850000381469727;1673429212.0186105;14.896824836730957;-14.527968406677246;100.37755584716797
63;1673429212.0621667;47.1306392;7.2406232;1.1980000734329224;1673429212.2053022;17.14083480834961;-18.00413703918457;99.88865661621094
64;1673429212.2475195;47.1306395;7.2406232;1.3200000524520874;1673429212.3869622;19.100435256958008;-19.980792999267578;99.68329620361328
65;1673429212.4330037;47.1306395;7.240623299999999;1.4540001153945923;1673429212.5864718;20.67420196533203;-19.178613662719727;100.05865478515625
66;1673429212.6313791;47.1306394;7.240623299999999;1.599000096321106;1673429212.7663856;20.299909591674805;-22.661779403686523;94.60981750488281
67;1673429212.8083365;47.1306394;7.2406234;1.749000072479248;1673429212.9638126;20.86644744873047;-23.096094131469727;94.41558837890625
68;1673429213.0088131;47.1306395;7.2406234;1.9140000343322754;1673429213.172344;21.525226593017578;-20.923080444335938;94.72190856933594
69;1673429213.216348;47.1306398;7.240623299999999;2.0920000076293945;1673429213.3743255;21.438438415527344;-21.595458984375;94.64340209960938
70;1673429213.4163435;47.130640199999995;7.2406231;2.2850000858306885;1673429213.5637136;21.217609405517578;-21.413461685180664;94.63138580322266
71;1673429213.607752;47.1306405;7.2406228;2.4770002365112305;1673429213.7596447;20.873619079589844;-19.240766525268555;95.11380767822266
72;1673429213.8066313;47.130640799999995;7.2406225;2.6690001487731934;1673429213.9626281;20.478897094726562;-19.888172149658203;95.09352111816406
73;1673429214.009476;47.1306411;7.2406220999999995;2.8570001125335693;1673429214.163829;20.238067626953125;-20.463808059692383;94.82854461669922
74;1673429214.2078214;47.130641499999996;7.240621699999999;3.0470001697540283;1673429214.374691;19.832304000854492;-18.160173416137695;95.28238677978516
75;1673429214.4159763;47.1306417;7.240621399999999;3.2360000610351562;1673429214.5875177;19.460844039916992;-19.29768943786621;95.18523406982422
76;1673429214.6323984;47.1306419;7.240621;3.4280002117156982;1673429214.7938092;19.40862274169922;-20.993778228759766;94.8138427734375
77;1673429214.8435962;47.1306419;7.2406207;3.621000289916992;1673429215.0394483;19.222986221313477;-19.06169319152832;95.33396911621094
78;1673429215.0805547;47.1306418;7.2406204999999995;3.812000274658203;1673429215.2389114;19.105897903442383;-20.20961570739746;95.20947265625
79;1673429215.2800982;47.1306417;7.2406203;4.00100040435791;1673429215.5197008;19.33562660217285;-21.705610275268555;94.8886489868164
80;1673429215.5470383;47.1306417;7.2406201999999995;4.189000129699707;1673429215.6826775;19.3964900970459;-20.23138427734375;95.13324737548828
81;1673429215.717017;47.1306417;7.2406201999999995;4.379000186920166;1673429215.8605402;19.64302635192871;-20.028806686401367;95.22046661376953
82;1673429215.899587;47.1306418;7.2406201999999995;4.571000099182129;1673429216.043914;19.703014373779297;-21.768634796142578;94.84403228759766
83;1673429216.083676;47.1306418;7.2406203;4.764000415802002;1673429216.2473452;19.90005874633789;-20.19880485534668;95.09760284423828
84;1673429216.2853801;47.1306418;7.2406204;4.959000110626221;1673429216.425127;20.011999130249023;-19.930482864379883;95.34455108642578
85;1673429216.4648361;47.1306418;7.2406204;5.151000022888184;1673429216.638845;20.062862396240234;-21.866647720336914;94.89250183105469
86;1673429216.689162;47.1306418;7.2406204;5.3460001945495605;1673429216.8382218;20.027435302734375;-19.979080200195312;95.15835571289062
87;1673429216.8843865;47.1306419;7.2406204999999995;5.5360002517700195;1673429217.02468;20.020998001098633;-19.630002975463867;95.23445129394531
88;1673429217.064679;47.1306419;7.2406204;5.7270002365112305;1673429217.2079527;20.046035766601562;-21.43074607849121;94.76300048828125
89;1673429217.248953;47.130641999999995;7.2406204999999995;5.918000221252441;1673429217.4038959;20.07036018371582;-19.93461036682129;95.10037994384766
90;1673429217.4497983;47.130642099999996;7.2406204999999995;6.109000205993652;1673429217.6107914;19.926748275756836;-19.377779006958008;95.27100372314453
91;1673429217.6668777;47.130642099999996;7.2406204999999995;6.298000335693359;1673429217.8228261;19.939044952392578;-21.408475875854492;94.79891967773438
92;1673429217.873197;47.1306422;7.2406204999999995;6.491000175476074;1673429218.0234902;19.980880737304688;-20.275968551635742;94.99171447753906
93;1673429218.067589;47.1306422;7.2406204;6.684000492095947;1673429218.218958;19.94807243347168;-19.15129852294922;95.17418670654297
94;1673429218.259123;47.1306422;7.2406203;6.879000186920166;1673429218.4530728;19.77790641784668;-21.159587860107422;94.93592834472656
95;1673429218.490838;47.1306422;7.2406203;7.072000503540039;1673429218.6547937;19.839397430419922;-20.587743759155273;95.03687286376953
96;1673429218.6949322;47.1306422;7.2406201999999995;7.264000415802002;1673429218.8686996;19.764860153198242;-19.235130310058594;95.27814483642578
97;1673429218.910667;47.1306422;7.2406201;7.455000400543213;1673429219.0511029;19.738624572753906;-21.013059616088867;94.97206115722656
98;1673429219.087898;47.1306422;7.2406201;7.648000240325928;1673429219.248526;19.758037567138672;-20.654483795166016;95.02838897705078
99;1673429219.284329;47.1306423;7.24062;7.840000152587891;1673429219.4283316;19.661958694458008;-19.27391815185547;95.26329803466797
100;1673429219.4792428;47.1306422;7.24062;8.039000511169434;1673429219.6322827;19.897207260131836;-20.71480941772461;95.00305938720703
101;1673429219.6737196;47.1306422;7.24062;8.235000610351562;1673429219.8224747;19.764156341552734;-21.215795516967773;94.89073181152344
102;1673429219.8776352;47.1306422;7.24062;8.433000564575195;1673429220.020309;19.7634220123291;-19.229894638061523;95.34103393554688
103;1673429220.0652578;47.1306422;7.24062;8.63700008392334;1673429220.2150471;19.794910430908203;-20.39543342590332;95.10604858398438
104;1673429220.2596555;47.1306422;7.24062;8.8410005569458;1673429220.419549;19.78340721130371;-21.20894432067871;94.86109924316406
105;1673429220.4646204;47.1306423;7.2406198999999996;9.044000625610352;1673429220.6197202;19.73468017578125;-19.042917251586914;95.25466918945312
106;1673429220.6618867;47.1306423;7.2406198999999996;9.245000839233398;1673429220.8070655;19.575031280517578;-20.246339797973633;95.06623840332031
107;1673429220.8503995;47.1306423;7.2406198999999996;9.450000762939453;1673429221.012746;19.627391815185547;-21.38863754272461;94.80848693847656
108;1673429221.0587041;47.1306423;7.2406198999999996;9.652000427246094;1673429221.2203176;19.755207061767578;-19.312822341918945;95.16222381591797
109;1673429221.2635617;47.1306423;7.2406198999999996;9.858000755310059;1673429221.4435358;19.662189483642578;-20.259645462036133;95.10347747802734
110;1673429221.4894533;47.1306423;7.2406198999999996;10.069000244140625;1673429221.6424723;19.516000747680664;-20.271947860717773;94.95655059814453
111;1673429221.6840165;47.1306423;7.240619799999999;10.324000358581543;1673429221.8319278;19.43181800842285;-19.147090911865234;95.08594512939453
112;1673429221.8734877;47.1306425;7.2406196;10.697000503540039;1673429222.0313733;20.09393882751465;-21.455263137817383;95.16564178466797
113;1673429222.0698037;47.130642699999996;7.2406194;11.098000526428223;1673429222.2122152;19.055892944335938;-20.645246505737305;94.95307159423828
114;1673429222.2582579;47.130643;7.2406191;11.499000549316406;1673429222.4161358;18.411535263061523;-18.69846534729004;95.05677032470703
115;1673429222.4703133;47.130643299999996;7.2406188;11.907000541687012;1673429222.6068425;18.23216438293457;-18.3277587890625;95.05253601074219
116;1673429222.647019;47.1306435;7.2406185999999995;12.314000129699707;1673429222.806372;18.030202865600586;-19.501630783081055;94.6849594116211
117;1673429222.8495708;47.1306437;7.2406185;12.725000381469727;1673429223.0117364;18.067319869995117;-17.928495407104492;95.07547760009766
118;1673429223.0601206;47.1306437;7.2406185;13.136000633239746;1673429223.204035;18.256101608276367;-18.14423942565918;95.14714050292969
119;1673429223.2469811;47.1306436;7.2406185;13.550000190734863;1673429223.3961732;18.53844451904297;-20.229511260986328;94.8274154663086
120;1673429223.4395554;47.1306435;7.2406185999999995;13.964000701904297;1673429223.590429;18.59593391418457;-18.975238800048828;95.09324645996094
121;1673429223.6354673;47.130643299999996;7.2406187;14.36600112915039;1673429223.7988567;18.95243263244629;-19.038537979125977;95.1970443725586
122;1673429223.8627026;47.130643199999994;7.240618899999999;14.772000312805176;1673429224.0217812;19.0808162689209;-20.881723403930664;94.90989685058594
123;1673429224.0717652;47.1306431;7.240619;15.17500114440918;1673429224.2109466;19.207965850830078;-20.07007598876953;95.07953643798828
124;1673429224.252926;47.1306429;7.2406191;15.579000473022461;1673429224.401188;19.189678192138672;-18.945463180541992;95.2057113647461
125;1673429224.4424012;47.1306429;7.240619199999999;15.986001014709473;1673429224.5907886;19.18779754638672;-20.92282485961914;94.91116333007812
126;1673429224.6356936;47.1306428;7.240619199999999;16.392000198364258;1673429224.786418;19.260578155517578;-19.889631271362305;95.01815032958984
127;1673429224.8313792;47.1306429;7.2406193;16.790000915527344;1673429224.9901323;19.26310920715332;-18.677711486816406;95.24310302734375
128;1673429225.03616;47.1306429;7.2406193;17.192001342773438;1673429225.1881368;19.209178924560547;-20.212358474731445;94.94188690185547
129;1673429225.2322507;47.130643;7.2406194;17.599000930786133;1673429225.391026;19.059598922729492;-19.776227951049805;95.01824951171875
130;1673429225.4350915;47.130643;7.2406193;18.006000518798828;1673429225.5937574;18.90175437927246;-18.607934951782227;95.28367614746094
131;1673429225.643562;47.1306429;7.2406193;18.41200065612793;1673429225.8107467;18.991098403930664;-19.92487335205078;94.97831726074219
132;1673429225.8577545;47.1306429;7.2406193;18.81599998474121;1673429226.0152547;18.90247344970703;-20.039539337158203;94.91325378417969
133;1673429226.0545466;47.1306429;7.2406193;19.21700096130371;1673429226.2160387;18.970542907714844;-18.382843017578125;95.22818756103516
134;1673429226.25721;47.1306429;7.2406193;19.612001419067383;1673429226.4175155;18.967758178710938;-19.81296157836914;95.00188446044922
135;1673429226.4567552;47.1306429;7.2406194;20.01500129699707;1673429226.6151273;19.184350967407227;-20.182016372680664;94.9366455078125
136;1673429226.6586444;47.1306428;7.240619499999999;20.421001434326172;1673429226.813669;18.915544509887695;-18.554454803466797;95.26516723632812
137;1673429226.857663;47.1306428;7.240619499999999;20.823001861572266;1673429227.0175953;19.176734924316406;-20.070838928222656;94.99441528320312
138;1673429227.0644488;47.130642699999996;7.2406196;21.22800064086914;1673429227.2208843;19.332468032836914;-20.403291702270508;94.9065933227539
139;1673429227.262858;47.130642699999996;7.2406196;21.62900161743164;1673429227.4194498;19.11000633239746;-18.696922302246094;95.18706512451172
140;1673429227.4639523;47.130642699999996;7.2406197;22.023000717163086;1673429227.6333313;19.25473403930664;-19.547460556030273;95.04497528076172
141;1673429227.6769855;47.130642699999996;7.2406197;22.421001434326172;1673429227.8315537;19.0665225982666;-20.48032569885254;94.91635131835938
142;1673429227.8727138;47.130642699999996;7.2406197;22.823001861572266;1673429228.0187917;19.157299041748047;-18.65473747253418;95.23743438720703
143;1673429228.0638008;47.130642599999995;7.2406197;23.225000381469727;1673429228.2148066;19.03301429748535;-19.64442253112793;95.1063461303711
144;1673429228.2600992;47.130642599999995;7.2406196;23.63300132751465;1673429228.4121974;19.051450729370117;-20.641679763793945;94.90371704101562
145;1673429228.4566588;47.130642699999996;7.2406197;24.040000915527344;1673429228.6199708;19.029394149780273;-18.71763038635254;95.16741180419922
146;1673429228.6651154;47.130642599999995;7.2406197;24.44900131225586;1673429228.8195136;19.079164505004883;-19.360626220703125;95.10049438476562
147;1673429228.863733;47.130642599999995;7.2406197;24.847002029418945;1673429229.0206797;19.116758346557617;-20.503734588623047;94.83313751220703
148;1673429229.0666447;47.130642599999995;7.2406197;25.251001358032227;1673429229.2178369;19.144887924194336;-18.935712814331055;95.2529296875
149;1673429229.2637184;47.1306425;7.240619799999999;25.655000686645508;1673429229.4184902;19.19414520263672;-19.586610794067383;95.18209838867188
150;1673429229.4619503;47.1306425;7.2406198999999996;26.0570011138916;1673429229.6029375;19.161882400512695;-20.789949417114258;94.93001556396484
151;1673429229.645418;47.1306425;7.2406198999999996;26.459001541137695;1673429229.7955737;19.27721405029297;-19.244407653808594;95.16120910644531
152;1673429229.8562887;47.1306425;7.2406198999999996;26.865001678466797;1673429230.0111012;19.24214744567871;-19.253032684326172;95.11549377441406
153;1673429230.05723;47.1306425;7.2406198999999996;27.26000213623047;1673429230.216254;19.2154598236084;-20.789756774902344;94.84797668457031
154;1673429230.2605448;47.130642599999995;7.2406198999999996;27.663002014160156;1673429230.4146044;19.134714126586914;-19.07241439819336;95.19428253173828
155;1673429230.4615078;47.130642599999995;7.2406198999999996;28.066001892089844;1673429230.6519015;19.09305763244629;-19.018075942993164;95.17193603515625
156;1673429230.6919599;47.130642599999995;7.2406198999999996;28.470001220703125;1673429230.8480694;19.22853660583496;-20.38179588317871;94.87505340576172
157;1673429230.8823261;47.130642699999996;7.2406198999999996;28.875001907348633;1673429231.023445;19.174104690551758;-18.758079528808594;95.16921997070312
158;1673429231.0683515;47.1306428;7.24062;29.279001235961914;1673429231.2177382;19.171695709228516;-18.896799087524414;95.16802215576172
159;1673429231.2588043;47.1306428;7.24062;29.683000564575195;1673429231.4117746;19.221656799316406;-20.491573333740234;94.88105010986328
160;1673429231.4572515;47.130642699999996;7.24062;30.075000762939453;1673429231.6067712;19.030202865600586;-19.280643463134766;95.06746673583984
161;1673429231.6470797;47.130642699999996;7.2406198999999996;30.47300148010254;1673429231.7943094;19.081085205078125;-18.94927406311035;95.17314910888672
162;1673429231.8403363;47.130642699999996;7.2406198999999996;30.876001358032227;1673429231.9962924;19.171894073486328;-20.446426391601562;94.87844848632812
163;1673429232.0384684;47.1306428;7.2406198999999996;31.27800178527832;1673429232.2055044;19.082000732421875;-19.215534210205078;95.1349868774414
164;1673429232.2505958;47.1306428;7.240619799999999;31.68600082397461;1673429232.4123218;19.032329559326172;-18.52912139892578;95.24308013916016
165;1673429232.4604473;47.1306428;7.240619799999999;32.0890007019043;1673429232.611041;18.966978073120117;-20.522506713867188;94.89909362792969
166;1673429232.656914;47.130642699999996;7.240619799999999;32.479000091552734;1673429232.8108287;19.11330223083496;-19.638919830322266;94.99852752685547
167;1673429232.8606033;47.130642699999996;7.240619799999999;32.87700271606445;1673429233.0155675;19.048213958740234;-18.713441848754883;95.2411117553711
168;1673429233.0564725;47.130642699999996;7.240619799999999;33.277000427246094;1673429233.2279696;19.18341636657715;-20.11750030517578;94.99893951416016
169;1673429233.281631;47.1306428;7.240619799999999;33.678001403808594;1673429233.4493814;18.96870231628418;-19.70873260498047;95.03618621826172
170;1673429233.4929411;47.1306428;7.240619799999999;34.08100128173828;1673429233.6726868;19.005413055419922;-18.409006118774414;95.29618072509766
171;1673429233.7148595;47.1306428;7.2406197;34.486000061035156;1673429233.8797312;18.966697692871094;-20.136587142944336;94.89635467529297
172;1673429233.9380808;47.1306428;7.2406197;34.89200210571289;1673429234.083951;19.103580474853516;-20.177017211914062;94.86493682861328
173;1673429234.1151853;47.1306428;7.2406197;35.28600311279297;1673429234.2401342;18.929868698120117;-18.389829635620117;95.2632827758789
174;1673429234.2791934;47.1306428;7.2406197;35.6870002746582;1673429234.4215844;18.99880599975586;-19.83650779724121;95.04823303222656
175;1673429234.459391;47.1306428;7.2406197;36.0890007019043;1673429234.606241;19.02731704711914;-19.980791091918945;94.98757934570312
176;1673429234.6512938;47.1306428;7.2406197;36.49400329589844;1673429234.8004787;18.95368766784668;-18.4769287109375;95.28575897216797
177;1673429234.8454232;47.1306428;7.2406197;36.897003173828125;1673429234.9952958;18.877634048461914;-19.897052764892578;95.01964569091797
178;1673429235.0437865;47.1306428;7.2406197;37.29900360107422;1673429235.196602;18.994873046875;-20.24774169921875;94.87875366210938
179;1673429235.2414975;47.130642699999996;7.2406197;37.691001892089844;1673429235.393356;18.854053497314453;-18.598905563354492;95.18981170654297
180;1673429235.4367478;47.130642699999996;7.2406197;38.08700180053711;1673429235.6140945;19.09458351135254;-19.717899322509766;94.98727416992188
181;1673429235.6567476;47.1306428;7.2406197;38.4890022277832;1673429235.807584;18.989696502685547;-20.394346237182617;94.89349365234375
182;1673429235.849724;47.1306428;7.2406197;38.88900375366211;1673429236.005038;18.99173355102539;-18.54766273498535;95.21098327636719
183;1673429236.0519278;47.130642699999996;7.240619799999999;39.29300308227539;1673429236.2153914;19.01606559753418;-19.477298736572266;95.02510070800781
184;1673429236.2604868;47.130642699999996;7.240619799999999;39.69900131225586;1673429236.4274173;19.079021453857422;-20.538806915283203;94.82427215576172
185;1673429236.4724743;47.130642699999996;7.240619799999999;40.099002838134766;1673429236.6330075;19.035472869873047;-18.490863800048828;95.25103759765625
186;1673429236.6770756;47.1306428;7.240619799999999;40.4890022277832;1673429236.831643;19.03111457824707;-19.30889320373535;95.08760070800781
187;1673429236.8745887;47.1306428;7.240619799999999;40.884002685546875;1673429237.0614598;18.992712020874023;-20.296342849731445;94.92972564697266
188;1673429237.1041248;47.130642699999996;7.240619799999999;41.288002014160156;1673429237.2474325;19.045717239379883;-18.64159393310547;95.20368194580078
189;1673429237.2882192;47.130642699999996;7.2406198999999996;41.694000244140625;1673429237.4347498;19.015853881835938;-19.339170455932617;95.11375427246094
190;1673429237.4793227;47.130642699999996;7.2406198999999996;42.10300064086914;1673429237.6267588;19.04568862915039;-20.5736083984375;94.85924530029297
191;1673429237.6716392;47.130642699999996;7.2406198999999996;42.51000213623047;1673429237.8353357;18.96760368347168;-18.86712646484375;95.16928100585938
192;1673429237.8963513;47.130642699999996;7.2406198999999996;42.90400314331055;1673429238.0640674;18.976604461669922;-18.989770889282227;95.1951904296875
193;1673429238.1351678;47.130642699999996;7.240619799999999;43.303001403808594;1673429238.313503;19.05502700805664;-20.516427993774414;94.86410522460938
194;1673429238.3554585;47.130642699999996;7.2406198999999996;43.70500183105469;1673429238.470809;19.037830352783203;-19.13785743713379;95.07293701171875
195;1673429238.5055554;47.130642699999996;7.240619799999999;44.108001708984375;1673429238.635189;18.867202758789062;-19.071786880493164;95.16019439697266
196;1673429238.6753228;47.130642599999995;7.240619799999999;44.512001037597656;1673429238.8105946;18.97861671447754;-20.439590454101562;94.87370300292969
197;1673429238.8702133;47.130642699999996;7.240619799999999;44.9170036315918;1673429239.019411;18.95099449157715;-19.153030395507812;95.08834838867188
198;1673429239.0695539;47.130642599999995;7.240619799999999;45.31800079345703;1673429239.2242632;18.96531105041504;-18.63339614868164;95.25213623046875
199;1673429239.279823;47.130642599999995;7.240619799999999;45.708003997802734;1673429239.4354155;19.073925018310547;-20.388761520385742;94.94205474853516
200;1673429239.4798887;47.130642599999995;7.2406198999999996;46.108001708984375;1673429239.6400347;19.01163101196289;-19.582963943481445;95.0279312133789
201;1673429239.6842618;47.130642599999995;7.2406198999999996;46.51300048828125;1673429239.8268235;19.066017150878906;-18.423152923583984;95.20703887939453
202;1673429239.872783;47.1306425;7.2406198999999996;46.91400146484375;1673429240.0224895;18.9946346282959;-20.400556564331055;94.87779235839844
203;1673429240.0754094;47.1306425;7.240619799999999;47.31800079345703;1673429240.226234;19.024381637573242;-19.595426559448242;95.02992248535156
204;1673429240.2642975;47.1306425;7.240619799999999;47.71800231933594;1673429240.4352145;19.01287841796875;-18.225101470947266;95.27784729003906
205;1673429240.485194;47.1306425;7.240619799999999;48.10400390625;1673429240.6717591;19.117822647094727;-20.787395477294922;94.73104858398438
206;1673429240.7129085;47.1306424;7.2406198999999996;48.45500183105469;1673429240.8460748;19.241416931152344;-19.820865631103516;95.05445098876953
207;1673429240.8809228;47.1306422;7.24062;48.75800323486328;1673429241.0145166;19.267824172973633;-19.3198299407959;95.15850830078125
208;1673429241.0545177;47.130641999999995;7.2406201999999995;49.0160026550293;1673429241.207104;19.785287857055664;-20.9797306060791;94.87918090820312
209;1673429241.2501118;47.1306418;7.2406204;49.23800277709961;1673429241.397287;23.22942352294922;-16.564498901367188;95.76890563964844
210;1673429241.4412105;47.130641399999995;7.2406207;49.41800308227539;1673429241.6142418;37.513206481933594;9.329268455505371;105.43097686767578
211;1673429241.663479;47.1306406;7.2406201;49.5780029296875;1673429241.8195734;42.2254524230957;33.018592834472656;117.30178833007812
212;1673429241.8683724;47.1306382;7.2406172;49.70900344848633;1673429242.0349574;40.744598388671875;47.13215637207031;123.7962417602539
213;1673429242.0824802;47.1306334;7.2406109;49.814002990722656;1673429242.2270327;30.077678680419922;49.68711853027344;128.96133422851562
214;1673429242.2681396;47.1306261;7.2406014999999995;49.85400390625;1673429242.4170454;12.072394371032715;44.444725036621094;142.20657348632812
215;1673429242.457679;47.1306168;7.2405899;49.871002197265625;1673429242.6262517;-6.401516437530518;48.70471954345703;157.6163330078125
216;1673429242.673618;47.1306058;7.2405764999999995;49.91400146484375;1673429242.8483133;-27.102436065673828;45.9781608581543;171.21839904785156
217;1673429242.8942995;47.1305931;7.2405614;49.945003509521484;1673429243.0322604;-38.91590881347656;43.77109909057617;-178.3488006591797
218;1673429243.0754468;47.1305785;7.240545099999999;49.961002349853516;1673429243.2296388;-46.09269332885742;40.223140716552734;-169.15020751953125
219;1673429243.2722998;47.1305623;7.2405269;49.961002349853516;1673429243.427387;-47.52860641479492;33.55393600463867;-157.49591064453125
220;1673429243.4767263;47.130544699999994;7.2405069;49.94400405883789;1673429243.6824038;-47.82184982299805;27.15890884399414;-148.13035583496094
221;1673429243.7244275;47.1305263;7.240485499999999;49.90300369262695;1673429243.8627367;-43.84087371826172;22.310575485229492;-143.01010131835938
222;1673429243.907353;47.1305073;7.2404633;49.8380012512207;1673429244.0584524;-44.23871612548828;19.781524658203125;-137.8379364013672
223;1673429244.1007445;47.130488;7.2404405999999994;49.77800369262695;1673429244.2449725;-46.95740509033203;16.05613899230957;-130.5025177001953
224;1673429244.2881932;47.1304685;7.2404174;49.73100280761719;1673429244.437284;-44.96778106689453;11.721504211425781;-126.63133239746094
225;1673429244.475103;47.1304491;7.2403941;49.677001953125;1673429244.6241615;-37.64876937866211;10.49136734008789;-130.2887725830078
226;1673429244.6729617;47.1304296;7.240370899999999;49.62300109863281;1673429244.8583524;-38.198665618896484;12.329221725463867;-133.46163940429688
227;1673429244.9065201;47.13041;7.2403483;49.59400177001953;1673429245.0546057;-44.83137130737305;15.756832122802734;-134.43551635742188
228;1673429245.0947905;47.130390299999995;7.240325899999999;49.59700393676758;1673429245.2553554;-48.322593688964844;18.07840347290039;-134.1972198486328
229;1673429245.3363638;47.1303704;7.2403033;49.62000274658203;1673429245.4904351;-47.756744384765625;21.100645065307617;-128.39242553710938
230;1673429245.5334601;47.1303507;7.2402799;49.650001525878906;1673429245.6862414;-45.815670013427734;16.08629608154297;-117.0145492553711
231;1673429245.7277894;47.1303317;7.240256;49.663002014160156;1673429245.8719208;-42.28008270263672;11.03205680847168;-107.14717102050781
232;1673429245.9095757;47.1303134;7.2402318999999995;49.68300247192383;1673429246.0507112;-40.836856842041016;9.629385948181152;-98.7605209350586
233;1673429246.0986578;47.130296099999995;7.2402079;49.70100402832031;1673429246.2356153;-38.229732513427734;13.509878158569336;-89.8499526977539
234;1673429246.2774167;47.1302799;7.2401843999999995;49.717002868652344;1673429246.4332445;-34.91139602661133;18.757753372192383;-80.19401550292969
235;1673429246.4808016;47.1302656;7.2401618;49.730003356933594;1673429246.6358752;-30.50136947631836;30.40914535522461;-71.91264343261719
236;1673429246.6744492;47.130253599999996;7.2401409999999995;49.74800109863281;1673429246.8206518;-22.982860565185547;30.83509635925293;-57.24272918701172
237;1673429246.8679137;47.1302441;7.240123499999999;49.775001525878906;1673429247.044727;-16.675626754760742;26.657085418701172;-56.62969970703125
238;1673429247.0932457;47.1302368;7.2401098;49.77300262451172;1673429247.2641273;-5.561946868896484;26.59214973449707;-74.28713989257812
239;1673429247.305745;47.130230999999995;7.2400996;49.79600143432617;1673429247.521462;3.029411554336548;39.746944427490234;-91.13908386230469
240;1673429247.5547369;47.130226799999996;7.240092799999999;49.88100051879883;1673429247.6822994;-1.5522990226745605;41.55998611450195;-104.7138671875
241;1673429247.7239542;47.130224399999996;7.2400888;50.00600051879883;1673429247.8802364;-28.397422790527344;34.130916595458984;-117.33186340332031
242;1673429247.9169087;47.130223199999996;7.2400853;50.12000274658203;1673429248.05019;-55.984580993652344;11.711195945739746;-124.23218536376953
243;1673429248.0930939;47.130221299999995;7.2400799;50.19000244140625;1673429248.2446628;-57.50078582763672;3.49208664894104;-131.17066955566406
244;1673429248.2924685;47.1302162;7.2400709999999995;50.2030029296875;1673429248.4519615;-47.88620376586914;3.868303060531616;-139.59805297851562
245;1673429248.495458;47.1302083;7.2400607;50.19200134277344;1673429248.6388233;-51.045536041259766;11.313061714172363;-141.58518981933594
246;1673429248.680929;47.1301975;7.2400495;50.191001892089844;1673429248.8267064;-53.676578521728516;13.368422508239746;-136.1621551513672
247;1673429248.8687048;47.130184299999996;7.2400367999999995;50.21200180053711;1673429249.0323734;-54.46519088745117;15.752174377441406;-132.69931030273438
248;1673429249.0838604;47.1301693;7.2400218;50.24100112915039;1673429249.2753544;-54.63737869262695;17.561691284179688;-131.84564208984375
249;1673429249.3122761;47.1301531;7.2400046;50.25300216674805;1673429249.5107942;-52.38695526123047;16.84393882751465;-127.22103881835938
250;1673429249.560081;47.130136099999994;7.239985399999999;50.255001068115234;1673429249.7581427;-52.58977508544922;14.713397979736328;-117.56063842773438
251;1673429249.7885997;47.1301188;7.2399643;50.246002197265625;1673429249.910058;-52.418399810791016;8.04490852355957;-108.02908325195312
252;1673429249.9497964;47.1301018;7.239941699999999;50.230003356933594;1673429250.0831115;-49.61469650268555;1.1917263269424438;-99.60981750488281
253;1673429250.1287036;47.130085099999995;7.2399181;50.207000732421875;1673429250.2750714;-46.46544647216797;-5.881972312927246;-90.53699493408203
254;1673429250.3205276;47.130068699999995;7.239893899999999;50.17500305175781;1673429250.4631226;-43.45511245727539;-10.454294204711914;-82.64312744140625
255;1673429250.4993277;47.1300525;7.239869499999999;50.134002685546875;1673429250.6385396;-37.744503021240234;-12.215725898742676;-73.50578308105469
256;1673429250.6787004;47.1300367;7.2398451999999995;50.083003997802734;1673429250.8454084;-33.163116455078125;-11.631885528564453;-63.6589241027832
257;1673429250.8984938;47.1300214;7.2398215;50.02000427246094;1673429251.0664876;-34.58642578125;-10.29254150390625;-54.29380416870117
258;1673429251.1112468;47.1300071;7.2397988;49.97900390625;1673429251.2708378;-43.01987838745117;-14.70655632019043;-53.58485794067383
259;1673429251.3110662;47.129993999999996;7.2397766;49.96000289916992;1673429251.4587376;-43.907875061035156;-8.81472396850586;-71.21715545654297
260;1673429251.501683;47.129982;7.2397542999999995;49.97300338745117;1673429251.63965;-43.713993072509766;-1.12019681930542;-87.46513366699219
261;1673429251.6813295;47.1299704;7.2397317;50.02300262451172;1673429251.8352947;-43.239131927490234;-5.373117446899414;-94.13861083984375
262;1673429251.8843422;47.1299589;7.2397091;50.083003997802734;1673429252.0552201;-50.559993743896484;-15.680692672729492;-99.95848846435547
263;1673429252.1010952;47.1299467;7.2396866;50.1140022277832;1673429252.2467082;-51.25490188598633;-13.414107322692871;-114.30156707763672
264;1673429252.2925794;47.1299327;7.2396641;50.09300231933594;1673429252.4537747;-44.923126220703125;-10.732555389404297;-124.62266540527344
265;1673429252.499529;47.1299168;7.2396423;50.057003021240234;1673429252.6550012;-38.557186126708984;-4.0491862297058105;-132.92385864257812
266;1673429252.7019835;47.1298993;7.2396218999999995;50.02300262451172;1673429252.8515155;-41.18037414550781;4.8522162437438965;-139.5456085205078
267;1673429252.892507;47.1298806;7.2396027;50.00800323486328;1673429253.052451;-47.09580993652344;14.841764450073242;-142.27284240722656
268;1673429253.105336;47.1298609;7.2395838999999995;50.03000259399414;1673429253.2609253;-51.119834899902344;21.592573165893555;-138.67298889160156
269;1673429253.307471;47.1298404;7.2395644;50.07500076293945;1673429253.491946;-51.52256774902344;25.466487884521484;-135.17807006835938
270;1673429253.543962;47.1298197;7.239543299999999;50.09700393676758;1673429253.6975207;-47.80952072143555;21.838603973388672;-132.247314453125
271;1673429253.747996;47.129799299999995;7.2395209;50.10600280761719;1673429253.884521;-46.35114669799805;21.486251831054688;-125.78683471679688
272;1673429253.9287486;47.1297795;7.2394975;50.09700393676758;1673429254.0752583;-44.12429428100586;15.456273078918457;-114.70683288574219
273;1673429254.1194108;47.129760399999995;7.2394735;50.082000732421875;1673429254.2821133;-43.00577163696289;10.439270973205566;-105.24549102783203
274;1673429254.3254104;47.1297423;7.2394494;50.070003509521484;1673429254.503236;-42.8572883605957;8.057866096496582;-96.79220581054688
275;1673429254.5442798;47.129725099999995;7.2394251999999994;50.04900360107422;1673429254.715508;-40.60356903076172;11.009847640991211;-88.23771667480469
276;1673429254.755594;47.1297091;7.2394012;50.02400207519531;1673429254.9371705;-36.891563415527344;17.463134765625;-78.36531066894531
277;1673429254.9752614;47.1296949;7.2393781;49.98500061035156;1673429255.137501;-32.33728790283203;25.82750129699707;-69.00105285644531
278;1673429255.172637;47.1296829;7.2393566;49.957000732421875;1673429255.3215256;-30.148727416992188;21.399276733398438;-58.913944244384766
279;1673429255.3634944;47.1296733;7.2393377;49.93000411987305;1673429255.5125363;-28.634428024291992;22.966222763061523;-64.04440307617188
280;1673429255.556133;47.1296659;7.2393215;49.90800094604492;1673429255.7074685;-29.09026336669922;23.07611846923828;-81.08405303955078
281;1673429255.7569106;47.1296602;7.2393073999999995;49.93700408935547;1673429255.907823;-45.31690216064453;21.869121551513672;-96.66352844238281
282;1673429255.9534416;47.129655799999995;7.239293699999999;50.02400207519531;1673429256.1026757;-50.002628326416016;3.6700990200042725;-104.98408508300781
283;1673429256.144045;47.1296515;7.239278499999999;50.0890007019043;1673429256.3011448;-56.79924392700195;-10.627334594726562;-113.01634216308594
284;1673429256.3453553;47.1296454;7.239262;50.11900329589844;1673429256.491345;-50.50909423828125;-7.583787441253662;-129.0938720703125
285;1673429256.5315478;47.1296363;7.2392448;50.108001708984375;1673429256.6761756;-45.78895568847656;-6.019813537597656;-134.51593017578125
286;1673429256.7201407;47.1296244;7.2392281;50.083003997802734;1673429256.8712764;-43.4384880065918;0.8355523347854614;-139.7321319580078
287;1673429256.9153333;47.12961;7.2392122;50.082000732421875;1673429257.0684009;-50.959251403808594;12.664192199707031;-140.30027770996094
288;1673429257.1116004;47.1295937;7.2391963;50.10700225830078;1673429257.276044;-54.01081848144531;16.91876792907715;-135.7513427734375
289;1673429257.3243072;47.1295759;7.2391793;50.1400032043457;1673429257.470802;-53.12408447265625;18.258140563964844;-132.7815704345703
290;1673429257.5217202;47.1295571;7.2391602;50.15900421142578;1673429257.6659167;-51.78989791870117;18.845972061157227;-132.57386779785156
291;1673429257.7032728;47.1295378;7.2391396;50.1660041809082;1673429257.8566825;-50.756126403808594;19.245166778564453;-132.6436767578125
292;1673429257.9045486;47.129518399999995;7.2391178;50.1670036315918;1673429258.0770159;-49.58157730102539;18.197694778442383;-131.90223693847656
293;1673429258.132604;47.129498899999994;7.2390948999999996;50.15300369262695;1673429258.2835462;-46.03914260864258;16.050764083862305;-131.19313049316406
294;1673429258.3237965;47.1294793;7.2390712;50.130001068115234;1673429258.473897;-43.34415817260742;15.17599105834961;-131.48744201660156
295;1673429258.5140316;47.1294597;7.239047299999999;50.10900115966797;1673429258.652017;-44.846824645996094;15.642616271972656;-131.36424255371094
296;1673429258.695649;47.1294401;7.2390235;50.092002868652344;1673429258.8507938;-46.479820251464844;17.26128578186035;-131.019775390625
297;1673429258.9034965;47.129420499999995;7.2389993;50.08100128173828;1673429259.0567255;-46.29952621459961;18.729806900024414;-123.59217071533203
298;1673429259.0996592;47.1294012;7.2389746;50.073001861572266;1673429259.2711635;-45.008026123046875;13.128182411193848;-112.39264678955078
299;1673429259.3248856;47.1293825;7.2389496;50.052001953125;1673429259.4794211;-43.03131866455078;9.205911636352539;-103.4736328125
300;1673429259.5233698;47.1293645;7.238924399999999;50.03400421142578;1673429259.667449;-41.76578140258789;4.89713716506958;-94.18958282470703
301;1673429259.712349;47.129347499999994;7.238899399999999;50.0150032043457;1673429259.862818;-41.3914680480957;4.338916301727295;-86.8823471069336
302;1673429259.9047859;47.1293315;7.238874699999999;49.993003845214844;1673429260.0571604;-32.94384765625;12.40172004699707;-77.26868438720703
303;1673429260.100135;47.129317;7.2388509999999995;49.98400115966797;1673429260.253511;-13.886076927185059;12.837244033813477;-81.42239379882812
304;1673429260.2974327;47.1293041;7.238829099999999;50.00800323486328;1673429260.453851;1.696067452430725;11.779207229614258;-101.50959014892578
305;1673429260.4924462;47.129292299999996;7.238810399999999;50.040000915527344;1673429260.6491177;2.487398386001587;-0.21850703656673431;-114.84618377685547
306;1673429260.6930308;47.1292812;7.2387954;50.06800079345703;1673429260.8503392;-8.405840873718262;8.892107009887695;-127.8192367553711
307;1673429260.8952544;47.1292702;7.2387834;50.10300064086914;1673429261.0604424;-17.89674949645996;31.031248092651367;-137.36297607421875
308;1673429261.1007018;47.1292593;7.238772999999999;50.14600372314453;1673429261.2551014;-37.37937545776367;39.35519027709961;-138.24925231933594
309;1673429261.299018;47.129248999999994;7.2387619;50.185001373291016;1673429261.4625034;-49.04324722290039;32.54466247558594;-127.61905670166016
310;1673429261.5161912;47.129238799999996;7.238748299999999;50.208003997802734;1673429261.6852179;-49.350189208984375;32.41582489013672;-111.24309539794922
311;1673429261.736534;47.1292292;7.2387321;50.22500228881836;1673429261.8750155;-51.80948257446289;21.846357345581055;-109.48722839355469
312;1673429261.9150681;47.129220499999995;7.238713799999999;50.22200393676758;1673429262.0597095;-43.40576171875;29.617382049560547;-123.42084503173828
313;1673429262.1001034;47.1292121;7.238694;50.191001892089844;1673429262.254397;-34.30706787109375;29.924781799316406;-127.90078735351562
314;1673429262.3003788;47.1292039;7.2386729;50.177001953125;1673429262.4546099;-13.508256912231445;20.73802947998047;-129.4694366455078
315;1673429262.500228;47.1291957;7.2386520999999995;50.1670036315918;1673429262.662721;-1.424652338027954;18.785118103027344;-135.1031494140625
316;1673429262.7085931;47.129187699999996;7.2386333;50.15700149536133;1673429262.8631864;13.445024490356445;19.82999610900879;-136.77188110351562
317;1673429262.924106;47.129180299999994;7.238617;50.15200424194336;1673429263.0789757;18.24763298034668;17.483652114868164;-138.66395568847656
318;1673429263.1279435;47.129173599999994;7.2386037;50.143001556396484;1673429263.2773848;20.727787017822266;15.824201583862305;-140.98846435546875
319;1673429263.3235502;47.1291678;7.2385934;50.1410026550293;1673429263.4779685;22.1246337890625;14.856256484985352;-142.47483825683594
320;1673429263.5199447;47.129162699999995;7.2385861;50.1400032043457;1673429263.6700003;20.645198822021484;16.878026962280273;-142.46168518066406
321;1673429263.7130172;47.129158399999994;7.2385813;50.1410026550293;1673429263.8616421;16.161026000976562;20.07071876525879;-140.76995849609375
322;1673429263.9055667;47.129154799999995;7.2385785;50.1410026550293;1673429264.073952;-16.387571334838867;26.322494506835938;-141.1658172607422
323;1673429264.1188474;47.1291517;7.2385760999999995;50.20900344848633;1673429264.279028;-35.9754638671875;18.50323486328125;-137.06809997558594
324;1673429264.320229;47.1291477;7.2385721;50.35100173950195;1673429264.4989102;-20.91440773010254;8.912792205810547;-135.89523315429688
325;1673429264.552216;47.129142099999996;7.238567;50.55400085449219;1673429264.6945453;-22.986478805541992;8.035968780517578;-134.9104461669922
326;1673429264.7396286;47.1291351;7.238561799999999;50.8650016784668;1673429264.8987262;-37.927669525146484;29.632883071899414;-135.44566345214844
327;1673429264.9494817;47.1291271;7.2385553;51.24500274658203;1673429265.126799;-38.529624938964844;33.14971923828125;-133.89996337890625
328;1673429265.1630666;47.1291186;7.2385459;51.61600112915039;1673429265.295432;-34.473548889160156;33.27817916870117;-134.0086669921875
329;1673429265.3389182;47.129109799999995;7.238533899999999;51.97500228881836;1673429265.4838202;-32.66676330566406;30.757259368896484;-134.42373657226562
330;1673429265.5228624;47.129101;7.2385199;52.33400344848633;1673429265.6842427;-28.884523391723633;28.698362350463867;-135.10476684570312
331;1673429265.7282364;47.129092;7.2385046;52.69700241088867;1673429265.8902235;-26.228342056274414;25.288650512695312;-135.39505004882812
332;1673429265.9283412;47.1290828;7.2384888;53.05800247192383;1673429266.0671694;-23.31859016418457;23.356924057006836;-136.2769317626953
333;1673429266.116107;47.1290735;7.238472799999999;53.423004150390625;1673429266.298146;-20.868017196655273;21.765724182128906;-136.56309509277344
334;1673429266.3402653;47.1290641;7.2384569;53.79300308227539;1673429266.4952853;-19.48977279663086;21.252466201782227;-136.977783203125
335;1673429266.5393944;47.129054499999995;7.2384417999999995;54.17000198364258;1673429266.693236;-18.53512191772461;21.65275764465332;-137.12066650390625
336;1673429266.7387264;47.1290449;7.2384271;54.54900360107422;1673429266.887062;-18.42520523071289;22.472475051879883;-137.30186462402344
337;1673429266.932052;47.129035099999996;7.2384129999999995;54.932003021240234;1673429267.0870304;-18.820072174072266;23.212644577026367;-137.32627868652344
338;1673429267.1312573;47.129025399999996;7.238399299999999;55.320003509521484;1673429267.2832534;-19.4932918548584;23.41448402404785;-137.2052764892578
339;1673429267.3283231;47.129015599999995;7.238385999999999;55.715003967285156;1673429267.4785972;-20.220539093017578;23.12196922302246;-137.01632690429688
340;1673429267.5209084;47.129005799999995;7.2383729;56.11100387573242;1673429267.6798694;-21.436920166015625;22.912120819091797;-136.94915771484375
341;1673429267.7240753;47.128996099999995;7.2383599;56.50800323486328;1673429267.8956242;-22.1653995513916;23.284372329711914;-136.90277099609375
342;1673429267.9402485;47.1289863;7.238347;56.906002044677734;1673429268.0998304;-22.71785545349121;23.62024688720703;-136.89425659179688
343;1673429268.1453178;47.1289765;7.2383339;57.302001953125;1673429268.2827318;-22.66195297241211;24.289615631103516;-136.7832794189453
344;1673429268.322742;47.1289667;7.2383207;57.69900131225586;1673429268.4797359;-22.71776008605957;24.81194305419922;-136.81410217285156
345;1673429268.5237288;47.1289569;7.2383073;58.09800338745117;1673429268.6725695;-22.40106964111328;25.342517852783203;-136.88417053222656
346;1673429268.7156734;47.1289471;7.2382937;58.49800109863281;1673429268.8767786;-22.31800651550293;25.556636810302734;-136.927001953125
347;1673429268.9266686;47.128937199999996;7.2382801;58.89800262451172;1673429269.086713;-21.987289428710938;25.63675308227539;-137.00918579101562
348;1673429269.1267395;47.1289273;7.2382664;59.29700469970703;1673429269.2794158;-21.93471336364746;25.49509048461914;-136.98828125
349;1673429269.3225079;47.1289174;7.2382528;59.69600296020508;1673429269.475207;-22.121274948120117;25.071441650390625;-136.8871307373047
350;1673429269.514227;47.1289075;7.2382390999999995;60.09100341796875;1673429269.6819694;-22.169654846191406;24.70952606201172;-136.8404083251953
351;1673429269.7317536;47.128897599999995;7.2382254999999995;60.483001708984375;1673429269.8871293;-22.275169372558594;24.15255355834961;-136.77120971679688
352;1673429269.928215;47.1288877;7.238211799999999;60.87700271606445;1673429270.0858104;-22.4228572845459;23.7694034576416;-136.78147888183594
353;1673429270.1279488;47.1288778;7.238198;61.27400207519531;1673429270.2962158;-22.258901596069336;23.723445892333984;-136.7238006591797
354;1673429270.3365865;47.128867899999996;7.2381844;61.67400360107422;1673429270.490037;-22.425048828125;23.87940788269043;-136.80030822753906
355;1673429270.5400195;47.128858;7.2381706999999995;62.073001861572266;1673429270.6755953;-22.243310928344727;23.999113082885742;-136.79347229003906
356;1673429270.720531;47.1288481;7.238156999999999;62.46600341796875;1673429270.8692403;-22.307828903198242;24.330167770385742;-136.881591796875
357;1673429270.9102836;47.1288382;7.2381432;62.858001708984375;1673429271.0663738;-22.26362419128418;24.59275245666504;-136.9435577392578
358;1673429271.1094358;47.128828299999995;7.2381294;63.25200271606445;1673429271.2677932;-22.120595932006836;24.91253089904785;-136.97763061523438
359;1673429271.3130486;47.1288184;7.2381155999999995;63.64800262451172;1673429271.4686515;-22.211471557617188;25.137178421020508;-137.0396270751953
360;1673429271.5127745;47.1288085;7.2381018;64.04400634765625;1673429271.6746132;-22.180269241333008;25.115135192871094;-136.9787139892578
361;1673429271.7215095;47.128798599999996;7.238087999999999;64.44100189208984;1673429271.8837233;-21.996984481811523;25.299421310424805;-136.97036743164062
362;1673429271.9276428;47.1287886;7.2380743;64.83800506591797;1673429272.084321;-22.358320236206055;25.127761840820312;-136.9989776611328
363;1673429272.1282787;47.1287787;7.2380606;65.23400115966797;1673429272.2835772;-22.4630184173584;24.792675018310547;-136.94955444335938
364;1673429272.3284736;47.128768799999996;7.238046799999999;65.63200378417969;1673429272.4795787;-22.32975196838379;24.577980041503906;-136.8954315185547
365;1673429272.527523;47.1287589;7.238033;66.0260009765625;1673429272.6880374;-22.42462921142578;24.26569938659668;-136.87808227539062
366;1673429272.7312932;47.128749;7.2380192;66.41699981689453;1673429272.8872755;-22.329524993896484;24.156051635742188;-136.8323974609375
367;1673429272.9436452;47.1287391;7.2380054;66.81000518798828;1673429273.10219;-22.46051597595215;24.190250396728516;-136.86270141601562
368;1673429273.1456952;47.1287291;7.237991699999999;67.20600128173828;1673429273.2907155;-22.387374877929688;24.254222869873047;-136.8290557861328
369;1673429273.3385887;47.1287192;7.2379779;67.59600067138672;1673429273.493322;-22.14180564880371;24.391807556152344;-136.87843322753906
370;1673429273.5364053;47.128709199999996;7.237964099999999;67.98699951171875;1673429273.6916263;-22.183820724487305;24.604385375976562;-136.9318084716797
371;1673429273.7404752;47.1286993;7.2379503;68.37700653076172;1673429273.889902;-22.20770263671875;24.73798942565918;-136.97027587890625
372;1673429273.938993;47.1286893;7.237936599999999;68.77000427246094;1673429274.0853736;-22.157224655151367;24.849159240722656;-136.98760986328125
373;1673429274.131544;47.128679399999996;7.2379229;69.16400146484375;1673429274.2856677;-22.221115112304688;24.994993209838867;-136.988037109375
374;1673429274.3329315;47.1286694;7.2379092;69.56000518798828;1673429274.494057;-22.3638858795166;25.051603317260742;-137.0081024169922
375;1673429274.5429013;47.1286595;7.2378955;69.95500183105469;1673429274.6991062;-22.26182746887207;24.993635177612305;-136.9727020263672
376;1673429274.7420554;47.128649499999995;7.237881799999999;70.35200500488281;1673429274.895698;-22.34919548034668;24.781301498413086;-136.9623260498047
377;1673429274.9467142;47.1286396;7.237868;70.7490005493164;1673429275.1112738;-22.103361129760742;24.747583389282227;-136.9196014404297
378;1673429275.1567214;47.1286296;7.2378542999999995;71.14600372314453;1673429275.3161922;-22.345233917236328;24.676681518554688;-136.96653747558594
379;1673429275.3622966;47.128619699999994;7.2378405;71.54000091552734;1673429275.5108235;-22.135263442993164;24.65648651123047;-136.9124298095703
380;1673429275.5563886;47.1286097;7.2378268;71.92900085449219;1673429275.714493;-22.228736877441406;24.682321548461914;-136.95851135253906
381;1673429275.7556884;47.128599699999995;7.2378130999999994;72.32300567626953;1673429275.9115446;-22.232675552368164;24.677013397216797;-136.91864013671875
382;1673429275.9560177;47.1285897;7.2377994;72.71100616455078;1673429276.1055005;-22.17690086364746;24.64828872680664;-136.92369079589844
383;1673429276.1564558;47.128579699999996;7.2377857;73.09500122070312;1673429276.3082943;-22.1413631439209;24.716615676879883;-136.93617248535156
384;1673429276.3473437;47.1285698;7.237771899999999;73.4800033569336;1673429276.5070133;-21.969371795654297;24.6616268157959;-136.9264678955078
385;1673429276.552023;47.1285598;7.2377582;73.86200714111328;1673429276.7118125;-22.128726959228516;24.74720573425293;-136.9889373779297
386;1673429276.7592907;47.128549899999996;7.2377445;74.24300384521484;1673429276.915082;-22.200029373168945;24.747554779052734;-136.9880828857422
387;1673429276.961247;47.1285399;7.2377309;74.6310043334961;1673429277.124588;-22.159011840820312;24.738094329833984;-136.98818969726562
388;1673429277.1639373;47.12853;7.2377172;75.02100372314453;1673429277.3269913;-22.324905395507812;24.711986541748047;-136.99664306640625
389;1673429277.37683;47.128520099999996;7.237703499999999;75.40900421142578;1673429277.5506265;-22.28412437438965;24.51167869567871;-136.97158813476562
390;1673429277.5877876;47.1285101;7.2376898999999995;75.79900360107422;1673429277.7138288;-22.417831420898438;24.504640579223633;-136.965087890625
391;1673429277.750931;47.1285002;7.2376762999999995;76.19000244140625;1673429277.8929472;-22.317222595214844;24.551170349121094;-136.93638610839844
392;1673429277.932094;47.128490199999995;7.237662599999999;76.5780029296875;1673429278.087804;-22.262714385986328;24.632280349731445;-136.941162109375
393;1673429278.1319833;47.1284802;7.237648999999999;76.96700286865234;1673429278.2828736;-22.26451301574707;24.54144859313965;-136.91152954101562
394;1673429278.3292751;47.128470199999995;7.2376353;77.36000061035156;1673429278.4783607;-22.320955276489258;24.56534194946289;-136.94686889648438
395;1673429278.523417;47.1284602;7.2376217;77.75200653076172;1673429278.6751046;-22.08790397644043;24.61581802368164;-136.9091796875
396;1673429278.7192833;47.128450199999996;7.237608;78.14600372314453;1673429278.8722427;-21.965892791748047;24.72395896911621;-136.92626953125
397;1673429278.918257;47.1284401;7.2375943;78.53700256347656;1673429279.074347;-21.995447158813477;24.76270866394043;-136.94822692871094
398;1673429279.1189713;47.128430099999996;7.237580599999999;78.93000030517578;1673429279.272879;-21.85213851928711;24.902076721191406;-136.947021484375
399;1673429279.3189466;47.12842;7.2375669;79.32300567626953;1673429279.4720945;-21.91473960876465;24.83987045288086;-136.9658966064453
400;1673429279.5162044;47.128410099999996;7.2375533;79.71800231933594;1673429279.6749437;-21.93499755859375;24.890487670898438;-136.9783477783203
401;1673429279.71709;47.1284001;7.237539699999999;80.11500549316406;1673429279.870236;-22.06426239013672;24.819143295288086;-136.94989013671875
402;1673429279.9162648;47.1283901;7.237526099999999;80.51400756835938;1673429280.068637;-22.093191146850586;24.8537540435791;-136.94667053222656
403;1673429280.1115808;47.128380199999995;7.237512499999999;80.91300201416016;1673429280.2725224;-22.17182731628418;24.770275115966797;-136.91554260253906
404;1673429280.3177056;47.1283702;7.237498899999999;81.31400299072266;1673429280.4726858;-22.214025497436523;24.764646530151367;-136.93316650390625
405;1673429280.5196707;47.1283603;7.2374852999999995;81.71000671386719;1673429280.6712565;-22.062143325805664;24.77994728088379;-136.93231201171875
406;1673429280.7142043;47.1283503;7.2374716;82.10100555419922;1673429280.8716779;-22.201120376586914;24.620737075805664;-136.9349822998047
407;1673429280.9171886;47.1283404;7.2374579;82.49400329589844;1673429281.0676389;-22.08881950378418;24.581228256225586;-136.93215942382812
408;1673429281.1125655;47.1283305;7.2374442;82.88900756835938;1673429281.2749631;-22.019412994384766;24.615955352783203;-136.9397735595703
409;1673429281.320838;47.1283205;7.237430499999999;83.28500366210938;1673429281.476833;-21.99755096435547;24.612512588500977;-136.93174743652344
410;1673429281.520989;47.1283105;7.2374168999999995;83.6810073852539;1673429281.6808426;-21.965177536010742;24.69869041442871;-136.9374237060547
411;1673429281.7257395;47.128300499999995;7.237403199999999;84.0770034790039;1673429281.8801658;-21.995384216308594;24.752758026123047;-136.93634033203125
412;1673429281.9258897;47.1282905;7.237389599999999;84.47200775146484;1673429282.0803723;-21.96965789794922;24.769262313842773;-136.91453552246094
413;1673429282.1252646;47.1282806;7.237375999999999;84.86900329589844;1673429282.282681;-22.163867950439453;24.681489944458008;-136.9329833984375
414;1673429282.3267608;47.1282706;7.2373623;85.26500701904297;1673429282.4793057;-22.054306030273438;24.704708099365234;-136.9031524658203
415;1673429282.5242476;47.1282607;7.2373487;85.66300201416016;1673429282.6788726;-22.026168823242188;24.7232666015625;-136.9320831298828
416;1673429282.722794;47.128250699999995;7.237335;86.06100463867188;1673429282.877486;-22.053634643554688;24.769489288330078;-136.9364471435547
417;1673429282.9217057;47.1282407;7.2373214;86.4580078125;1673429283.0728924;-22.02568817138672;24.808509826660156;-136.9307098388672
