;pos_time;latitude;longitude;altitude;alt_time;pitch;roll;yaw
0;1673428601.5896986;47.1306424;7.240619499999999;-0.021000001579523087;1673428601.631233;-0.1466810703277588;-0.3726481795310974;90.56460571289062
1;1673428601.7855859;47.1306424;7.240619499999999;-0.01900000125169754;1673428601.8263028;0.14887848496437073;-0.397088885307312;90.53280639648438
2;1673428601.9822414;47.1306424;7.2406196;-0.01900000125169754;1673428602.0316215;-0.09895988553762436;-0.03346261382102966;90.39532470703125
3;1673428602.187616;47.1306424;7.2406196;-0.01900000125169754;1673428602.227263;-0.3037886917591095;0.17825132608413696;90.51084899902344
4;1673428602.3850203;47.1306424;7.2406196;-0.020000001415610313;1673428602.430676;-0.37081876397132874;0.48784005641937256;90.62235260009766
5;1673428602.5989532;47.1306424;7.2406197;-0.024000000208616257;1673428602.6425967;-0.141673743724823;0.3261502683162689;90.49410247802734
6;1673428602.7917197;47.1306424;7.2406197;-0.02800000086426735;1673428602.8345184;0.06179962679743767;0.45373231172561646;90.49565124511719
7;1673428602.9854496;47.1306424;7.2406197;-0.03200000151991844;1673428603.0271225;-0.28935763239860535;0.18032723665237427;90.59517669677734
8;1673428603.1954014;47.1306424;7.2406197;-0.036000002175569534;1673428603.2360246;-0.3816666305065155;0.37772610783576965;90.52790069580078
9;1673428603.4122882;47.1306424;7.2406197;-0.0010000000474974513;1673428603.4557707;-0.2622656524181366;1.577620029449463;90.37538146972656
10;1673428603.617677;47.1306424;7.2406197;-0.0010000000474974513;1673428603.6631515;-0.4463113248348236;1.0381239652633667;90.40287017822266
11;1673428603.8199866;47.1306424;7.2406197;0.0;1673428603.859737;-0.4678898751735687;0.9908860921859741;90.44273376464844
12;1673428604.0187688;47.1306424;7.2406197;-0.0010000000474974513;1673428604.0599122;-0.3665059506893158;1.1330053806304932;90.41348266601562
13;1673428604.2292821;47.1306424;7.240619799999999;-0.0010000000474974513;1673428604.271402;-0.1732351928949356;0.9169184565544128;90.39629364013672
14;1673428604.4171963;47.1306424;7.240619799999999;0.0;1673428604.4572763;-0.19891197979450226;1.6305830478668213;90.22756958007812
15;1673428604.6074147;47.1306424;7.240619799999999;0.0;1673428604.6494768;-0.36412009596824646;1.400404691696167;90.42389678955078
16;1673428604.8291578;47.1306424;7.240619799999999;0.0010000000474974513;1673428604.8633244;-0.3732718229293823;1.8416208028793335;90.50605773925781
17;1673428605.020728;47.1306424;7.240619799999999;0.004000000189989805;1673428605.060872;-0.2259151041507721;1.535250186920166;90.33976745605469
18;1673428605.2075088;47.1306424;7.240619799999999;0.005000000353902578;1673428605.2458224;-0.24193665385246277;0.6466617584228516;90.21234130859375
19;1673428605.4312484;47.1306424;7.240619799999999;0.004000000189989805;1673428605.4702883;-0.35406988859176636;0.7959296703338623;90.30789184570312
20;1673428605.6336308;47.1306423;7.240619799999999;0.0;1673428605.6806462;-0.5024406313896179;-0.03259246051311493;90.00568389892578
21;1673428605.8290474;47.1306423;7.240619799999999;-0.005000000353902578;1673428605.8700423;-0.739000678062439;0.370910108089447;90.26591491699219
22;1673428606.035381;47.1306423;7.2406197;-0.012000000104308128;1673428606.074591;-0.4180472493171692;0.2890515625476837;90.01573944091797
23;1673428606.231737;47.1306422;7.240619799999999;-0.012000000104308128;1673428606.2758117;-0.5357283353805542;0.5909048914909363;90.28495025634766
24;1673428606.4102907;47.130642099999996;7.240619799999999;-0.013000000268220901;1673428606.446943;-0.5456347465515137;0.11043323576450348;88.66641998291016
25;1673428606.5849104;47.1306418;7.24062;-0.013000000268220901;1673428606.6230202;-0.16827619075775146;-0.05115729197859764;84.6259536743164
26;1673428606.788793;47.1306412;7.2406203;-0.00800000037997961;1673428606.8309066;-0.16282188892364502;-4.441478252410889;80.38746643066406
27;1673428606.9910321;47.1306404;7.2406209;0.003000000026077032;1673428607.0340188;2.557554244995117;-7.375095367431641;84.68909454345703
28;1673428607.1949563;47.1306395;7.240621699999999;0.02500000037252903;1673428607.2394667;6.188443183898926;-10.88149356842041;86.98143768310547
29;1673428607.4020739;47.1306383;7.2406228;0.04700000211596489;1673428607.4471447;8.116974830627441;-14.633353233337402;87.06192779541016
30;1673428607.6106744;47.1306371;7.2406239999999995;0.0820000022649765;1673428607.6561122;8.59602165222168;-15.47853946685791;87.14806365966797
31;1673428607.8341472;47.130635999999996;7.240625199999999;0.1340000033378601;1673428607.8743215;9.832304000854492;-16.078805923461914;87.25543975830078
32;1673428608.0336497;47.130635;7.2406264;0.20100000500679016;1673428608.075066;10.816524505615234;-18.31486701965332;87.2696533203125
33;1673428608.2077029;47.130634099999995;7.2406273;0.2880000174045563;1673428608.2469053;11.666154861450195;-19.9569149017334;87.39896392822266
34;1673428608.4069042;47.130633599999996;7.2406280999999995;0.3930000066757202;1673428608.4510126;13.146173477172852;-20.579465866088867;87.58152770996094
35;1673428608.6097195;47.1306334;7.2406285;0.5139999985694885;1673428608.6529572;15.068095207214355;-21.890981674194336;87.69412231445312
36;1673428608.802436;47.130633599999996;7.2406285;0.6510000228881836;1673428608.847989;16.31161117553711;-24.03301239013672;87.89734649658203
37;1673428609.013569;47.1306343;7.2406279;0.7980000376701355;1673428609.0562785;16.463205337524414;-24.780414581298828;88.30288696289062
38;1673428609.210066;47.1306355;7.2406269;0.9580000638961792;1673428609.2512913;15.206889152526855;-20.196317672729492;89.03801727294922
39;1673428609.4030967;47.1306369;7.2406254;1.1299999952316284;1673428609.4476388;13.663463592529297;-18.106016159057617;89.70793914794922
40;1673428609.612202;47.1306383;7.2406239;1.312000036239624;1673428609.6576557;11.703890800476074;-17.6143741607666;90.0541763305664
41;1673428609.8131897;47.130639699999996;7.2406223999999995;1.5000001192092896;1673428609.8579302;10.182966232299805;-12.264788627624512;91.25042724609375
42;1673428610.0111458;47.130640799999995;7.240621099999999;1.6910001039505005;1673428610.0551522;9.068811416625977;-10.962237358093262;95.25148010253906
43;1673428610.2145472;47.1306416;7.24062;1.8850001096725464;1673428610.2556322;8.455718994140625;-13.348953247070312;95.48664093017578
44;1673428610.4125037;47.130642099999996;7.2406193;2.077000141143799;1673428610.4589448;8.375449180603027;-11.031097412109375;95.98802947998047
45;1673428610.6199095;47.1306422;7.2406191;2.267000198364258;1673428610.6595132;9.113805770874023;-10.981170654296875;96.33340454101562
46;1673428610.8210235;47.1306422;7.2406191;2.4590001106262207;1673428610.8650312;10.083097457885742;-15.74694538116455;96.44436645507812
47;1673428611.0228906;47.130642099999996;7.2406193;2.6540000438690186;1673428611.0673943;11.38417911529541;-13.897562026977539;97.0096664428711
48;1673428611.2176437;47.130641999999995;7.2406196;2.8450000286102295;1673428611.2560234;12.420733451843262;-12.819787979125977;97.17711639404297
49;1673428611.41589;47.1306419;7.2406198999999996;3.0330002307891846;1673428611.4584072;12.95327377319336;-15.877057075500488;96.94244384765625
50;1673428611.6113138;47.1306419;7.2406201999999995;3.2210001945495605;1673428611.651003;13.104545593261719;-15.829962730407715;96.91064453125
51;1673428611.811149;47.1306419;7.2406204;3.4090001583099365;1673428611.863009;13.457232475280762;-12.405147552490234;97.10498809814453
52;1673428612.044946;47.1306419;7.2406204999999995;3.6040000915527344;1673428612.1223402;13.485376358032227;-14.30350399017334;97.09394836425781
53;1673428612.2470343;47.1306419;7.2406204999999995;3.805000066757202;1673428612.2860892;13.3984375;-16.110891342163086;96.91964721679688
54;1673428612.4352114;47.1306418;7.2406204;4.006999969482422;1673428612.4748158;13.423909187316895;-12.645602226257324;97.49043273925781
55;1673428612.6270537;47.1306417;7.2406203;4.207000255584717;1673428612.6685982;13.110601425170898;-13.975968360900879;97.3144760131836
56;1673428612.8135378;47.1306417;7.2406201999999995;4.404000282287598;1673428612.8615634;12.660346031188965;-16.38239860534668;96.8354721069336
57;1673428613.01696;47.1306417;7.2406201;4.604000091552734;1673428613.0514426;12.666949272155762;-13.638422012329102;96.99214172363281
58;1673428613.1955974;47.1306417;7.24062;4.800000190734863;1673428613.2405965;12.52473258972168;-13.462867736816406;97.10975646972656
59;1673428613.4004426;47.1306416;7.2406198999999996;4.997000217437744;1673428613.4439416;12.46664810180664;-16.948400497436523;96.85643768310547
60;1673428613.5998068;47.1306416;7.240619799999999;5.198000431060791;1673428613.639385;12.42216968536377;-14.158510208129883;97.28394317626953
61;1673428613.8040147;47.1306416;7.240619799999999;5.398000240325928;1673428613.848195;12.523509979248047;-13.238443374633789;97.38609313964844
62;1673428614.0070007;47.1306417;7.240619799999999;5.600000381469727;1673428614.0535722;12.675737380981445;-16.032062530517578;97.07205963134766
63;1673428614.2147884;47.1306418;7.240619799999999;5.801000118255615;1673428614.2602258;12.669221878051758;-14.696170806884766;96.97071075439453
64;1673428614.4203799;47.1306419;7.240619799999999;5.998000144958496;1673428614.4606109;12.701870918273926;-11.97380542755127;97.14581298828125
65;1673428614.6100261;47.130641999999995;7.240619799999999;6.198000431060791;1673428614.6471603;12.681641578674316;-15.003003120422363;97.11756134033203
66;1673428614.8177185;47.1306419;7.240619799999999;6.402000427246094;1673428614.8593698;12.636214256286621;-15.460753440856934;97.00830078125
67;1673428615.0034995;47.1306418;7.240619799999999;6.6060004234313965;1673428615.0421252;12.858768463134766;-12.440372467041016;97.33280944824219
68;1673428615.1969707;47.1306418;7.240619799999999;6.808000087738037;1673428615.238524;12.765678405761719;-14.89110279083252;97.17619323730469
69;1673428615.404224;47.1306418;7.240619799999999;7.006000518798828;1673428615.447762;12.776975631713867;-16.229276657104492;97.01453399658203
70;1673428615.6162481;47.1306417;7.2406197;7.205000400543213;1673428615.659323;12.821494102478027;-12.75031852722168;97.10247802734375
71;1673428615.8209307;47.1306418;7.2406197;7.403000354766846;1673428615.862478;12.55959701538086;-14.030717849731445;97.08869171142578
72;1673428616.0105374;47.1306417;7.2406197;7.6060004234313965;1673428616.0512087;12.515463829040527;-16.741308212280273;96.76314544677734
73;1673428616.215601;47.1306417;7.2406196;7.808000564575195;1673428616.2556686;12.57243537902832;-13.409086227416992;97.13638305664062
74;1673428616.4103246;47.1306417;7.2406197;8.010000228881836;1673428616.456743;12.545016288757324;-13.520888328552246;97.29214477539062
75;1673428616.6148746;47.1306418;7.2406197;8.209000587463379;1673428616.6593723;12.722893714904785;-16.301010131835938;96.9841079711914
76;1673428616.829979;47.1306418;7.2406197;8.41100025177002;1673428616.871597;12.901880264282227;-13.737896919250488;97.16155242919922
77;1673428617.0545404;47.1306418;7.240619799999999;8.610000610351562;1673428617.0955794;12.707548141479492;-12.816805839538574;97.09749603271484
78;1673428617.2356877;47.1306419;7.240619799999999;8.81100082397461;1673428617.2797606;12.705790519714355;-16.126840591430664;96.84607696533203
79;1673428617.4399807;47.1306418;7.240619799999999;9.009000778198242;1673428617.4790814;12.643275260925293;-14.949158668518066;96.92733001708984
80;1673428617.6349282;47.1306418;7.2406198999999996;9.205000877380371;1673428617.6754768;12.855363845825195;-12.652472496032715;97.11714935302734
81;1673428617.8593595;47.1306419;7.24062;9.402000427246094;1673428617.9078078;12.891419410705566;-15.321964263916016;96.96066284179688
82;1673428618.053723;47.1306419;7.24062;9.60200023651123;1673428618.0976427;12.947896003723145;-16.095731735229492;96.95870971679688
83;1673428618.2474751;47.1306419;7.2406201;9.802000045776367;1673428618.288209;13.006271362304688;-12.166461944580078;97.25743865966797
84;1673428618.4345436;47.1306419;7.24062;10.004000663757324;1673428618.4706933;12.741113662719727;-14.616960525512695;97.09334564208984
85;1673428618.6336303;47.1306419;7.24062;10.221000671386719;1673428618.6757166;12.374491691589355;-16.03179359436035;96.54019165039062
86;1673428618.8164892;47.1306419;7.2406198999999996;10.531000137329102;1673428618.856291;12.372835159301758;-14.709339141845703;96.42391967773438
87;1673428619.0085146;47.1306422;7.240619799999999;10.903000831604004;1673428619.0524726;13.306020736694336;-15.58932876586914;96.65855407714844
88;1673428619.2288568;47.130642599999995;7.240619799999999;11.292000770568848;1673428619.2807913;12.508625030517578;-16.263534545898438;96.56678009033203
89;1673428619.4408152;47.1306431;7.2406197;11.688000679016113;1673428619.4818633;12.295534133911133;-12.846122741699219;96.94158935546875
90;1673428619.6726627;47.1306435;7.240619499999999;12.085000991821289;1673428619.716625;11.920469284057617;-10.857190132141113;97.06672668457031
91;1673428619.844997;47.1306437;7.240619499999999;12.488000869750977;1673428619.8826199;11.839725494384766;-13.42679214477539;96.907958984375
92;1673428620.0279863;47.1306437;7.2406194;12.88800048828125;1673428620.0703285;11.92219066619873;-12.608147621154785;96.93103790283203
93;1673428620.2235398;47.1306437;7.2406194;13.284000396728516;1673428620.2675266;11.835403442382812;-10.658090591430664;97.11351013183594
94;1673428620.4225557;47.1306435;7.2406194;13.678000450134277;1673428620.4650512;12.056670188903809;-13.787652015686035;96.8446273803711
95;1673428620.651691;47.1306434;7.240619499999999;14.069000244140625;1673428620.691704;12.239388465881348;-14.838109016418457;96.89405822753906
96;1673428620.913707;47.1306431;7.240619499999999;14.458001136779785;1673428620.9451141;12.473457336425781;-12.025948524475098;97.06360626220703
97;1673428621.1034079;47.1306429;7.240619499999999;14.843000411987305;1673428621.1624837;12.398093223571777;-14.197975158691406;96.99224090576172
98;1673428621.285253;47.130642699999996;7.240619499999999;15.232000350952148;1673428621.3281982;12.299044609069824;-16.358440399169922;96.80694580078125
99;1673428621.4962754;47.1306425;7.240619499999999;15.623001098632812;1673428621.5314133;12.608941078186035;-13.508358001708984;97.0096664428711
100;1673428621.6574464;47.1306425;7.2406196;16.016000747680664;1673428621.69551;12.680912971496582;-13.705222129821777;96.9601821899414
101;1673428621.8504422;47.130642599999995;7.2406196;16.41200065612793;1673428621.8929985;12.58055591583252;-15.892855644226074;96.71456146240234
102;1673428622.0520782;47.130642699999996;7.2406197;16.81100082397461;1673428622.0999453;12.842103958129883;-13.793001174926758;96.9634017944336
103;1673428622.2531955;47.1306428;7.2406197;17.20400047302246;1673428622.2873542;12.603541374206543;-11.861263275146484;97.17477416992188
104;1673428622.423813;47.1306429;7.2406196;17.599000930786133;1673428622.463389;12.417144775390625;-14.227660179138184;96.98870086669922
105;1673428622.6172166;47.1306429;7.2406196;17.99700164794922;1673428622.6616752;12.272368431091309;-14.45472526550293;96.78296661376953
106;1673428622.820377;47.1306429;7.2406196;18.392000198364258;1673428622.866797;12.5883207321167;-11.615077018737793;97.1904067993164
107;1673428623.0277305;47.1306429;7.240619499999999;18.784000396728516;1673428623.075165;12.270838737487793;-14.182013511657715;96.89756774902344
108;1673428623.255613;47.1306429;7.240619499999999;19.177000045776367;1673428623.302694;12.388663291931152;-14.63046932220459;97.00946044921875
109;1673428623.4680488;47.1306429;7.2406194;19.573001861572266;1673428623.530858;12.428496360778809;-12.676177024841309;96.9196548461914
110;1673428623.6839216;47.1306428;7.2406194;19.96700096130371;1673428623.723941;12.2699613571167;-13.103827476501465;96.99034118652344
111;1673428623.872416;47.1306428;7.2406194;20.367000579833984;1673428623.914481;12.315499305725098;-15.89577865600586;96.76011657714844
112;1673428624.0744622;47.130642699999996;7.2406194;20.768001556396484;1673428624.1107213;12.463967323303223;-13.254388809204102;96.96174621582031
113;1673428624.271963;47.1306428;7.2406194;21.168001174926758;1673428624.316975;12.322662353515625;-12.467316627502441;97.10858154296875
114;1673428624.462685;47.1306428;7.2406194;21.56800079345703;1673428624.5067382;12.472319602966309;-15.255056381225586;96.89703369140625
115;1673428624.654608;47.1306429;7.2406194;21.974000930786133;1673428624.6951592;12.622876167297363;-13.60144329071045;97.01325988769531
116;1673428624.8258765;47.1306429;7.2406194;22.37200164794922;1673428624.864524;12.647587776184082;-11.800546646118164;97.10091400146484
117;1673428625.0270793;47.130643;7.2406194;22.775001525878906;1673428625.0666718;12.448583602905273;-14.48160171508789;97.05036163330078
118;1673428625.223621;47.1306429;7.2406194;23.181001663208008;1673428625.2661781;12.632152557373047;-14.492796897888184;96.95921325683594
119;1673428625.4270806;47.1306429;7.2406194;23.589000701904297;1673428625.470612;12.391475677490234;-11.732023239135742;97.31768035888672
120;1673428625.6296313;47.1306429;7.2406194;23.994001388549805;1673428625.6758072;12.505144119262695;-13.800922393798828;97.01058197021484
121;1673428625.8265455;47.1306429;7.2406193;24.398000717163086;1673428625.8670936;12.394376754760742;-15.118155479431152;96.8790054321289
122;1673428626.0280054;47.1306429;7.2406193;24.802001953125;1673428626.0646377;12.628756523132324;-12.06139850616455;96.97810363769531
123;1673428626.223116;47.1306428;7.2406193;25.19900131225586;1673428626.268054;12.392837524414062;-13.228882789611816;97.0648193359375
124;1673428626.428695;47.1306428;7.2406193;25.599000930786133;1673428626.4753845;12.327219009399414;-16.038347244262695;96.66533660888672
125;1673428626.6410697;47.130642699999996;7.240619199999999;25.999000549316406;1673428626.684551;12.351634979248047;-12.899660110473633;97.0059585571289
126;1673428626.842825;47.130642699999996;7.240619199999999;26.400001525878906;1673428626.8794432;12.479291915893555;-12.827018737792969;96.96434020996094
127;1673428627.037869;47.1306428;7.240619199999999;26.801000595092773;1673428627.0793962;12.391020774841309;-15.551278114318848;96.85649871826172
128;1673428627.2245855;47.1306428;7.240619199999999;27.202001571655273;1673428627.2631912;12.40746784210205;-13.751169204711914;96.94772338867188
129;1673428627.4429667;47.1306428;7.2406193;27.597002029418945;1673428627.483194;12.561631202697754;-11.976780891418457;97.0460205078125
130;1673428627.658207;47.1306429;7.2406193;27.999000549316406;1673428627.698751;12.498640060424805;-14.872068405151367;96.71894073486328
131;1673428627.8451822;47.1306428;7.2406193;28.405000686645508;1673428627.884364;12.465668678283691;-14.219167709350586;96.88629150390625
132;1673428628.0325155;47.1306428;7.2406193;28.81100082397461;1673428628.0761087;12.603991508483887;-11.813203811645508;97.16004943847656
133;1673428628.2687573;47.1306428;7.2406193;29.21200180053711;1673428628.307815;12.445337295532227;-14.07944393157959;96.85579681396484
134;1673428628.4855273;47.1306429;7.2406193;29.613000869750977;1673428628.52652;12.500855445861816;-14.665972709655762;96.883056640625
135;1673428628.676945;47.1306428;7.2406193;30.023000717163086;1673428628.7091525;12.511056900024414;-11.613133430480957;97.1491928100586
136;1673428628.8425288;47.1306428;7.2406193;30.422000885009766;1673428628.883086;12.342557907104492;-13.060990333557129;97.08777618408203
137;1673428629.0291777;47.130642699999996;7.2406193;30.827001571655273;1673428629.079597;12.532005310058594;-15.633461952209473;96.7427978515625
138;1673428629.2460158;47.1306425;7.2406193;31.229001998901367;1673428629.2919772;12.58384895324707;-12.643388748168945;97.11085510253906
139;1673428629.4573226;47.1306425;7.2406193;31.630001068115234;1673428629.4934673;12.48862075805664;-13.267273902893066;96.87134552001953
140;1673428629.662234;47.1306425;7.2406194;32.031002044677734;1673428629.7018003;12.538052558898926;-15.627309799194336;96.82699584960938
141;1673428629.8478162;47.1306425;7.2406194;32.43300247192383;1673428629.889368;12.6331148147583;-13.623028755187988;96.8635025024414
142;1673428630.0454574;47.130642599999995;7.2406194;32.83000183105469;1673428630.083091;12.676688194274902;-11.955222129821777;97.00821685791016
143;1673428630.241456;47.130642599999995;7.2406194;33.23100280761719;1673428630.2831557;12.325843811035156;-14.97712230682373;96.9083251953125
144;1673428630.4421744;47.1306425;7.240619499999999;33.63600158691406;1673428630.4778638;12.70686149597168;-14.522109985351562;96.97035217285156
145;1673428630.634649;47.1306425;7.240619499999999;34.038002014160156;1673428630.691317;12.813944816589355;-11.937541961669922;97.20481872558594
146;1673428630.849987;47.130642599999995;7.2406196;34.44000244140625;1673428630.9224343;12.739435195922852;-14.159834861755371;96.82853698730469
147;1673428631.076156;47.130642599999995;7.2406197;34.84300231933594;1673428631.111382;12.753791809082031;-14.941802978515625;96.82815551757812
148;1673428631.2526605;47.130642599999995;7.2406197;35.24700164794922;1673428631.294234;12.93106746673584;-12.00649642944336;97.1186294555664
149;1673428631.464719;47.130642599999995;7.2406197;35.64200210571289;1673428631.5023675;12.639464378356934;-12.99905014038086;97.17559051513672
150;1673428631.6550286;47.130642599999995;7.2406197;36.04300308227539;1673428631.688737;12.678739547729492;-15.862532615661621;96.63079071044922
151;1673428631.836729;47.1306425;7.2406197;36.44600296020508;1673428631.8821695;12.840694427490234;-13.268845558166504;96.86325073242188
152;1673428632.0388403;47.130642599999995;7.2406197;36.84700012207031;1673428632.083553;12.911489486694336;-12.407751083374023;97.09052276611328
153;1673428632.2394438;47.130642699999996;7.2406197;37.24700164794922;1673428632.2821674;12.674419403076172;-15.154659271240234;96.8700942993164
154;1673428632.4360948;47.130642699999996;7.2406197;37.64400100708008;1673428632.4805694;12.799285888671875;-13.406120300292969;97.08119201660156
155;1673428632.6362798;47.1306428;7.2406197;38.03300094604492;1673428632.6768477;12.858195304870605;-11.41030216217041;97.17908477783203
156;1673428632.8277385;47.1306429;7.2406197;38.43100357055664;1673428632.8667796;12.602288246154785;-14.277650833129883;96.8570556640625
157;1673428633.033355;47.1306428;7.2406196;38.83000183105469;1673428633.074502;12.473033905029297;-14.18033218383789;96.84965515136719
158;1673428633.2376723;47.1306428;7.2406196;39.22500228881836;1673428633.2832506;12.742387771606445;-11.264875411987305;97.20743560791016
159;1673428633.4346142;47.1306428;7.2406196;39.62300109863281;1673428633.474741;12.523579597473145;-14.01632022857666;97.01675415039062
160;1673428633.6396065;47.1306428;7.2406197;40.02000045776367;1673428633.6855395;12.690725326538086;-14.991364479064941;96.9530029296875
161;1673428633.84752;47.130642699999996;7.2406197;40.41600036621094;1673428633.8901417;12.80188274383545;-11.69736385345459;97.09716796875
162;1673428634.0504837;47.130642599999995;7.2406197;40.801002502441406;1673428634.091633;12.676344871520996;-13.444745063781738;96.9818344116211
163;1673428634.2447133;47.1306425;7.2406197;41.194000244140625;1673428634.2826734;12.723596572875977;-15.6857271194458;96.73634338378906
164;1673428634.4362738;47.1306424;7.2406197;41.58700180053711;1673428634.4792585;12.903332710266113;-12.423103332519531;97.10098266601562
165;1673428634.6319296;47.1306424;7.2406197;41.98100280761719;1673428634.6754184;12.88064193725586;-13.063518524169922;97.03620910644531
166;1673428634.8366184;47.1306425;7.240619799999999;42.37600326538086;1673428634.87487;12.853408813476562;-15.56788158416748;96.69512176513672
167;1673428635.0456455;47.1306425;7.240619799999999;42.772003173828125;1673428635.086694;12.9738130569458;-13.234665870666504;96.90088653564453
168;1673428635.246038;47.130642599999995;7.2406197;43.16100311279297;1673428635.3066154;12.742584228515625;-11.817694664001465;97.02782440185547
169;1673428635.4539864;47.130642699999996;7.2406197;43.55900192260742;1673428635.497495;12.705256462097168;-14.593847274780273;96.94717407226562
170;1673428635.6602068;47.130642699999996;7.2406196;43.96200180053711;1673428635.6993804;12.768155097961426;-14.037694931030273;96.81016540527344
171;1673428635.889489;47.130642699999996;7.2406196;44.36300277709961;1673428635.9398146;12.836852073669434;-11.41944694519043;97.1318359375
172;1673428636.1038482;47.130642699999996;7.2406196;44.76300048828125;1673428636.1409364;12.69140911102295;-13.952141761779785;97.06023406982422
173;1673428636.263065;47.1306428;7.2406196;45.16200256347656;1673428636.3070643;12.83897876739502;-14.49640941619873;97.11046600341797
174;1673428636.4593089;47.130642699999996;7.2406197;45.55800247192383;1673428636.49507;12.90185260772705;-11.22608757019043;97.11255645751953
175;1673428636.644219;47.130642599999995;7.2406197;45.94400405883789;1673428636.6828299;12.732070922851562;-13.303154945373535;97.09793090820312
176;1673428636.823886;47.1306425;7.2406197;46.3380012512207;1673428636.867045;12.81321907043457;-15.566804885864258;96.81664276123047
177;1673428637.0184226;47.1306424;7.2406197;46.73500061035156;1673428637.0633924;13.052741050720215;-12.463897705078125;97.16272735595703
178;1673428637.2251368;47.1306424;7.2406197;47.13200378417969;1673428637.271995;12.924890518188477;-12.880843162536621;97.09429931640625
179;1673428637.4309967;47.1306425;7.2406197;47.5260009765625;1673428637.4784317;12.982647895812988;-15.631937026977539;96.8239517211914
180;1673428637.625114;47.1306425;7.2406197;47.919002532958984;1673428637.6631944;13.113463401794434;-12.77810287475586;97.07306671142578
181;1673428637.819022;47.130642599999995;7.240619799999999;48.2910041809082;1673428637.8669965;12.990433692932129;-12.869512557983398;97.17803192138672
182;1673428638.048329;47.130642599999995;7.240619799999999;48.62200164794922;1673428638.083499;12.904562950134277;-15.60930061340332;96.46516418457031
183;1673428638.2429926;47.1306425;7.2406198999999996;48.90400314331055;1673428638.285029;12.886209487915039;-13.536320686340332;96.64925384521484
184;1673428638.4519477;47.1306425;7.24062;49.1410026550293;1673428638.4980102;13.049166679382324;-11.388352394104004;97.2827377319336
185;1673428638.6466408;47.1306424;7.2406201;49.3390007019043;1673428638.6878684;18.268123626708984;-7.987590789794922;97.766845703125
186;1673428638.857882;47.1306419;7.240619799999999;49.50700378417969;1673428638.9000814;32.286643981933594;16.81884002685547;108.07206726074219
187;1673428639.0593646;47.130640199999995;7.2406178;49.656002044677734;1673428639.0994313;36.440670013427734;39.19645309448242;119.0225830078125
188;1673428639.255004;47.1306362;7.240612499999999;49.76900100708008;1673428639.296562;32.549739837646484;51.722164154052734;125.50387573242188
189;1673428639.4482274;47.1306295;7.2406035;49.85700225830078;1673428639.4887846;20.038253784179688;58.49542999267578;134.32928466796875
190;1673428639.6575735;47.130620099999994;7.240591299999999;49.91400146484375;1673428639.6989934;1.931717872619629;54.998374938964844;146.88417053222656
191;1673428639.8487484;47.1306088;7.2405767999999995;49.95000076293945;1673428639.8919172;-18.293561935424805;49.578487396240234;160.0608367919922
192;1673428640.0323038;47.1305957;7.2405605;49.97200393676758;1673428640.0749915;-33.344566345214844;45.3360710144043;171.3003692626953
193;1673428640.2512727;47.130581;7.2405428;49.97700119018555;1673428640.3328238;-42.25779342651367;39.950443267822266;-176.1857452392578
194;1673428640.4800868;47.1305646;7.2405235;49.97100067138672;1673428640.5252237;-48.92282485961914;35.050785064697266;-165.36441040039062
195;1673428640.683118;47.1305471;7.2405024;49.95100402832031;1673428640.7295685;-50.89884567260742;28.968313217163086;-155.4593048095703
196;1673428640.8767717;47.1305286;7.2404798999999995;49.9010009765625;1673428640.9153786;-45.861080169677734;22.746627807617188;-149.41946411132812
197;1673428641.0625403;47.130509599999996;7.2404565;49.83400344848633;1673428641.1056097;-45.03022003173828;19.021493911743164;-143.786376953125
198;1673428641.2525167;47.1304903;7.2404323999999995;49.77400207519531;1673428641.292534;-46.363685607910156;15.850868225097656;-136.8798065185547
199;1673428641.4418883;47.130471;7.240407899999999;49.733001708984375;1673428641.4829898;-45.24242401123047;10.715654373168945;-128.88894653320312
200;1673428641.6353762;47.130451799999996;7.240383;49.70500183105469;1673428641.6737182;-45.29075622558594;6.586513042449951;-127.73661804199219
201;1673428641.8360736;47.1304326;7.2403581;49.67500305175781;1673428641.8819208;-44.19374084472656;6.549885272979736;-131.25254821777344
202;1673428642.0526445;47.1304132;7.2403333;49.660003662109375;1673428642.094613;-44.99802017211914;8.058810234069824;-133.34197998046875
203;1673428642.2522118;47.1303937;7.2403086;49.665000915527344;1673428642.2906246;-47.3432502746582;9.67730712890625;-134.0954132080078
204;1673428642.4406054;47.130373899999995;7.2402839;49.68600082397461;1673428642.4825716;-48.353126525878906;10.839362144470215;-134.22659301757812
205;1673428642.6468372;47.130353899999996;7.240259;49.7140007019043;1673428642.690742;-48.80172348022461;11.680133819580078;-134.19403076171875
206;1673428642.8546772;47.130333799999995;7.2402337;49.73800277709961;1673428642.8985975;-48.558616638183594;12.15389633178711;-134.07330322265625
207;1673428643.0580382;47.130313699999995;7.2402082;49.746002197265625;1673428643.0941656;-46.97311782836914;12.031949996948242;-133.89340209960938
208;1673428643.246529;47.130293599999995;7.240182399999999;49.759002685546875;1673428643.2856407;-46.48137283325195;12.254402160644531;-134.02288818359375
209;1673428643.4500966;47.130273599999995;7.240156499999999;49.77700424194336;1673428643.4959686;-46.9755973815918;12.53968334197998;-134.0833740234375
210;1673428643.6731493;47.130253599999996;7.240130499999999;49.803001403808594;1673428643.7242024;-47.919158935546875;12.803349494934082;-134.02157592773438
211;1673428643.8910136;47.1302336;7.240104199999999;49.8280029296875;1673428643.929198;-48.231876373291016;12.828737258911133;-133.89016723632812
212;1673428644.1253407;47.1302137;7.2400778;49.849002838134766;1673428644.158776;-47.66331481933594;12.620767593383789;-133.8057098388672
213;1673428644.303913;47.1301938;7.2400512;49.86100387573242;1673428644.3410213;-47.15045928955078;12.436629295349121;-133.8106231689453
214;1673428644.4771957;47.130174;7.2400246;49.85600280761719;1673428644.516283;-45.93925476074219;12.197050094604492;-133.83155822753906
215;1673428644.690325;47.1301542;7.2399979;49.85100173950195;1673428644.7313595;-45.36470031738281;12.0704984664917;-133.974365234375
216;1673428644.8815682;47.1301346;7.239971199999999;49.85100173950195;1673428644.922682;-45.9973258972168;12.29693603515625;-134.10830688476562
217;1673428645.0778534;47.130114999999996;7.2399447;49.855003356933594;1673428645.118852;-46.94941711425781;12.487565040588379;-134.0745086669922
218;1673428645.2674818;47.130095399999995;7.2399181;49.86300277709961;1673428645.3125482;-47.47845458984375;12.514596939086914;-134.02340698242188
219;1673428645.4564734;47.1300759;7.2398913;49.86600112915039;1673428645.5003922;-47.18963623046875;12.363250732421875;-133.96080017089844
220;1673428645.6558156;47.1300563;7.2398644999999995;49.858001708984375;1673428645.697897;-46.223365783691406;12.012311935424805;-133.89678955078125
221;1673428645.8593044;47.1300367;7.2398378;49.85300064086914;1673428645.8954165;-45.834293365478516;12.014174461364746;-134.0380401611328
222;1673428646.048816;47.1300173;7.2398112;49.85000228881836;1673428646.0917606;-46.484657287597656;12.180685043334961;-134.08338928222656
223;1673428646.2481964;47.1299978;7.2397845;49.84600067138672;1673428646.2883406;-46.86384201049805;12.231125831604004;-134.00538635253906
224;1673428646.449917;47.1299783;7.2397579;49.84300231933594;1673428646.493214;-46.70893096923828;12.138229370117188;-133.95867919921875
225;1673428646.648687;47.1299588;7.2397313;49.84800338745117;1673428646.6899273;-46.8762321472168;12.155765533447266;-133.99993896484375
226;1673428646.8517227;47.1299394;7.2397046;49.855003356933594;1673428646.8939373;-47.35190200805664;12.257349014282227;-133.96340942382812
227;1673428647.0506456;47.1299199;7.239677899999999;49.85300064086914;1673428647.0917828;-47.1927375793457;12.117948532104492;-133.82247924804688
228;1673428647.2441547;47.1299004;7.2396512;49.84800338745117;1673428647.2911181;-46.565086364746094;11.929387092590332;-133.81048583984375
229;1673428647.4513845;47.129881;7.2396245;49.84400177001953;1673428647.4914694;-46.36946105957031;11.96721363067627;-133.86795043945312
230;1673428647.643349;47.1298615;7.239597799999999;49.84100341796875;1673428647.6905637;-46.899715423583984;12.01709270477295;-133.8251495361328
231;1673428647.8484006;47.129842;7.2395711;49.84100341796875;1673428647.891385;-47.0894889831543;12.059380531311035;-133.7846221923828
232;1673428648.0479352;47.129822499999996;7.2395444;49.8390007019043;1673428648.090498;-46.99556350708008;11.964131355285645;-133.71707153320312
233;1673428648.2440944;47.129802999999995;7.2395176999999995;49.83400344848633;1673428648.2813375;-46.749298095703125;11.868575096130371;-133.68516540527344
234;1673428648.4246259;47.129783599999996;7.239490999999999;49.829002380371094;1673428648.4652572;-46.518489837646484;11.761551856994629;-133.66885375976562
235;1673428648.6613667;47.129764099999996;7.2394643;49.8280029296875;1673428648.7005572;-46.63093185424805;11.787629127502441;-133.67677307128906
236;1673428648.8921103;47.129744699999996;7.2394376;49.829002380371094;1673428648.9313242;-46.959938049316406;11.813122749328613;-133.62118530273438
237;1673428649.0978675;47.129725199999996;7.239411;49.829002380371094;1673428649.1364768;-46.93886947631836;11.787290573120117;-133.56161499023438
238;1673428649.2742157;47.129705699999995;7.239384299999999;49.827003479003906;1673428649.3143463;-46.808998107910156;11.742633819580078;-133.49929809570312
239;1673428649.4635015;47.129686199999995;7.2393575;49.829002380371094;1673428649.5061486;-46.75777816772461;11.677745819091797;-133.43882751464844
240;1673428649.6450095;47.1296667;7.239330799999999;49.83400344848633;1673428649.687951;-46.889244079589844;11.676302909851074;-133.40089416503906
241;1673428649.838321;47.1296472;7.239304;49.84100341796875;1673428649.8783367;-47.10466003417969;11.638564109802246;-133.32054138183594
242;1673428650.045159;47.1296277;7.2392772;49.84700393676758;1673428650.1006687;-47.01213073730469;11.569344520568848;-133.22476196289062
243;1673428650.2645824;47.1296082;7.2392503999999995;49.85100173950195;1673428650.3088937;-46.8786735534668;11.48070240020752;-133.17620849609375
244;1673428650.4722342;47.1295887;7.2392236;49.855003356933594;1673428650.5123904;-46.9132080078125;11.422605514526367;-133.0749053955078
245;1673428650.6845527;47.1295692;7.2391969;49.85600280761719;1673428650.7275345;-46.85755920410156;11.345171928405762;-132.997314453125
246;1673428650.8924568;47.1295497;7.2391701;49.86100387573242;1673428650.9352436;-46.88786697387695;11.310722351074219;-132.92494201660156
247;1673428651.089886;47.1295301;7.239143299999999;49.868003845214844;1673428651.1354609;-47.135013580322266;11.258646011352539;-132.7788543701172
248;1673428651.3275678;47.129510599999996;7.2391165;49.871002197265625;1673428651.3686283;-47.09538269042969;11.162550926208496;-132.65066528320312
249;1673428651.5482535;47.129490999999994;7.2390897;49.87600326538086;1673428651.584367;-47.013389587402344;11.071290016174316;-132.51995849609375
250;1673428651.7215517;47.1294715;7.2390628999999995;49.88300323486328;1673428651.7650294;-47.20119094848633;10.979312896728516;-132.3780975341797
251;1673428651.906507;47.1294519;7.239036;49.8900032043457;1673428651.9471767;-47.34886169433594;10.883110046386719;-132.19590759277344
252;1673428652.0954044;47.1294324;7.2390091;49.89500427246094;1673428652.1359675;-47.17173767089844;10.681605339050293;-131.99566650390625
253;1673428652.2832263;47.1294128;7.2389822;49.9010009765625;1673428652.3193383;-47.02440643310547;11.477457046508789;-132.0324249267578
254;1673428652.467673;47.1293933;7.2389551999999995;49.91100311279297;1673428652.506712;-46.60224151611328;14.779216766357422;-132.20382690429688
255;1673428652.657622;47.129374;7.238927899999999;49.92500305175781;1673428652.6996262;-46.93893051147461;14.901469230651855;-130.92340087890625
256;1673428652.8715193;47.129354899999996;7.2389005;49.93600082397461;1673428652.916458;-47.3985481262207;14.340280532836914;-130.407470703125
257;1673428653.1119187;47.129336099999996;7.2388727;49.94400405883789;1673428653.1613116;-46.66920852661133;15.3916597366333;-130.22488403320312
258;1673428653.299502;47.1293176;7.2388447;49.952003479003906;1673428653.3327668;-46.21889114379883;16.57430648803711;-129.8336944580078
259;1673428653.484281;47.129299499999995;7.238816399999999;49.96200180053711;1673428653.5233073;-46.20988082885742;17.832422256469727;-129.46142578125
260;1673428653.6850264;47.1292818;7.2387878;49.97300338745117;1673428653.7240582;-44.44244384765625;19.11179542541504;-128.68338012695312
261;1673428653.8790622;47.1292648;7.238759;49.9890022277832;1673428653.9221618;-35.77379608154297;18.303407669067383;-128.1270751953125
262;1673428654.109025;47.129248499999996;7.2387308;50.02000427246094;1673428654.1454213;-19.310123443603516;19.30095672607422;-130.5181884765625
263;1673428654.2951467;47.129233199999994;7.2387041;50.048004150390625;1673428654.3342242;-2.6166012287139893;16.66871452331543;-133.14871215820312
264;1673428654.5187154;47.129219299999995;7.238680199999999;50.06800079345703;1673428654.5580204;9.232391357421875;13.773295402526855;-135.5177001953125
265;1673428654.698537;47.129207099999995;7.2386596999999995;50.08500289916992;1673428654.7318752;16.505399703979492;11.601228713989258;-135.6016845703125
266;1673428654.8596263;47.1291966;7.238643199999999;50.086002349853516;1673428654.8968377;20.14655113220215;13.077086448669434;-137.17105102539062
267;1673428655.0595126;47.1291878;7.238630199999999;50.077003479003906;1673428655.101499;18.334762573242188;15.566999435424805;-138.27371215820312
268;1673428655.2636373;47.1291806;7.2386203;50.07400131225586;1673428655.3066814;15.671442985534668;20.844438552856445;-136.99676513671875
269;1673428655.4592915;47.1291748;7.2386126;50.073001861572266;1673428655.5022354;12.257189750671387;21.63032341003418;-135.33575439453125
270;1673428655.6613648;47.1291702;7.2386063;50.07600402832031;1673428655.703455;7.228271007537842;20.333873748779297;-133.63995361328125
271;1673428655.8555274;47.129166399999995;7.238601;50.08400344848633;1673428655.8975182;0.8953256011009216;21.385480880737305;-132.93972778320312
272;1673428656.0539498;47.129163299999995;7.238596299999999;50.092002868652344;1673428656.0949845;-2.30881404876709;21.606624603271484;-132.8134307861328
273;1673428656.2479694;47.129160399999996;7.2385921;50.09600067138672;1673428656.290912;-4.828885555267334;21.258502960205078;-132.81072998046875
274;1673428656.4531822;47.1291577;7.2385882;50.09800338745117;1673428656.4971216;-5.524689197540283;19.508956909179688;-131.93618774414062
275;1673428656.6470246;47.1291551;7.2385844;50.09600067138672;1673428656.6958258;-4.397243499755859;17.739347457885742;-131.07705688476562
276;1673428656.8564339;47.1291527;7.2385806;50.09600067138672;1673428656.8993838;-16.104328155517578;16.79944610595703;-135.9512481689453
277;1673428657.064186;47.129149899999994;7.2385762;50.147003173828125;1673428657.1026535;-32.09456253051758;16.482746124267578;-139.55130004882812
278;1673428657.2633662;47.129145799999996;7.2385702;50.24700164794922;1673428657.3071475;-25.79494857788086;8.42266845703125;-137.3694305419922
279;1673428657.4730778;47.129140299999996;7.2385633;50.42500305175781;1673428657.5151644;-18.93105697631836;6.529532432556152;-136.14039611816406
280;1673428657.660054;47.129133599999996;7.2385565;50.68300247192383;1673428657.7019944;-19.037620544433594;4.241114616394043;-134.79525756835938
281;1673428657.8696644;47.1291261;7.238549399999999;51.00200271606445;1673428657.9155345;-33.98381423950195;21.4592342376709;-136.16932678222656
282;1673428658.0972207;47.1291179;7.2385407;51.36100387573242;1673428658.1455817;-41.144168853759766;27.06167984008789;-135.77328491210938
283;1673428658.2906594;47.129109;7.2385288999999995;51.74500274658203;1673428658.32775;-36.15058135986328;26.094316482543945;-135.0762939453125
284;1673428658.4655418;47.1290999;7.238515199999999;52.130001068115234;1673428658.5056956;-33.188480377197266;22.218963623046875;-134.94219970703125
285;1673428658.6949856;47.1290907;7.238499999999999;52.509002685546875;1673428658.7312589;-29.789335250854492;19.31036949157715;-135.7799835205078
286;1673428658.886274;47.129081299999996;7.238484199999999;52.887001037597656;1673428658.9303277;-26.257915496826172;15.55340576171875;-135.65777587890625
287;1673428659.0955374;47.1290717;7.2384683;53.26900100708008;1673428659.1419787;-22.747594833374023;13.898637771606445;-136.41725158691406
288;1673428659.2829704;47.129062;7.2384526;53.65200424194336;1673428659.3239796;-19.880462646484375;13.40045166015625;-136.7872314453125
289;1673428659.4766614;47.1290523;7.238437599999999;54.03600311279297;1673428659.519614;-18.76872444152832;14.224074363708496;-137.38861083984375
290;1673428659.6652608;47.1290425;7.2384233;54.42000198364258;1673428659.7057297;-18.267480850219727;15.55158519744873;-137.72808837890625
291;1673428659.867884;47.129032599999995;7.2384096;54.80600357055664;1673428659.9158626;-19.229917526245117;16.33080291748047;-137.78233337402344
292;1673428660.0701215;47.1290228;7.2383964999999995;55.19700241088867;1673428660.111112;-20.590057373046875;16.19451332092285;-137.57620239257812
293;1673428660.2912376;47.129013099999995;7.238383499999999;55.58900451660156;1673428660.3354726;-21.793407440185547;15.097920417785645;-137.15139770507812
294;1673428660.4808404;47.129003399999995;7.2383706;55.980003356933594;1673428660.5228615;-22.99761199951172;15.058740615844727;-136.95114135742188
295;1673428660.677863;47.128993699999995;7.238357799999999;56.371002197265625;1673428660.719815;-23.817228317260742;15.55296516418457;-136.96536254882812
296;1673428660.8702564;47.128983999999996;7.238344799999999;56.7660026550293;1673428660.9161339;-24.001264572143555;17.416824340820312;-137.083251953125
297;1673428661.0782452;47.128974199999995;7.2383317;57.16400146484375;1673428661.1235247;-24.01356315612793;18.89759635925293;-137.2633514404297
298;1673428661.2913136;47.1289644;7.2383184;57.564002990722656;1673428661.3363595;-24.159574508666992;19.21797752380371;-137.11135864257812
299;1673428661.5119226;47.1289545;7.238304899999999;57.967002868652344;1673428661.5456786;-24.116426467895508;18.902267456054688;-136.95823669433594
300;1673428661.69571;47.1289446;7.2382914;58.371002197265625;1673428661.7396224;-24.27720832824707;17.350311279296875;-136.74105834960938
301;1673428661.8936036;47.128934799999996;7.238277699999999;58.7760009765625;1673428661.9345915;-24.021974563598633;15.994678497314453;-136.53956604003906
302;1673428662.0900373;47.1289249;7.238264;59.18000411987305;1673428662.127191;-23.82488441467285;14.987618446350098;-136.48104858398438
303;1673428662.284436;47.128915;7.2382501999999995;59.58000183105469;1673428662.3273973;-23.56011390686035;15.366850852966309;-136.63998413085938
304;1673428662.4897602;47.1289051;7.238236499999999;59.97900390625;1673428662.5347064;-22.933076858520508;16.862499237060547;-136.86622619628906
305;1673428662.6881967;47.128895199999995;7.238222899999999;60.37800216674805;1673428662.731096;-22.81974220275879;17.981178283691406;-137.16871643066406
306;1673428662.883582;47.1288852;7.2382094;60.776004791259766;1673428662.927819;-22.756671905517578;19.003936767578125;-137.1835174560547
307;1673428663.0828917;47.128875199999996;7.238195999999999;61.17200469970703;1673428663.127964;-23.103561401367188;19.428329467773438;-137.2437744140625
308;1673428663.301455;47.1288652;7.2381825;61.570003509521484;1673428663.3435745;-23.570556640625;18.122703552246094;-136.91990661621094
309;1673428663.5064244;47.1288553;7.2381689;61.970001220703125;1673428663.5386374;-23.677669525146484;17.251354217529297;-136.66392517089844
310;1673428663.6931627;47.1288455;7.2381553;62.371002197265625;1673428663.7400324;-23.82040786743164;16.165666580200195;-136.56849670410156
311;1673428663.8943357;47.128835699999996;7.238141499999999;62.768001556396484;1673428663.9316287;-23.942039489746094;15.654768943786621;-136.57237243652344
312;1673428664.0840924;47.1288258;7.2381277;63.163002014160156;1673428664.1212783;-23.81005859375;15.138203620910645;-136.48182678222656
313;1673428664.2732036;47.128816;7.2381139;63.561004638671875;1673428664.3133824;-23.73622703552246;15.21860122680664;-136.59771728515625
314;1673428664.4610634;47.1288061;7.2381001;63.9630012512207;1673428664.502306;-23.465166091918945;15.62272834777832;-136.59678649902344
315;1673428664.6670895;47.1287962;7.238086399999999;64.36300659179688;1673428664.7113018;-23.19351577758789;16.35624885559082;-136.7261199951172
316;1673428664.8812094;47.128786299999994;7.238072799999999;64.76100158691406;1673428664.923224;-23.218181610107422;17.27437973022461;-136.97482299804688
317;1673428665.0893805;47.1287764;7.2380591;65.16100311279297;1673428665.1294334;-22.99186897277832;17.717487335205078;-137.00888061523438
318;1673428665.297501;47.1287665;7.238045499999999;65.56000518798828;1673428665.3375168;-23.056543350219727;18.300891876220703;-137.0921173095703
319;1673428665.4812155;47.128756599999996;7.238031899999999;65.95700073242188;1673428665.5248141;-23.373674392700195;18.58730697631836;-137.15968322753906
320;1673428665.685575;47.1287467;7.2380184;66.3550033569336;1673428665.7277193;-23.377897262573242;18.560710906982422;-137.14059448242188
321;1673428665.9006693;47.1287368;7.2380048;66.75300598144531;1673428665.9427588;-23.477121353149414;18.4915714263916;-137.16819763183594
322;1673428666.0918536;47.1287269;7.2379912;67.1520004272461;1673428666.1357698;-23.889516830444336;17.92440414428711;-137.07200622558594
323;1673428666.2959325;47.128716999999995;7.2379774999999995;67.55000305175781;1673428666.3349595;-23.738752365112305;17.300321578979492;-136.82383728027344
324;1673428666.4813488;47.1287071;7.2379639;67.94700622558594;1673428666.5223417;-24.09977912902832;16.59418487548828;-136.63424682617188
325;1673428666.675052;47.1286973;7.237950199999999;68.34700012207031;1673428666.720963;-24.15491485595703;16.11150550842285;-136.68572998046875
326;1673428666.883369;47.1286874;7.2379364;68.74600219726562;1673428666.9273937;-24.055631637573242;15.728901863098145;-136.58230590820312
327;1673428667.094551;47.128677499999995;7.2379226;69.14400482177734;1673428667.1394565;-23.98084831237793;15.442971229553223;-136.6155242919922
328;1673428667.2918293;47.1286676;7.2379089;69.54600524902344;1673428667.3379343;-24.16075897216797;15.498888969421387;-136.6387939453125
329;1673428667.4897518;47.1286577;7.2378952;69.94499969482422;1673428667.5287964;-23.885780334472656;15.921989440917969;-136.7062225341797
330;1673428667.6786094;47.128647699999995;7.2378814;70.34500122070312;1673428667.7256458;-23.698070526123047;16.442272186279297;-136.83262634277344
331;1673428667.9087925;47.1286378;7.2378678;70.74300384521484;1673428667.9508018;-23.74991226196289;16.929719924926758;-136.82518005371094
332;1673428668.108849;47.1286278;7.237854199999999;71.14300537109375;1673428668.1478994;-23.50462532043457;17.538225173950195;-136.89830017089844
333;1673428668.3003426;47.1286177;7.2378405;71.54100036621094;1673428668.3424501;-23.408771514892578;17.82054328918457;-136.9007568359375
334;1673428668.4987268;47.128607699999996;7.2378268;71.93700408935547;1673428668.5378366;-23.309371948242188;17.946380615234375;-136.90615844726562
335;1673428668.6957216;47.1285977;7.2378130999999994;72.33399963378906;1673428668.7406168;-23.578317642211914;18.2291316986084;-136.98167419433594
336;1673428668.8892748;47.1285878;7.2377994;72.72900390625;1673428668.9293332;-23.504465103149414;18.192209243774414;-136.9876251220703
337;1673428669.0944383;47.128578;7.2377857;73.1290054321289;1673428669.1374977;-23.831586837768555;18.11893653869629;-137.07235717773438
338;1673428669.326348;47.128568099999995;7.237771899999999;73.5320053100586;1673428669.3680038;-23.669267654418945;17.960874557495117;-137.08712768554688
339;1673428669.507156;47.1285582;7.2377581;73.93600463867188;1673428669.5512402;-23.62904930114746;17.77683448791504;-137.12271118164062
340;1673428669.74143;47.1285483;7.2377443999999995;74.34100341796875;1673428669.7783563;-23.57061004638672;17.769399642944336;-137.072509765625
341;1673428669.951918;47.1285384;7.237730699999999;74.74200439453125;1673428669.9934855;-23.60836410522461;17.695755004882812;-137.0677490234375
342;1673428670.168289;47.128528499999994;7.237717;75.14200592041016;1673428670.2133358;-23.760215759277344;17.629514694213867;-136.99380493164062
343;1673428670.369673;47.1285186;7.2377034;75.54400634765625;1673428670.400905;-23.806467056274414;17.700183868408203;-136.94239807128906
344;1673428670.5342128;47.1285087;7.2376898999999995;75.94300079345703;1673428670.5729384;-24.134567260742188;17.579944610595703;-136.89755249023438
345;1673428670.718134;47.128498799999996;7.2376762;76.34300231933594;1673428670.7596045;-24.41714859008789;17.46906852722168;-136.88902282714844
346;1673428670.9162602;47.1284889;7.2376625;76.74000549316406;1673428670.9597733;-24.44815444946289;17.39780616760254;-136.87049865722656
347;1673428671.1233885;47.1284789;7.2376488;77.13700103759766;1673428671.1600063;-24.23649024963379;17.40514373779297;-136.8721466064453
348;1673428671.2868366;47.128468999999996;7.237635;77.53500366210938;1673428671.333678;-24.169086456298828;17.207544326782227;-136.85214233398438
349;1673428671.4885888;47.1284591;7.2376213;77.93000030517578;1673428671.532658;-24.048812866210938;17.2236270904541;-136.8785400390625
350;1673428671.6983964;47.1284492;7.237607499999999;78.32400512695312;1673428671.7420976;-24.095422744750977;17.137845993041992;-136.8582305908203
351;1673428671.9294865;47.1284393;7.2375938;78.71900177001953;1673428671.9710367;-24.11700439453125;17.105806350708008;-136.8785400390625
352;1673428672.119228;47.128429399999995;7.2375799999999995;79.11700439453125;1673428672.154645;-23.99427032470703;17.211654663085938;-136.91172790527344
353;1673428672.3519936;47.1284195;7.2375662;79.51700592041016;1673428672.3852189;-23.989274978637695;17.141660690307617;-136.92926025390625
354;1673428672.5273464;47.1284096;7.2375525;79.91700744628906;1673428672.560738;-23.846107482910156;17.09429359436035;-136.9345245361328
355;1673428672.7377844;47.128399699999996;7.237538799999999;80.31500244140625;1673428672.7749534;-23.867835998535156;17.261600494384766;-136.9761962890625
356;1673428672.92405;47.1283898;7.2375251;80.71300506591797;1673428672.9613922;-23.98565101623535;17.149932861328125;-136.94911193847656
357;1673428673.1316679;47.1283799;7.2375115;81.11100006103516;1673428673.171346;-23.963932037353516;17.250892639160156;-136.93643188476562
358;1673428673.306474;47.128369899999996;7.2374978;81.50900268554688;1673428673.347474;-23.800514221191406;17.158668518066406;-136.95858764648438
359;1673428673.5316434;47.12836;7.2374841;81.9050064086914;1673428673.573821;-23.751590728759766;17.258930206298828;-136.94664001464844
360;1673428673.7684667;47.1283501;7.2374705;82.302001953125;1673428673.8016667;-23.706192016601562;17.40203857421875;-136.97314453125
361;1673428673.924264;47.128340099999996;7.2374567999999995;82.70500183105469;1673428673.9628754;-23.764650344848633;17.38861083984375;-136.9695281982422
362;1673428674.1127806;47.1283302;7.2374431999999995;83.10800170898438;1673428674.1420605;-23.92808723449707;17.257719039916992;-136.96299743652344
363;1673428674.3094044;47.1283203;7.2374296;83.50800323486328;1673428674.353877;-23.88980484008789;17.432506561279297;-136.9562530517578
364;1673428674.5059261;47.1283104;7.237416;83.9050064086914;1673428674.5441732;-23.84893798828125;17.233421325683594;-136.92721557617188
365;1673428674.7216487;47.128300499999995;7.2374024;84.29900360107422;1673428674.757772;-23.93874740600586;17.38103675842285;-136.9591522216797
366;1673428674.9111722;47.1282907;7.2373888;84.69100189208984;1673428674.9511988;-24.053775787353516;17.257877349853516;-136.94781494140625
367;1673428675.111983;47.1282808;7.2373752;85.0840072631836;1673428675.1500478;-24.05486488342285;17.280977249145508;-136.93243408203125
368;1673428675.3284378;47.1282709;7.2373616;85.47500610351562;1673428675.3668013;-24.078611373901367;17.337297439575195;-136.95611572265625
369;1673428675.528406;47.128260999999995;7.237348;85.86600494384766;1673428675.564525;-24.057758331298828;17.370676040649414;-136.9532012939453
370;1673428675.7257905;47.1282511;7.2373344;86.2560043334961;1673428675.7669837;-24.03743553161621;17.349111557006836;-136.95367431640625
371;1673428675.912042;47.1282412;7.2373207;86.64700317382812;1673428675.9531307;-24.02761459350586;17.313291549682617;-136.95611572265625
372;1673428676.1395059;47.128231199999995;7.2373071;87.04100036621094;1673428676.178759;-23.930526733398438;17.38825798034668;-136.94859313964844
373;1673428676.34644;47.1282213;7.2372933999999995;87.43600463867188;1673428676.383348;-23.993375778198242;17.333986282348633;-136.97531127929688
374;1673428676.5448887;47.1282114;7.2372798;87.83200073242188;1673428676.5826538;-23.886276245117188;17.264509201049805;-136.95172119140625
375;1673428676.7171504;47.128201499999996;7.237266099999999;88.2300033569336;1673428676.7555027;-23.956893920898438;17.22946548461914;-136.96290588378906
376;1673428676.9147048;47.1281916;7.237252499999999;88.6290054321289;1673428676.955716;-24.01336669921875;17.254941940307617;-136.9622802734375
377;1673428677.111022;47.1281817;7.2372388999999995;89.0260009765625;1673428677.1501753;-23.942304611206055;17.29644775390625;-136.96853637695312
378;1673428677.2964747;47.128171699999996;7.237225199999999;89.42000579833984;1673428677.3384757;-23.964941024780273;17.350027084350586;-136.97666931152344
379;1673428677.5054603;47.1281618;7.237211599999999;89.81100463867188;1673428677.548522;-23.852087020874023;17.244152069091797;-136.93511962890625
380;1673428677.7007291;47.1281518;7.237197999999999;90.2020034790039;1673428677.7446501;-23.8548526763916;17.326171875;-136.96006774902344
381;1673428677.9118998;47.128141899999996;7.237184399999999;90.59200286865234;1673428677.9480038;-23.977855682373047;17.311120986938477;-136.95765686035156
382;1673428678.1003633;47.128132;7.2371707999999995;90.98300170898438;1673428678.1394112;-23.98185157775879;17.44622230529785;-136.9778594970703
383;1673428678.2928698;47.1281221;7.2371573;91.37600708007812;1673428678.3339064;-24.019882202148438;17.37074089050293;-136.9423828125
384;1673428678.4970396;47.128112099999996;7.2371437;91.76800537109375;1673428678.5331507;-24.02785873413086;17.371694564819336;-136.9650421142578
385;1673428678.6972358;47.1281022;7.2371301;92.15900421142578;1673428678.7384229;-24.00614356994629;17.26007843017578;-136.92869567871094
386;1673428678.8859384;47.1280923;7.2371165;92.55000305175781;1673428678.933909;-24.025346755981445;17.280519485473633;-136.9502410888672
387;1673428679.099381;47.128082299999996;7.2371029;92.93700408935547;1673428679.1434984;-24.0745792388916;17.332571029663086;-136.9550323486328
388;1673428679.306444;47.1280724;7.2370893;93.3270034790039;1673428679.3474357;-23.868906021118164;17.219202041625977;-136.91525268554688
389;1673428679.4911585;47.1280624;7.2370757;93.72000122070312;1673428679.5321503;-24.115373611450195;17.22088050842285;-136.9661102294922
390;1673428679.6905723;47.128052499999995;7.237062099999999;94.11200714111328;1673428679.7358658;-23.982526779174805;17.21026039123535;-136.93557739257812
391;1673428679.899422;47.1280425;7.2370484;94.50200653076172;1673428679.9424527;-23.916454315185547;17.148988723754883;-136.9378204345703
392;1673428680.1066465;47.128032499999996;7.2370348;94.89300537109375;1673428680.1486192;-23.743223190307617;17.296009063720703;-136.9273223876953
393;1673428680.2953482;47.1280226;7.2370212;95.28700256347656;1673428680.3384867;-23.832502365112305;17.238662719726562;-136.94842529296875
394;1673428680.5004368;47.1280126;7.2370076999999995;95.6830062866211;1673428680.544531;-23.759401321411133;17.32358741760254;-136.91758728027344
395;1673428680.7402072;47.128002699999996;7.2369940999999995;96.08100128173828;1673428680.7867851;-23.877567291259766;17.266437530517578;-136.91702270507812
396;1673428680.95966;47.1279928;7.2369805;96.47900390625;1673428681.0006945;-24.200424194335938;17.171375274658203;-136.94981384277344
397;1673428681.1889222;47.1279828;7.236967;96.87500762939453;1673428681.2240577;-24.01215362548828;17.41107940673828;-136.92529296875
398;1673428681.3546166;47.127972899999996;7.236953499999999;97.27300262451172;1673428681.3897913;-24.027877807617188;17.405916213989258;-136.9130859375
399;1673428681.5250154;47.1279629;7.236939899999999;97.66900634765625;1673428681.5601523;-23.90909767150879;17.524877548217773;-136.89100646972656
400;1673428681.708629;47.1279529;7.2369264;98.06300354003906;1673428681.753525;-23.84708595275879;17.49045753479004;-136.88131713867188
401;1673428681.9244878;47.1279429;7.2369128;98.46200561523438;1673428681.964717;-23.884891510009766;17.510107040405273;-136.8876953125
402;1673428682.111132;47.127933;7.2368992;98.86100769042969;1673428682.1506913;-24.022823333740234;17.285564422607422;-136.88330078125
403;1673428682.3052871;47.1279231;7.2368855;99.25900268554688;1673428682.347643;-24.01902198791504;17.27027130126953;-136.89271545410156
404;1673428682.5337667;47.1279131;7.2368719;99.656005859375;1673428682.5797906;-23.690073013305664;17.326379776000977;-136.8586883544922
405;1673428682.7337847;47.1279032;7.2368583;100.052001953125;1673428682.7737885;-23.83294677734375;17.345962524414062;-136.88424682617188
406;1673428682.9361637;47.127893199999995;7.2368447;100.45100402832031;1673428682.9752412;-23.64900016784668;17.39483642578125;-136.86959838867188
407;1673428683.1559722;47.1278833;7.2368311;100.85000610351562;1673428683.2034347;-23.702821731567383;17.33993911743164;-136.8525848388672
408;1673428683.352538;47.1278733;7.2368174;101.24800109863281;1673428683.392145;-23.767900466918945;17.2969970703125;-136.86378479003906
409;1673428683.5420468;47.1278635;7.2368038;101.64600372314453;1673428683.5826185;-23.980655670166016;17.16893196105957;-136.89910888671875
410;1673428683.7373786;47.127853599999995;7.2367903;102.04300689697266;1673428683.7754495;-24.047800064086914;17.213441848754883;-136.8942108154297
411;1673428683.9398272;47.1278438;7.2367767;102.44300842285156;1673428683.9828813;-23.99746322631836;17.204940795898438;-136.85748291015625
412;1673428684.145541;47.1278339;7.2367631;102.84400177001953;1673428684.1802547;-24.122156143188477;17.189472198486328;-136.87469482421875
413;1673428684.343279;47.127824;7.236749499999999;103.24500274658203;1673428684.386316;-24.09962272644043;17.246002197265625;-136.8400115966797
414;1673428684.5345724;47.127814;7.236735899999999;103.64200592041016;1673428684.5775228;-24.13506317138672;17.33662223815918;-136.86656188964844
415;1673428684.7224934;47.1278042;7.236722299999999;104.03900146484375;1673428684.765594;-24.128719329833984;17.166898727416992;-136.85385131835938
416;1673428684.9589565;47.1277942;7.236708699999999;104.43600463867188;1673428684.9972222;-23.977502822875977;17.308589935302734;-136.8609619140625
417;1673428685.1284924;47.127784299999995;7.236695;104.83600616455078;1673428685.1675348;-24.034421920776367;17.275638580322266;-136.84059143066406
418;1673428685.3403351;47.1277743;7.236681399999999;105.23200225830078;1673428685.3784063;-23.92726707458496;17.186067581176758;-136.8437957763672
419;1673428685.560229;47.1277644;7.2366677;105.62500762939453;1673428685.6025515;-23.81248664855957;17.346092224121094;-136.842529296875
