;pos_time;latitude;longitude;altitude;alt_time;pitch;roll;yaw
0;1673428254.7321832;47.1306425;7.240619799999999;-0.0430000014603138;1673428254.734142;0.1813589185476303;0.02185775525867939;89.895263671875
1;1673428254.906879;47.1306425;7.2406197;-0.0430000014603138;1673428254.9107702;0.51690274477005;-0.1792081892490387;90.00241088867188
2;1673428255.1070154;47.1306425;7.240619499999999;-0.04400000348687172;1673428255.109944;0.4682394862174988;-0.3197706341743469;89.92965698242188
3;1673428255.3170142;47.1306425;7.2406196;-0.046000003814697266;1673428255.3209338;0.20894210040569305;-0.21425652503967285;89.94054412841797
4;1673428255.5270593;47.1306425;7.2406197;-0.04400000348687172;1673428255.5290115;-0.06879741698503494;-0.2742173671722412;90.03117370605469
5;1673428255.733447;47.1306424;7.240619799999999;-0.04400000348687172;1673428255.7363944;-0.016782600432634354;-0.29794880747795105;90.10584259033203
6;1673428255.9369078;47.1306425;7.2406198999999996;-0.046000003814697266;1673428255.939837;0.013999925926327705;-0.10725459456443787;90.03338623046875
7;1673428256.1320024;47.1306424;7.24062;-0.04800000041723251;1673428256.1349194;0.031709738075733185;-0.2202664315700531;89.90245056152344
8;1673428256.324995;47.1306424;7.2406198999999996;-0.05000000074505806;1673428256.3269534;0.270589143037796;-0.11988862603902817;89.8329086303711
9;1673428256.5341234;47.1306423;7.2406198999999996;0.0;1673428256.5380173;-0.06578101217746735;0.47277456521987915;89.93682098388672
10;1673428256.7406862;47.1306423;7.2406198999999996;-0.006000000052154064;1673428256.7436137;-0.1429344117641449;0.8543868660926819;89.85713958740234
11;1673428256.9687529;47.1306423;7.2406198999999996;-0.010000000707805157;1673428256.9707067;-0.13849472999572754;0.6128326058387756;89.77346801757812
12;1673428257.1576269;47.1306423;7.24062;-0.012000000104308128;1673428257.159579;-0.2260885089635849;0.5789403319358826;89.92393493652344
13;1673428257.3568845;47.1306423;7.24062;-0.01100000087171793;1673428257.359828;-0.17914171516895294;0.5895510315895081;89.85297393798828
14;1673428257.5606892;47.1306424;7.24062;-0.00800000037997961;1673428257.5646229;-0.20567111670970917;0.652325451374054;89.82672882080078
15;1673428257.7551835;47.1306424;7.2406198999999996;-0.00800000037997961;1673428257.758112;-0.008653368800878525;0.9486867785453796;89.91181945800781
16;1673428257.9515796;47.1306424;7.2406198999999996;-0.006000000052154064;1673428257.9554887;-0.16725777089595795;0.9231413006782532;89.69309997558594
17;1673428258.143267;47.1306424;7.2406198999999996;0.0;1673428258.1471732;-0.30126842856407166;0.6709039211273193;89.83457946777344
18;1673428258.345849;47.1306424;7.2406198999999996;0.0;1673428258.350729;-0.38340556621551514;0.7098714113235474;89.79203033447266
19;1673428258.5551052;47.1306423;7.2406198999999996;-0.004000000189989805;1673428258.5580337;-0.18834829330444336;0.35612398386001587;89.74403381347656
20;1673428258.7270482;47.1306423;7.2406198999999996;-0.00800000037997961;1673428258.7299793;-0.4215158522129059;0.5587774515151978;89.88361358642578
21;1673428258.9237251;47.1306423;7.2406198999999996;-0.006000000052154064;1673428258.9266527;-0.3107105791568756;0.3853296935558319;90.04978942871094
22;1673428259.1341677;47.1306423;7.2406198999999996;0.003000000026077032;1673428259.1400356;-0.4000910222530365;0.6064189076423645;89.87779235839844
23;1673428259.3600564;47.1306423;7.2406198999999996;0.010000000707805157;1673428259.3629851;-0.4158656895160675;0.9059309363365173;89.25981903076172
24;1673428259.549901;47.1306422;7.24062;0.013000000268220901;1673428259.5533638;-0.3761099874973297;0.5446092486381531;88.4655990600586
25;1673428259.7616708;47.1306419;7.2406201;0.01100000087171793;1673428259.770604;-0.15507957339286804;0.24693810939788818;85.84739685058594
26;1673428259.9644752;47.130641499999996;7.2406203;0.01600000075995922;1673428259.9674046;0.0400727204978466;-1.9218753576278687;79.02837371826172
27;1673428260.1488307;47.130640899999996;7.2406207;0.023000001907348633;1673428260.1507828;0.2771703600883484;-5.63626766204834;75.92979431152344
28;1673428260.3340845;47.13064;7.2406213;0.03100000135600567;1673428260.3381228;2.3403828144073486;-10.033284187316895;81.67423248291016
29;1673428260.5297925;47.130639099999996;7.2406222;0.04800000041723251;1673428260.5336986;6.749342918395996;-13.191971778869629;84.25410461425781
30;1673428260.7381246;47.130638;7.2406234;0.07300000637769699;1673428260.7430058;8.333852767944336;-14.787546157836914;84.99629211425781
31;1673428260.9412398;47.130637;7.240624599999999;0.11100000888109207;1673428260.9431944;9.279461860656738;-16.71446990966797;85.68360137939453
32;1673428261.1366024;47.1306361;7.2406258;0.1600000113248825;1673428261.139531;10.135978698730469;-18.3856258392334;86.23501586914062
33;1673428261.3551846;47.130635399999996;7.240626799999999;0.21900001168251038;1673428261.3586457;11.61182689666748;-18.77758026123047;86.77822875976562
34;1673428261.5620108;47.1306349;7.2406276;0.289000004529953;1673428261.563963;13.47697639465332;-19.69523811340332;87.22132873535156
35;1673428261.756028;47.130634699999995;7.240628;0.3700000047683716;1673428261.7594886;14.925163269042969;-21.77419090270996;87.58177947998047
36;1673428261.927865;47.130634799999996;7.240628;0.46000000834465027;1673428261.929819;16.111112594604492;-23.38125228881836;88.08633422851562
37;1673428262.1280491;47.130635399999996;7.2406276;0.5600000023841858;1673428262.1319537;17.60127830505371;-23.393007278442383;88.53096771240234
38;1673428262.333351;47.1306363;7.2406267;0.6660000085830688;1673428262.336296;16.635168075561523;-20.19329833984375;89.35334777832031
39;1673428262.5412762;47.1306376;7.2406254;0.7790000438690186;1673428262.544205;14.996159553527832;-20.203479766845703;89.96346282958984
40;1673428262.7523813;47.1306389;7.2406239999999995;0.9030000567436218;1673428262.7553117;12.936803817749023;-16.490093231201172;90.9419174194336
41;1673428262.9860234;47.1306401;7.2406226;1.0360000133514404;1673428262.987919;11.197866439819336;-11.516437530517578;92.24781799316406
42;1673428263.2094193;47.1306411;7.2406213;1.1770000457763672;1673428263.2113733;10.077834129333496;-13.465063095092773;92.82894897460938
43;1673428263.374647;47.1306418;7.2406204;1.3270000219345093;1673428263.3765981;9.471776962280273;-12.926167488098145;93.79106140136719
44;1673428263.5546668;47.1306422;7.240619799999999;1.4910000562667847;1673428263.5585577;9.80470085144043;-9.722599029541016;95.32169342041016
45;1673428263.7400572;47.1306424;7.2406194;1.6660001277923584;1673428263.7429864;10.096488952636719;-13.445169448852539;95.38338470458984
46;1673428264.04468;47.1306425;7.2406194;1.8510000705718994;1673428264.0456657;10.865025520324707;-14.640501022338867;95.9195785522461
47;1673428264.2441163;47.1306425;7.2406194;2.0440001487731934;1673428264.246068;11.589818954467773;-11.224064826965332;96.90441131591797
48;1673428264.4200485;47.1306423;7.2406196;2.239000082015991;1673428264.4220018;12.374396324157715;-13.733637809753418;97.11166381835938
49;1673428264.5978045;47.1306422;7.240619799999999;2.431000232696533;1673428264.6007335;13.191949844360352;-16.249998092651367;97.4190902709961
50;1673428264.8134272;47.1306422;7.24062;2.618000030517578;1673428264.8153796;13.861141204833984;-12.029614448547363;98.35929107666016
51;1673428264.9937756;47.1306422;7.2406201;2.807000160217285;1673428264.9986243;14.206591606140137;-12.736023902893066;99.10418701171875
52;1673428265.1812332;47.1306423;7.2406201999999995;3.002000093460083;1673428265.1831558;14.213738441467285;-15.094855308532715;99.07110595703125
53;1673428265.3801687;47.1306422;7.2406201999999995;3.203000068664551;1673428265.3831146;14.251260757446289;-12.243779182434082;99.04205322265625
54;1673428265.5795555;47.130642099999996;7.2406201;3.4010002613067627;1673428265.583461;13.818403244018555;-12.53268051147461;98.89391326904297
55;1673428265.7576232;47.1306419;7.24062;3.6010000705718994;1673428265.7595737;13.853700637817383;-16.324613571166992;98.74044799804688
56;1673428265.9483006;47.1306419;7.24062;3.8000001907348633;1673428265.952207;13.823151588439941;-13.806065559387207;98.7911376953125
57;1673428266.1491811;47.1306418;7.24062;3.994000196456909;1673428266.1521244;13.323861122131348;-12.148645401000977;98.90747833251953
58;1673428266.3553555;47.1306418;7.24062;4.185000419616699;1673428266.35926;13.327707290649414;-15.634071350097656;98.51383209228516
59;1673428266.5551524;47.1306418;7.24062;4.378000259399414;1673428266.5570872;13.52001667022705;-14.634819984436035;98.65988159179688
60;1673428266.7983985;47.1306418;7.2406198999999996;4.573000431060791;1673428266.8013277;13.680620193481445;-11.886613845825195;98.97573852539062
61;1673428266.989339;47.1306417;7.2406198999999996;4.770000457763672;1673428266.9912896;13.442068099975586;-15.005666732788086;98.99602508544922
62;1673428267.159574;47.1306416;7.240619799999999;4.9670000076293945;1673428267.162497;13.59086799621582;-16.19259262084961;98.6766128540039
63;1673428267.3518903;47.1306417;7.240619799999999;5.160000324249268;1673428267.3548086;13.541444778442383;-12.245010375976562;98.79536437988281
64;1673428267.5559628;47.1306418;7.2406198999999996;5.3510003089904785;1673428267.5579135;13.388202667236328;-13.360590934753418;98.88055419921875
65;1673428267.7520633;47.1306418;7.2406198999999996;5.543000221252441;1673428267.755986;13.521158218383789;-15.60904598236084;98.6413803100586
66;1673428267.9670508;47.1306418;7.240619799999999;5.743000507354736;1673428267.9705265;13.541702270507812;-12.33535099029541;98.95258331298828
67;1673428268.192425;47.1306417;7.240619799999999;5.945000171661377;1673428268.1943767;13.35330581665039;-12.778685569763184;98.84063720703125
68;1673428268.4055572;47.1306416;7.240619799999999;6.150000095367432;1673428268.409472;13.620474815368652;-15.90007495880127;98.69322204589844
69;1673428268.5899098;47.1306416;7.2406198999999996;6.348000526428223;1673428268.5928373;13.547516822814941;-13.799638748168945;98.80050659179688
70;1673428268.7755208;47.1306417;7.2406198999999996;6.5410003662109375;1673428268.7774727;13.538787841796875;-12.331536293029785;98.94539642333984
71;1673428268.980831;47.1306417;7.2406198999999996;6.732000350952148;1673428268.9837592;13.386279106140137;-15.570058822631836;98.6178970336914
72;1673428269.177012;47.1306418;7.2406198999999996;6.925000190734863;1673428269.17994;13.519173622131348;-14.550042152404785;98.73577117919922
73;1673428269.3675892;47.1306417;7.2406198999999996;7.122000217437744;1673428269.370559;13.506390571594238;-11.853763580322266;98.81880187988281
74;1673428269.547652;47.1306416;7.240619799999999;7.319000244140625;1673428269.5507288;13.264974594116211;-15.119763374328613;98.61357879638672
75;1673428269.761795;47.130641499999996;7.2406198999999996;7.511000156402588;1673428269.766686;13.534133911132812;-15.623004913330078;98.59382629394531
76;1673428269.9630616;47.1306416;7.2406198999999996;7.703000545501709;1673428269.9659593;13.672119140625;-11.960369110107422;98.95126342773438
77;1673428270.1671603;47.1306417;7.24062;7.89400053024292;1673428270.1700883;13.365646362304688;-14.11376953125;98.78535461425781
78;1673428270.3810918;47.1306417;7.2406201;8.089000701904297;1673428270.3840053;13.686765670776367;-15.732815742492676;98.6307144165039
79;1673428270.596851;47.1306417;7.2406201;8.289000511169434;1673428270.597827;13.82286262512207;-12.416580200195312;98.81121826171875
80;1673428270.783355;47.1306416;7.2406201;8.48900032043457;1673428270.787254;13.818971633911133;-12.754039764404297;98.73548889160156
81;1673428270.9707718;47.130641499999996;7.2406201;8.690000534057617;1673428270.9727564;13.506505966186523;-16.326942443847656;98.57765197753906
82;1673428271.1590765;47.1306416;7.2406201;8.88800048828125;1673428271.1620054;13.473115921020508;-13.540789604187012;98.65306854248047
83;1673428271.3601058;47.1306417;7.2406201;9.081000328063965;1673428271.3640127;13.374897956848145;-12.272725105285645;98.86370849609375
84;1673428271.5551548;47.1306417;7.2406201;9.27400016784668;1673428271.557091;13.404420852661133;-15.772494316101074;98.7122573852539
85;1673428271.749711;47.1306417;7.2406201999999995;9.473999977111816;1673428271.7526395;13.56322193145752;-13.746118545532227;98.86381530761719
86;1673428271.9356196;47.1306416;7.2406201999999995;9.678000450134277;1673428271.9395192;13.634583473205566;-11.91312026977539;99.07023620605469
87;1673428272.1669621;47.130641499999996;7.2406203;9.879000663757324;1673428272.1689253;13.531088829040527;-15.46510124206543;98.84308624267578
88;1673428272.3565004;47.130641499999996;7.2406203;10.07800006866455;1673428272.3594456;13.86776065826416;-15.655339241027832;98.66363525390625
89;1673428272.544681;47.1306416;7.2406203;10.312000274658203;1673428272.5476243;13.465238571166992;-12.260322570800781;98.58992004394531
90;1673428272.7404516;47.1306419;7.2406201;10.659000396728516;1673428272.7443554;13.633100509643555;-15.83901309967041;98.13104248046875
91;1673428272.9779012;47.1306423;7.2406198999999996;11.03700065612793;1673428272.979854;13.681140899658203;-16.987943649291992;98.1897201538086
92;1673428273.1604476;47.1306428;7.2406197;11.431000709533691;1673428273.1633823;13.187482833862305;-12.418411254882812;98.57710266113281
93;1673428273.3640244;47.1306431;7.240619499999999;11.831000328063965;1673428273.366957;12.549664497375488;-12.129150390625;98.57447052001953
94;1673428273.567708;47.1306434;7.2406194;12.22900104522705;1673428273.5725946;12.202787399291992;-13.741971015930176;98.32807159423828
95;1673428273.7760954;47.1306436;7.2406193;12.629000663757324;1673428273.780004;12.45457935333252;-11.341249465942383;98.5133056640625
96;1673428273.9713826;47.1306437;7.2406193;13.027000427246094;1673428273.9743114;12.281218528747559;-9.778060913085938;98.90855407714844
97;1673428274.184521;47.1306437;7.2406194;13.427000999450684;1673428274.18745;12.431784629821777;-13.184697151184082;98.61721801757812
98;1673428274.3629801;47.1306435;7.2406194;13.832000732421875;1673428274.36689;12.695222854614258;-12.593860626220703;98.66864776611328
99;1673428274.5561411;47.130643199999994;7.2406194;14.243000984191895;1673428274.5590696;13.057632446289062;-11.184430122375488;98.75337982177734
100;1673428274.7655146;47.1306429;7.240619499999999;14.656001091003418;1673428274.7674804;12.940094947814941;-14.115992546081543;98.71507263183594
101;1673428274.9517672;47.130642699999996;7.240619499999999;15.065000534057617;1673428274.9556527;13.135616302490234;-15.410720825195312;98.55529022216797
102;1673428275.1722152;47.1306425;7.2406196;15.473000526428223;1673428275.1762214;13.37903118133545;-12.305279731750488;98.71772766113281
103;1673428275.3792555;47.1306425;7.2406196;15.87600040435791;1673428275.3831499;13.244458198547363;-14.017683982849121;98.36582946777344
104;1673428275.5740888;47.1306425;7.2406196;16.284000396728516;1673428275.5775561;13.11556625366211;-15.466548919677734;98.34996795654297
105;1673428275.776161;47.1306425;7.2406196;16.69900131225586;1673428275.7796228;13.077469825744629;-12.512553215026855;98.70703125
106;1673428276.048825;47.1306425;7.2406196;17.112001419067383;1673428276.051769;13.107792854309082;-12.942327499389648;98.5557632446289
107;1673428276.2220724;47.1306425;7.2406196;17.518001556396484;1673428276.2250016;12.987150192260742;-15.640707015991211;98.3458480834961
108;1673428276.4008021;47.130642599999995;7.2406196;17.92300033569336;1673428276.4027543;13.208504676818848;-12.755867958068848;98.56391906738281
109;1673428276.5929255;47.130642699999996;7.2406196;18.322999954223633;1673428276.5948777;12.859021186828613;-11.366740226745605;98.92308807373047
110;1673428276.7863529;47.1306428;7.2406196;18.725000381469727;1673428276.788306;12.979402542114258;-14.54561996459961;98.61628723144531
111;1673428276.9598603;47.1306428;7.2406196;19.134000778198242;1673428276.9637833;13.229427337646484;-12.724770545959473;98.67657470703125
112;1673428277.1629112;47.130642699999996;7.2406196;19.54400062561035;1673428277.1658616;13.332873344421387;-11.216773986816406;98.84916687011719
113;1673428277.3622546;47.130642699999996;7.2406196;19.953001022338867;1673428277.366175;12.86707592010498;-14.30224895477295;98.78605651855469
114;1673428277.5632622;47.130642699999996;7.2406197;20.358001708984375;1673428277.5671706;13.093750953674316;-14.251008033752441;98.35716247558594
115;1673428277.763118;47.130642699999996;7.2406197;20.760000228881836;1673428277.7670105;13.280957221984863;-11.63957405090332;98.74417877197266
116;1673428277.980018;47.130642699999996;7.2406197;21.157001495361328;1673428277.9839628;13.176603317260742;-13.113232612609863;98.7304916381836
117;1673428278.1712623;47.1306428;7.2406197;21.559001922607422;1673428278.176146;13.080559730529785;-14.600037574768066;98.56986236572266
118;1673428278.3803425;47.130642699999996;7.2406197;21.968000411987305;1673428278.3852532;13.388659477233887;-11.50285816192627;98.8308334350586
119;1673428278.5770435;47.130642599999995;7.2406196;22.374000549316406;1673428278.579967;13.112598419189453;-12.999377250671387;98.67845916748047
120;1673428278.7641618;47.1306425;7.2406196;22.780000686645508;1673428278.7670782;13.037359237670898;-15.359508514404297;98.51115417480469
121;1673428278.9656975;47.1306425;7.2406196;23.187000274658203;1673428278.9686217;13.090840339660645;-12.311040878295898;98.67627716064453
122;1673428279.1626356;47.130642599999995;7.2406196;23.586000442504883;1673428279.1665406;12.91525650024414;-12.33811092376709;98.73316955566406
123;1673428279.3727396;47.130642599999995;7.240619499999999;23.985000610351562;1673428279.3756692;12.897806167602539;-15.18655776977539;98.34171295166016
124;1673428279.5639086;47.130642699999996;7.240619499999999;24.39000129699707;1673428279.5678124;13.057085037231445;-12.806255340576172;98.6275405883789
125;1673428279.759183;47.130642599999995;7.240619499999999;24.797000885009766;1673428279.7631054;13.066898345947266;-11.55746078491211;98.6623306274414
126;1673428279.9669898;47.1306425;7.240619499999999;25.20100212097168;1673428279.970932;12.987503051757812;-14.90921401977539;98.55937957763672
127;1673428280.1738038;47.130642599999995;7.240619499999999;25.60300064086914;1673428280.1767342;13.254064559936523;-13.771445274353027;98.66744232177734
128;1673428280.3722172;47.130642599999995;7.2406196;26.00400161743164;1673428280.375144;13.147452354431152;-11.386829376220703;98.95755767822266
129;1673428280.561941;47.130642599999995;7.2406196;26.4010009765625;1673428280.566822;13.022468566894531;-14.278916358947754;98.62493896484375
130;1673428280.7628005;47.130642599999995;7.2406196;26.8070011138916;1673428280.7657285;13.342337608337402;-14.109553337097168;98.59810638427734
131;1673428280.97366;47.130642599999995;7.2406196;27.215002059936523;1673428280.9765844;13.458203315734863;-11.564949035644531;98.76344299316406
132;1673428281.168613;47.1306425;7.240619499999999;27.62200164794922;1673428281.1725621;13.101588249206543;-13.458258628845215;98.68660736083984
133;1673428281.3639758;47.1306425;7.240619499999999;28.027000427246094;1673428281.3669202;13.084040641784668;-14.83438491821289;98.5110092163086
134;1673428281.5746133;47.1306425;7.240619499999999;28.428001403808594;1673428281.5796068;13.181486129760742;-12.007226943969727;98.8191146850586
135;1673428281.7848327;47.130642599999995;7.2406196;28.82400131225586;1673428281.7878075;13.185540199279785;-12.150123596191406;98.85132598876953
136;1673428281.985911;47.130642599999995;7.2406196;29.22300148010254;1673428281.988396;13.005260467529297;-14.64797306060791;98.52542877197266
137;1673428282.1671467;47.130642599999995;7.2406196;29.628002166748047;1673428282.17105;13.324413299560547;-12.095015525817871;98.76746368408203
138;1673428282.3623023;47.1306425;7.240619499999999;30.033000946044922;1673428282.3661954;13.116340637207031;-11.840229988098145;98.769775390625
139;1673428282.5752318;47.1306424;7.240619499999999;30.43600082397461;1673428282.5781674;13.001527786254883;-15.28663158416748;98.35636901855469
140;1673428282.7724748;47.1306423;7.2406196;30.83700180053711;1673428282.7744443;13.23877239227295;-13.692830085754395;98.42350769042969
141;1673428282.9684236;47.1306423;7.2406196;31.23600196838379;1673428282.9733372;13.131314277648926;-11.71656608581543;98.88998413085938
142;1673428283.1830268;47.1306423;7.2406196;31.63100242614746;1673428283.186931;13.105582237243652;-14.773310661315918;98.4242935180664
143;1673428283.3859923;47.1306424;7.2406196;32.034000396728516;1673428283.3889093;13.142602920532227;-14.193668365478516;98.56953430175781
144;1673428283.593815;47.1306423;7.2406196;32.441001892089844;1673428283.59772;13.285638809204102;-11.629359245300293;98.74075317382812
145;1673428283.7925284;47.1306423;7.2406196;32.84800338745117;1673428283.795542;13.079606056213379;-13.576229095458984;98.66448974609375
146;1673428283.9822645;47.1306424;7.2406196;33.25200271606445;1673428283.9842153;13.220189094543457;-14.825218200683594;98.51374053955078
147;1673428284.17582;47.1306425;7.2406197;33.652000427246094;1673428284.1787508;13.245963096618652;-11.334486961364746;98.8446273803711
148;1673428284.3721395;47.1306425;7.2406197;34.044002532958984;1673428284.3750648;13.154030799865723;-12.419161796569824;98.83195495605469
149;1673428284.576106;47.130642599999995;7.2406197;34.44300079345703;1673428284.5790386;13.099592208862305;-14.679631233215332;98.50056457519531
150;1673428284.777621;47.130642599999995;7.2406197;34.84700012207031;1673428284.7805443;13.33533763885498;-12.136143684387207;98.6922836303711
151;1673428284.9781163;47.130642599999995;7.2406197;35.25;1673428284.980076;13.401636123657227;-11.627083778381348;98.7677230834961
152;1673428285.1822598;47.1306425;7.2406197;35.65299987792969;1673428285.1842053;13.155867576599121;-14.741024017333984;98.587158203125
153;1673428285.3843126;47.1306425;7.240619799999999;36.057003021240234;1673428285.3882189;13.364688873291016;-13.011963844299316;98.69898223876953
154;1673428285.6121867;47.1306425;7.240619799999999;36.461002349853516;1673428285.6151175;13.284466743469238;-11.298500061035156;98.91258239746094
155;1673428285.8294673;47.130642599999995;7.240619799999999;36.85600280761719;1673428285.8314424;13.172043800354004;-14.610603332519531;98.40979766845703
156;1673428286.0337355;47.130642599999995;7.240619799999999;37.26000213623047;1673428286.0719984;13.212700843811035;-13.742464065551758;98.5520248413086
157;1673428286.2715447;47.1306425;7.240619799999999;37.6670036315918;1673428286.2744734;13.342477798461914;-11.128789901733398;98.78942108154297
158;1673428286.462809;47.1306425;7.2406198999999996;38.07100296020508;1673428286.4647608;13.23554515838623;-13.431520462036133;98.66548156738281
159;1673428286.6426804;47.1306425;7.2406198999999996;38.47500228881836;1673428286.6446335;13.225051879882812;-14.716838836669922;98.4038314819336
160;1673428286.799827;47.1306425;7.2406198999999996;38.87700271606445;1673428286.803733;13.369747161865234;-11.122142791748047;98.7800064086914
161;1673428287.0226388;47.130642599999995;7.2406198999999996;39.268001556396484;1673428287.025567;13.205121040344238;-12.539067268371582;98.71586608886719
162;1673428287.2331023;47.130642599999995;7.2406198999999996;39.663002014160156;1673428287.235066;13.199233055114746;-14.751197814941406;98.4015884399414
163;1673428287.4245756;47.130642599999995;7.2406198999999996;40.066001892089844;1673428287.4295962;13.317704200744629;-11.660609245300293;98.77667236328125
164;1673428287.6073534;47.1306425;7.2406198999999996;40.47200012207031;1673428287.6102812;13.197600364685059;-12.089216232299805;98.78047180175781
165;1673428287.8085349;47.1306425;7.2406198999999996;40.87600326538086;1673428287.8124998;13.308842658996582;-15.059656143188477;98.48158264160156
166;1673428288.020177;47.1306425;7.24062;41.27900314331055;1673428288.0231042;13.503302574157715;-12.490628242492676;98.88440704345703
167;1673428288.2338524;47.1306425;7.24062;41.68100357055664;1673428288.235806;13.44105052947998;-11.340547561645508;99.08480834960938
168;1673428288.4203503;47.1306425;7.2406198999999996;42.073001861572266;1673428288.4232788;13.221938133239746;-14.651511192321777;98.52256774902344
169;1673428288.615637;47.1306425;7.2406198999999996;42.47500228881836;1673428288.617588;13.346433639526367;-13.385529518127441;98.64227294921875
170;1673428288.8214533;47.1306424;7.240619799999999;42.880001068115234;1673428288.825358;13.415827751159668;-11.430929183959961;98.694091796875
171;1673428289.0245557;47.1306424;7.240619799999999;43.28200149536133;1673428289.0284734;13.2881441116333;-13.883635520935059;98.6751937866211
172;1673428289.2330217;47.1306424;7.240619799999999;43.68600082397461;1673428289.235952;13.418733596801758;-14.517783164978027;98.46463012695312
173;1673428289.4225814;47.1306424;7.240619799999999;44.090003967285156;1673428289.4274607;13.417747497558594;-11.25900936126709;98.81399536132812
174;1673428289.6201637;47.1306425;7.240619799999999;44.483001708984375;1673428289.6232002;13.385634422302246;-12.952435493469238;98.59998321533203
175;1673428289.8805666;47.130642599999995;7.2406198999999996;44.88200378417969;1673428289.882529;13.205986022949219;-14.647566795349121;98.470703125
176;1673428290.0569072;47.1306425;7.240619799999999;45.28600311279297;1673428290.0588703;13.597557067871094;-11.373189926147461;98.72990417480469
177;1673428290.237198;47.1306425;7.240619799999999;45.69000244140625;1673428290.23915;13.185511589050293;-12.424591064453125;98.71218872070312
178;1673428290.4234269;47.1306425;7.240619799999999;46.09100341796875;1673428290.4293065;13.259442329406738;-15.047011375427246;98.56593322753906
179;1673428290.6572173;47.1306425;7.240619799999999;46.4900016784668;1673428290.6601455;13.311596870422363;-11.941971778869629;98.73278045654297
180;1673428290.8664339;47.1306425;7.240619799999999;46.893001556396484;1673428290.8683858;13.201983451843262;-11.66087532043457;98.75904083251953
181;1673428291.074524;47.1306425;7.240619799999999;47.28900146484375;1673428291.0755048;13.025189399719238;-14.722759246826172;98.4794921875
182;1673428291.255037;47.1306425;7.2406197;47.69300079345703;1673428291.2569766;13.392724990844727;-12.755942344665527;98.5821533203125
183;1673428291.4727585;47.1306425;7.2406197;48.095001220703125;1673428291.4746995;13.11556625366211;-11.577777862548828;98.71452331542969
184;1673428291.6545382;47.1306424;7.2406197;48.45600128173828;1673428291.6564775;13.279150009155273;-14.979300498962402;98.42938995361328
185;1673428291.8430622;47.1306424;7.2406198999999996;48.76300048828125;1673428291.8450146;13.439136505126953;-14.049909591674805;98.3806381225586
186;1673428292.04443;47.1306423;7.2406201;49.018001556396484;1673428292.046399;13.420845031738281;-11.19458293914795;98.84465789794922
187;1673428292.2400753;47.1306422;7.2406203;49.22100067138672;1673428292.2430034;13.918790817260742;-13.734288215637207;98.57601928710938
188;1673428292.4196284;47.130641999999995;7.2406204;49.39600372314453;1673428292.4235346;20.743486404418945;-5.1522908210754395;99.83039855957031
189;1673428292.6199508;47.1306412;7.240619799999999;49.557003021240234;1673428292.621895;33.16825866699219;20.84072494506836;110.67141723632812
190;1673428292.863435;47.1306389;7.240616999999999;49.7030029296875;1673428292.8653886;36.02235412597656;42.10630798339844;120.67276763916016
191;1673428293.0529623;47.130634099999995;7.2406106999999995;49.820003509521484;1673428293.0558918;30.967653274536133;53.432472229003906;127.28328704833984
192;1673428293.2334642;47.1306266;7.2406009;49.8910026550293;1673428293.2354004;16.307403564453125;56.301788330078125;136.08714294433594
193;1673428293.422507;47.1306168;7.2405881;49.94000244140625;1673428293.4244592;-2.098982572555542;54.64887619018555;150.10108947753906
194;1673428293.6688755;47.130604899999994;7.2405729;49.97200393676758;1673428293.6718042;-20.703044891357422;48.955360412597656;161.85101318359375
195;1673428293.854817;47.1305914;7.2405561;49.987003326416016;1673428293.8596969;-34.568843841552734;42.08489990234375;174.35557556152344
196;1673428294.0449255;47.1305762;7.240537799999999;49.98800277709961;1673428294.0478654;-44.662139892578125;39.11600112915039;-174.6501922607422
197;1673428294.2325213;47.1305596;7.2405178999999995;49.98200225830078;1673428294.237392;-51.03282165527344;35.25566482543945;-163.4234619140625
198;1673428294.428156;47.130541799999996;7.240496299999999;49.9530029296875;1673428294.4301157;-49.94597244262695;26.547880172729492;-153.31207275390625
199;1673428294.6235363;47.1305233;7.240473499999999;49.90400314331055;1673428294.6274414;-46.22663116455078;21.692991256713867;-148.07589721679688
200;1673428294.8315396;47.1305045;7.24045;49.85100173950195;1673428294.8354428;-47.54153060913086;18.72939682006836;-142.28219604492188
201;1673428295.0348263;47.1304853;7.2404259;49.81300354003906;1673428295.0367863;-47.598731994628906;14.224043846130371;-134.79164123535156
202;1673428295.235465;47.130466;7.240400999999999;49.785003662109375;1673428295.2383914;-46.90090560913086;9.088719367980957;-127.96128845214844
203;1673428295.4170396;47.1304467;7.2403759;49.75100326538086;1673428295.419972;-45.34851837158203;5.917470455169678;-128.48684692382812
204;1673428295.631428;47.1304273;7.240350899999999;49.720001220703125;1673428295.6354897;-42.869747161865234;6.705094337463379;-132.1210479736328
205;1673428295.8458998;47.1304077;7.2403261;49.71000289916992;1673428295.8517568;-45.48524475097656;8.343589782714844;-133.61204528808594
206;1673428296.0371938;47.130387999999996;7.2403014;49.720001220703125;1673428296.0410974;-47.71527862548828;9.837201118469238;-134.0792236328125
207;1673428296.2508025;47.1303681;7.2402767;49.72800064086914;1673428296.2537308;-48.33136749267578;10.967789649963379;-134.11410522460938
208;1673428296.5186167;47.130348;7.2402517;49.743003845214844;1673428296.5195959;-48.044227600097656;11.691194534301758;-134.1536407470703
209;1673428296.6802266;47.1303279;7.2402264;49.76400375366211;1673428296.6841326;-47.5770149230957;12.087953567504883;-134.06484985351562
210;1673428296.9072773;47.1303078;7.2402009;49.790000915527344;1673428296.9102168;-48.0545539855957;12.53754997253418;-134.0802459716797
211;1673428297.0794144;47.1302877;7.240175;49.816001892089844;1673428297.0813658;-48.52782440185547;12.794968605041504;-133.99551391601562
212;1673428297.26426;47.130267599999996;7.240148899999999;49.83400344848633;1673428297.2681618;-48.04616165161133;12.662104606628418;-133.8296356201172
213;1673428297.4487042;47.1302476;7.240122599999999;49.832000732421875;1673428297.4516318;-46.67988204956055;12.308575630187988;-133.72940063476562
214;1673428297.6471593;47.1302277;7.2400962;49.832000732421875;1673428297.652039;-45.41664123535156;12.060327529907227;-133.91043090820312
215;1673428297.859782;47.130207899999995;7.2400698;49.83700180053711;1673428297.8627107;-45.75062561035156;12.308603286743164;-134.11611938476562
216;1673428298.0555756;47.1301882;7.240043399999999;49.84700393676758;1673428298.058503;-46.95346450805664;12.580671310424805;-134.1156463623047
217;1673428298.2615912;47.130168499999996;7.2400169;49.86000061035156;1673428298.2635376;-47.52058029174805;12.647080421447754;-134.04263305664062
218;1673428298.4342873;47.1301488;7.2399903;49.87300109863281;1673428298.4381912;-47.54399871826172;12.524663925170898;-133.98110961914062
219;1673428298.6297572;47.1301291;7.2399635;49.87800216674805;1673428298.6327004;-47.01494216918945;12.294088363647461;-133.95558166503906
220;1673428298.8339858;47.130109499999996;7.2399366999999994;49.87300109863281;1673428298.8359337;-46.218536376953125;12.037996292114258;-133.9255828857422
221;1673428299.0122242;47.130089899999994;7.23991;49.87700271606445;1673428299.016665;-46.066131591796875;12.093308448791504;-134.08392333984375
222;1673428299.2191312;47.1300703;7.2398833;49.88300323486328;1673428299.2220597;-47.05472946166992;12.323363304138184;-134.1240234375
223;1673428299.4082117;47.1300507;7.239856499999999;49.88500213623047;1673428299.4130914;-47.639522552490234;12.382437705993652;-134.0085906982422
224;1673428299.6208198;47.1300311;7.2398297;49.88300323486328;1673428299.6237636;-47.060848236083984;12.14887523651123;-133.93309020996094
225;1673428299.8289623;47.130011599999996;7.239802999999999;49.87600326538086;1673428299.8318903;-46.32029724121094;11.95079517364502;-133.9444122314453
226;1673428300.0249834;47.129992099999996;7.2397763;49.8640022277832;1673428300.0269356;-46.02352523803711;11.911508560180664;-133.9889678955078
227;1673428300.2273128;47.129972599999995;7.2397496;49.855003356933594;1673428300.230252;-46.134307861328125;12.031670570373535;-134.0492706298828
228;1673428300.4194539;47.129953199999996;7.2397231;49.85300064086914;1673428300.422373;-46.7486457824707;12.143348693847656;-134.0400390625
229;1673428300.6177275;47.129933799999996;7.2396965;49.85400390625;1673428300.619684;-47.287567138671875;12.217413902282715;-133.99269104003906
230;1673428300.8144212;47.129914299999996;7.2396698;49.85200119018555;1673428300.8173819;-47.36008834838867;12.142443656921387;-133.90013122558594
231;1673428301.011701;47.1298949;7.2396432;49.84700393676758;1673428301.0146368;-46.878089904785156;11.987373352050781;-133.8655242919922
232;1673428301.2067943;47.129875399999996;7.2396164999999995;49.845001220703125;1673428301.210687;-46.543521881103516;11.883028030395508;-133.872802734375
233;1673428301.4077432;47.129855899999995;7.2395898;49.840003967285156;1673428301.4106739;-46.75150680541992;11.965188026428223;-133.847900390625
234;1673428301.6077833;47.129836499999996;7.2395631;49.83500289916992;1673428301.611687;-46.864776611328125;11.93742561340332;-133.81222534179688
235;1673428301.8181522;47.129816999999996;7.2395363999999995;49.83400344848633;1673428301.820135;-46.787506103515625;11.853494644165039;-133.7708282470703
236;1673428302.0093687;47.129797599999996;7.239509699999999;49.836002349853516;1673428302.0132742;-46.89365768432617;11.842117309570312;-133.7638702392578
237;1673428302.223273;47.129778099999996;7.239483;49.8380012512207;1673428302.226203;-47.03508758544922;11.826007843017578;-133.71669006347656
238;1673428302.4356153;47.1297587;7.2394563;49.8380012512207;1673428302.4395258;-47.02118682861328;11.7698335647583;-133.67501831054688
239;1673428302.7051587;47.129739199999996;7.239429599999999;49.8390007019043;1673428302.7071326;-46.895015716552734;11.69959831237793;-133.60980224609375
240;1673428302.9528954;47.129719699999995;7.2394029;49.8390007019043;1673428302.9548478;-46.74373245239258;11.682241439819336;-133.58901977539062
241;1673428303.1198053;47.129700199999995;7.2393762;49.840003967285156;1673428303.1237462;-46.789947509765625;11.632832527160645;-133.53550720214844
242;1673428303.3089807;47.129680699999994;7.2393494;49.8390007019043;1673428303.310935;-46.67202377319336;11.605225563049316;-133.45932006835938
243;1673428303.512057;47.1296612;7.2393227;49.84300231933594;1673428303.5149853;-46.66837692260742;11.592901229858398;-133.45526123046875
244;1673428303.6994545;47.1296417;7.2392959999999995;49.84700393676758;1673428303.7014072;-46.99595260620117;11.634330749511719;-133.37762451171875
245;1673428303.9049983;47.1296222;7.2392692;49.84700393676758;1673428303.9069667;-47.10723876953125;11.56796932220459;-133.26365661621094
246;1673428304.1249146;47.1296027;7.239242399999999;49.849002838134766;1673428304.1278586;-46.84590530395508;11.443235397338867;-133.19375610351562
247;1673428304.3080661;47.1295832;7.2392157;49.85200119018555;1673428304.3110518;-46.79930114746094;11.340667724609375;-133.10838317871094
248;1673428304.5537765;47.1295637;7.239189;49.85600280761719;1673428304.5547497;-46.88834762573242;11.30225658416748;-133.0295867919922
249;1673428304.8096492;47.1295442;7.239162299999999;49.86000061035156;1673428304.8116038;-47.05025863647461;11.303223609924316;-132.95654296875
250;1673428304.9881287;47.1295248;7.2391355;49.86100387573242;1673428304.991056;-47.075138092041016;11.162336349487305;-132.79994201660156
251;1673428305.191552;47.1295053;7.2391087;49.868003845214844;1673428305.1944802;-47.00887680053711;11.071266174316406;-132.7356414794922
252;1673428305.4378035;47.1294858;7.2390818999999995;49.87600326538086;1673428305.4387705;-47.08686828613281;10.95132827758789;-132.56350708007812
253;1673428305.5951068;47.1294663;7.239055;49.88300323486328;1673428305.5960906;-47.34298324584961;10.89783763885498;-132.45083618164062
254;1673428305.8274243;47.129446699999995;7.2390281;49.88600158691406;1673428305.8283854;-47.06344223022461;10.64050006866455;-132.23455810546875
255;1673428306.0356536;47.1294271;7.2390012;49.893001556396484;1673428306.0366282;-46.8913459777832;10.5794677734375;-132.10372924804688
256;1673428306.2163742;47.1294075;7.2389743;49.900001525878906;1673428306.2173512;-47.04485321044922;11.672057151794434;-132.16961669921875
257;1673428306.3879228;47.129388;7.2389472999999995;49.90900421142578;1673428306.3908517;-46.95341110229492;14.592734336853027;-132.14013671875
258;1673428306.5874019;47.1293687;7.2389201;49.92000198364258;1673428306.5893335;-46.70821762084961;15.560447692871094;-131.25601196289062
259;1673428306.7479415;47.1293498;7.2388924999999995;49.93100357055664;1673428306.750868;-47.4633903503418;13.636890411376953;-130.1565704345703
260;1673428306.9527898;47.129331099999995;7.2388647;49.941001892089844;1673428306.9557226;-46.882633209228516;15.037843704223633;-130.22410583496094
261;1673428307.1823857;47.1293126;7.238836699999999;49.95100402832031;1673428307.1833618;-45.92246627807617;16.65514373779297;-129.81521606445312
262;1673428307.3909085;47.129294599999994;7.238808499999999;49.965003967285156;1673428307.3928945;-45.61039352416992;18.37067985534668;-129.44076538085938
263;1673428307.6475847;47.129277099999996;7.2387799;49.98200225830078;1673428307.6495512;-44.27969741821289;18.59952735900879;-128.2187957763672
264;1673428307.8082006;47.1292602;7.2387513;50.005001068115234;1673428307.810154;-34.310707092285156;18.149574279785156;-128.25257873535156
265;1673428308.0267396;47.129244199999995;7.2387234;50.03900146484375;1673428308.0286922;-17.676109313964844;19.118919372558594;-130.84825134277344
266;1673428308.195345;47.1292293;7.2386975;50.060001373291016;1673428308.1973026;-1.9164899587631226;16.76580238342285;-133.65423583984375
267;1673428308.373398;47.1292158;7.238674499999999;50.07100296020508;1673428308.37535;10.047362327575684;14.717934608459473;-135.79518127441406
268;1673428308.5863657;47.129203999999994;7.2386551;50.073001861572266;1673428308.5892844;17.59871482849121;15.885040283203125;-136.66856384277344
269;1673428308.8243186;47.1291939;7.238639399999999;50.05900192260742;1673428308.825307;22.437746047973633;14.584418296813965;-137.70550537109375
270;1673428309.0043344;47.1291856;7.2386273;50.04600143432617;1673428309.007276;21.588119506835938;14.80239200592041;-137.24542236328125
271;1673428309.1681805;47.1291789;7.238618;50.04500198364258;1673428309.17111;15.932899475097656;20.273792266845703;-137.0438995361328
272;1673428309.3973858;47.129173699999996;7.2386107;50.05000305175781;1673428309.3983634;10.12369441986084;17.406646728515625;-136.23721313476562
273;1673428309.5651019;47.129169499999996;7.2386047;50.057003021240234;1673428309.5670083;3.1954081058502197;19.261268615722656;-135.49169921875
274;1673428309.7964282;47.129166;7.2385997;50.06500244140625;1673428309.7983797;-2.3538994789123535;20.5572509765625;-134.4940948486328
275;1673428310.0237553;47.1291629;7.2385950999999995;50.07200241088867;1673428310.026683;-4.751490116119385;20.73055648803711;-133.64105224609375
276;1673428310.2123768;47.12916;7.238590899999999;50.07500076293945;1673428310.214329;-3.8936281204223633;20.880340576171875;-132.98062133789062
277;1673428310.3801868;47.1291571;7.2385869;50.08000183105469;1673428310.3821387;-3.0113964080810547;19.40191078186035;-132.67919921875
278;1673428310.5780165;47.129154299999996;7.238582999999999;50.086002349853516;1673428310.5809433;-1.9773962497711182;18.087862014770508;-132.09490966796875
279;1673428310.7666676;47.1291514;7.2385791;50.11600112915039;1673428310.7686217;-22.324443817138672;16.662456512451172;-138.6982879638672
280;1673428310.9945812;47.1291478;7.238574099999999;50.19700241088867;1673428310.9955142;-33.0878791809082;13.168914794921875;-139.61878967285156
281;1673428311.177765;47.129142699999996;7.2385676;50.33000183105469;1673428311.1797347;-22.024864196777344;4.7648468017578125;-137.15347290039062
282;1673428311.4204037;47.1291364;7.2385608999999995;50.553001403808594;1673428311.4223664;-22.009777069091797;10.188812255859375;-135.5304412841797
283;1673428311.622558;47.1291291;7.2385535999999995;50.87900161743164;1673428311.6235538;-30.976682662963867;13.820099830627441;-135.28103637695312
284;1673428311.8022604;47.129121;7.238544699999999;51.24400329589844;1673428311.8042014;-39.58254623413086;24.943008422851562;-135.66061401367188
285;1673428312.0218027;47.129112299999996;7.2385329;51.63200378417969;1673428312.03894;-35.757530212402344;23.875904083251953;-135.1003875732422
286;1673428312.1956701;47.1291034;7.2385192;52.01700210571289;1673428312.1995745;-32.821414947509766;23.37417984008789;-135.81503295898438
287;1673428312.4189224;47.1290943;7.2385044;52.400001525878906;1673428312.4218643;-29.436853408813477;21.094675064086914;-136.08348083496094
288;1673428312.6273456;47.129084999999996;7.2384889999999995;52.78300094604492;1673428312.628317;-26.673826217651367;18.12685775756836;-136.45263671875
289;1673428312.8281834;47.1290754;7.238473399999999;53.163002014160156;1673428312.8291574;-23.837875366210938;15.185482025146484;-136.483642578125
290;1673428313.0275524;47.1290656;7.238458;53.54300308227539;1673428313.0304823;-21.818002700805664;13.13381290435791;-136.62063598632812
291;1673428313.2590597;47.129055799999996;7.2384432;53.932003021240234;1673428313.2639394;-20.886486053466797;12.152525901794434;-136.62887573242188
292;1673428313.4897037;47.129045999999995;7.2384289;54.32400131225586;1673428313.49068;-20.125328063964844;12.23297119140625;-136.81016540527344
293;1673428313.6578662;47.1290361;7.2384148999999995;54.7140007019043;1673428313.6588364;-19.393587112426758;14.7786865234375;-137.3062744140625
294;1673428313.849281;47.1290263;7.238401499999999;55.10400390625;1673428313.8512437;-20.100353240966797;16.662137985229492;-137.6116180419922
295;1673428314.062721;47.1290165;7.2383882999999996;55.49500274658203;1673428314.0656438;-21.056564331054688;18.294639587402344;-137.84951782226562
296;1673428314.2352538;47.1290067;7.2383752999999995;55.887001037597656;1673428314.2392237;-22.095613479614258;17.316177368164062;-137.44886779785156
297;1673428314.4718995;47.1289969;7.2383624;56.28300094604492;1673428314.4748302;-23.401676177978516;17.32488250732422;-137.25184631347656
298;1673428314.6142912;47.128987099999996;7.2383495;56.68000411987305;1673428314.6152709;-24.251323699951172;15.844398498535156;-136.75686645507812
299;1673428314.7876093;47.1289774;7.2383364;57.0780029296875;1673428314.7895634;-24.50680923461914;15.82126522064209;-136.60275268554688
300;1673428315.0290973;47.128967499999995;7.238322999999999;57.47600173950195;1673428315.0310414;-24.428625106811523;16.671512603759766;-136.62559509277344
301;1673428315.2081082;47.1289577;7.2383096;57.87400436401367;1673428315.2090805;-23.954092025756836;17.99755096435547;-137.03782653808594
302;1673428315.4002066;47.1289478;7.2382959;58.27400207519531;1673428315.401181;-23.677593231201172;18.567886352539062;-137.0457305908203
303;1673428315.636995;47.1289379;7.2382821999999996;58.673004150390625;1673428315.6389477;-23.38278579711914;18.599321365356445;-137.0504913330078
304;1673428315.8572893;47.128928099999996;7.238268499999999;59.07200241088867;1673428315.8582656;-23.52129554748535;17.072341918945312;-136.85833740234375
305;1673428315.9933841;47.1289181;7.2382548;59.471004486083984;1673428315.996326;-23.508440017700195;16.059022903442383;-136.72695922851562
306;1673428316.234052;47.1289081;7.2382411;59.86600112915039;1673428316.2360039;-23.398923873901367;15.15334415435791;-136.58489990234375
307;1673428316.4071813;47.128898199999995;7.2382273999999995;60.26100158691406;1673428316.409146;-23.333515167236328;15.303818702697754;-136.52447509765625
308;1673428316.6354377;47.1288883;7.2382138;60.660003662109375;1673428316.637392;-23.152629852294922;16.05229377746582;-136.56512451171875
309;1673428316.851161;47.1288784;7.238200099999999;61.05800247192383;1673428316.8540792;-22.923982620239258;16.87685203552246;-136.80001831054688
310;1673428317.0207539;47.1288686;7.2381864;61.45500183105469;1673428317.0227249;-22.996522903442383;17.393863677978516;-136.94459533691406
311;1673428317.1960325;47.128858799999996;7.2381728;61.85400390625;1673428317.197985;-22.975440979003906;18.11064338684082;-137.09193420410156
312;1673428317.403346;47.1288489;7.238159199999999;62.25300216674805;1673428317.40531;-23.24513053894043;18.671600341796875;-137.2100372314453
313;1673428317.6052485;47.128839;7.238145599999999;62.65400314331055;1673428317.6072154;-23.189579010009766;18.749006271362305;-137.1554718017578
314;1673428317.782948;47.128828999999996;7.238131999999999;63.05400466918945;1673428317.7888043;-23.439788818359375;18.55153465270996;-137.0191650390625
315;1673428317.981653;47.1288191;7.2381183;63.45500183105469;1673428317.9836147;-23.540237426757812;18.052654266357422;-136.98602294921875
316;1673428318.2072644;47.1288092;7.2381047;63.85000228881836;1673428318.2092109;-23.482133865356445;17.826078414916992;-136.904541015625
317;1673428318.4636173;47.1287994;7.2380911999999995;64.24700164794922;1673428318.4655685;-23.74213218688965;16.596908569335938;-136.7187957763672
318;1673428318.6604946;47.128789499999996;7.238077499999999;64.64400482177734;1673428318.6634219;-23.88921356201172;16.404830932617188;-136.7336883544922
319;1673428318.8812191;47.128779599999994;7.238063899999999;65.04199981689453;1673428318.8841605;-23.853788375854492;15.777920722961426;-136.58551025390625
320;1673428319.0988727;47.1287698;7.2380502;65.44000244140625;1673428319.109611;-24.04901123046875;15.409809112548828;-136.50473022460938
321;1673428319.3038807;47.1287599;7.2380365;65.84100341796875;1673428319.3048599;-24.076736450195312;15.178647994995117;-136.48133850097656
322;1673428319.5003338;47.12875;7.2380229;66.23800659179688;1673428319.501308;-23.877283096313477;15.521549224853516;-136.5779266357422
323;1673428319.699353;47.128740199999996;7.2380093;66.63500213623047;1673428319.7022803;-23.82250213623047;16.1732234954834;-136.74009704589844
324;1673428319.864703;47.1287303;7.2379957;67.031005859375;1673428319.8676317;-23.719573974609375;16.76009750366211;-136.9327392578125
325;1673428320.0895917;47.1287204;7.237982;67.42500305175781;1673428320.0895917;-23.521236419677734;17.405475616455078;-137.0115966796875
326;1673428320.2331586;47.128710399999996;7.2379682;67.82100677490234;1673428320.2351058;-23.634965896606445;17.766618728637695;-137.03311157226562
327;1673428320.4499881;47.1287005;7.2379545;68.21600341796875;1673428320.4549034;-23.217344284057617;18.017301559448242;-137.1276397705078
328;1673428320.6663005;47.1286906;7.237940699999999;68.61199951171875;1673428320.667288;-23.464221954345703;18.266944885253906;-137.25123596191406
329;1673428320.8675895;47.128680599999996;7.237927;69.01000213623047;1673428320.8695407;-23.483543395996094;18.155656814575195;-137.15415954589844
330;1673428321.0767272;47.1286707;7.2379134;69.41200256347656;1673428321.0786793;-23.681957244873047;17.654495239257812;-137.00479125976562
331;1673428321.2424235;47.1286607;7.2378998;69.81400299072266;1673428321.2453527;-23.73244285583496;17.623876571655273;-136.87730407714844
332;1673428321.5284357;47.128650699999994;7.237886199999999;70.21400451660156;1673428321.5294116;-23.821176528930664;17.591957092285156;-136.8660125732422
333;1673428321.6710353;47.1286407;7.237872599999999;70.62000274658203;1673428321.6729891;-23.851640701293945;17.278085708618164;-136.79847717285156
334;1673428321.8696046;47.128630699999995;7.237858999999999;71.0250015258789;1673428321.8715613;-24.090974807739258;16.8162841796875;-136.7371063232422
335;1673428322.096632;47.1286208;7.2378453;71.4280014038086;1673428322.099133;-24.16069793701172;16.814905166625977;-136.7010955810547
336;1673428322.3351185;47.1286108;7.2378314999999995;71.82600402832031;1673428322.3575997;-24.154264450073242;16.781387329101562;-136.61691284179688
337;1673428322.5495913;47.128600899999995;7.237817799999999;72.22700500488281;1673428322.5515456;-24.100603103637695;16.802703857421875;-136.68331909179688
338;1673428322.696342;47.1285911;7.237803899999999;72.63200378417969;1673428322.6983092;-24.047107696533203;16.55962371826172;-136.7093505859375
339;1673428322.8735852;47.1285812;7.2377901;73.03700256347656;1673428322.8755257;-23.90388298034668;16.490266799926758;-136.76235961914062
340;1673428323.0620294;47.1285714;7.2377762;73.43700408935547;1673428323.078826;-23.88698959350586;16.554628372192383;-136.7817840576172
341;1673428323.3029008;47.128561499999996;7.2377623;73.83300018310547;1673428323.3077874;-23.89095687866211;16.444528579711914;-136.78199768066406
342;1673428323.4988737;47.128551599999994;7.2377486;74.2300033569336;1673428323.5008423;-24.0599308013916;16.3742733001709;-136.840087890625
343;1673428323.7206316;47.1285417;7.2377348999999995;74.625;1673428323.7225852;-24.01087188720703;16.620439529418945;-136.8997344970703
344;1673428323.9784758;47.1285318;7.237721199999999;75.02000427246094;1673428323.9794524;-23.851913452148438;16.938514709472656;-136.912353515625
345;1673428324.14086;47.128521799999994;7.2377075;75.41699981689453;1673428324.1418583;-23.67786979675293;17.037193298339844;-136.9236602783203
346;1673428324.4068568;47.1285119;7.2376938;75.81400299072266;1673428324.4078166;-23.563297271728516;17.292118072509766;-136.98849487304688
347;1673428324.5339787;47.128501899999996;7.2376800999999995;76.21100616455078;1673428324.5349584;-23.575618743896484;17.367748260498047;-136.9715576171875
348;1673428324.737483;47.128492;7.2376663;76.60700225830078;1673428324.739447;-23.645057678222656;17.402301788330078;-136.974365234375
349;1673428324.9462636;47.128482;7.2376526;77.0;1673428324.9482088;-23.740234375;17.395925521850586;-136.99766540527344
350;1673428325.1236737;47.128472099999996;7.237638899999999;77.39600372314453;1673428325.1256273;-23.95370101928711;17.50433349609375;-136.98106384277344
351;1673428325.294453;47.1284622;7.2376252999999995;77.79200744628906;1673428325.296405;-24.016639709472656;17.506433486938477;-136.94544982910156
352;1673428325.534354;47.1284522;7.2376116999999995;78.18700408935547;1673428325.5353303;-24.197721481323242;17.584455490112305;-136.95462036132812
353;1673428325.7715926;47.128442299999996;7.2375981;78.58700561523438;1673428325.7745228;-24.088150024414062;17.65420150756836;-136.9040985107422
354;1673428325.9284277;47.1284323;7.237584399999999;78.99100494384766;1673428325.9293995;-24.175111770629883;17.447050094604492;-136.8943328857422
355;1673428326.092686;47.1284224;7.2375707;79.39000701904297;1673428326.094628;-23.96392059326172;17.408458709716797;-136.89871215820312
356;1673428326.3517187;47.128412499999996;7.237557;79.78900146484375;1673428326.3536763;-24.024356842041016;17.475482940673828;-136.90673828125
357;1673428326.5512083;47.1284026;7.2375433;80.18700408935547;1673428326.5521784;-23.936277389526367;17.402013778686523;-136.94342041015625
358;1673428326.746363;47.1283927;7.2375295;80.58600616455078;1673428326.7473557;-23.844820022583008;17.256418228149414;-136.93057250976562
359;1673428326.972208;47.1283828;7.2375158;80.98500061035156;1673428326.973185;-23.74532699584961;17.259042739868164;-136.94212341308594
360;1673428327.1419535;47.128372899999995;7.2375020999999995;81.38400268554688;1673428327.1429172;-23.764263153076172;17.2215518951416;-136.96469116210938
361;1673428327.315523;47.128363;7.237488399999999;81.78300476074219;1673428327.3174753;-23.701833724975586;17.140329360961914;-136.90626525878906
362;1673428327.536075;47.1283531;7.2374747;82.18400573730469;1673428327.5380282;-23.867198944091797;17.06557846069336;-136.94659423828125
363;1673428327.813525;47.128343199999996;7.2374611;82.58300018310547;1673428327.8144886;-23.943838119506836;17.225820541381836;-136.9755096435547
364;1673428327.9377716;47.128333399999995;7.2374475;82.98100280761719;1673428327.945581;-23.908042907714844;17.22026824951172;-136.95999145507812
365;1673428328.1270638;47.1283235;7.2374339999999995;83.37800598144531;1673428328.129017;-24.017606735229492;17.248592376708984;-136.97064208984375
366;1673428328.3219771;47.1283136;7.237420299999999;83.7750015258789;1673428328.327833;-24.19847869873047;17.27517318725586;-136.97128295898438
367;1673428328.516124;47.1283037;7.237406699999999;84.17200469970703;1673428328.518088;-24.107521057128906;17.29833984375;-136.95120239257812
368;1673428328.7401385;47.128293799999994;7.237393099999999;84.56800079345703;1673428328.7430675;-24.057052612304688;17.31709098815918;-136.93174743652344
369;1673428328.919087;47.1282839;7.2373796;84.96300506591797;1673428328.9210536;-24.16850471496582;17.384984970092773;-136.96160888671875
370;1673428329.1232893;47.128274;7.2373658999999995;85.35800170898438;1673428329.1252406;-24.039844512939453;17.33551025390625;-136.9268035888672
371;1673428329.3414345;47.128264099999996;7.2373522999999995;85.75100708007812;1673428329.3424015;-23.996042251586914;17.331172943115234;-136.94210815429688
372;1673428329.5644352;47.1282541;7.237338599999999;86.14500427246094;1673428329.566374;-23.918777465820312;17.394386291503906;-136.9571533203125
373;1673428329.7026541;47.1282442;7.2373249;86.53900146484375;1673428329.7065597;-23.907487869262695;17.336181640625;-136.952392578125
374;1673428329.88758;47.128234299999995;7.2373113;86.9310073852539;1673428329.8895335;-23.820829391479492;17.342857360839844;-136.9634552001953
375;1673428330.083885;47.1282243;7.2372976;87.32600402832031;1673428330.0858424;-23.851659774780273;17.199541091918945;-136.93324279785156
376;1673428330.2959304;47.1282144;7.237284;87.72200775146484;1673428330.299833;-24.057937622070312;17.224214553833008;-136.9607696533203
377;1673428330.484818;47.128204499999995;7.2372704;88.11600494384766;1673428330.4867725;-23.992023468017578;17.269906997680664;-136.956787109375
378;1673428330.6959069;47.1281946;7.2372568;88.50800323486328;1673428330.6988351;-23.963666915893555;17.339637756347656;-136.9658966064453
379;1673428330.897745;47.1281846;7.2372431;88.89900207519531;1673428330.9183545;-23.9017276763916;17.30532455444336;-136.9430694580078
380;1673428331.1578357;47.128174699999995;7.2372293999999995;89.29100799560547;1673428331.159787;-23.833574295043945;17.298418045043945;-136.93467712402344
381;1673428331.3462663;47.1281648;7.2372157999999995;89.6820068359375;1673428331.3472538;-24.05703353881836;17.286348342895508;-136.9829559326172
382;1673428331.540231;47.1281548;7.2372023;90.07400512695312;1673428331.542185;-24.127864837646484;17.299964904785156;-136.96267700195312
383;1673428331.7401605;47.128144899999995;7.2371887;90.46300506591797;1673428331.7430887;-23.92700958251953;17.365768432617188;-136.95175170898438
384;1673428331.9495006;47.1281349;7.237175;90.85000610351562;1673428331.9514527;-23.755207061767578;17.347719192504883;-136.93499755859375
385;1673428332.1525588;47.128125;7.2371614;91.23800659179688;1673428332.1554859;-23.87552261352539;17.33843231201172;-136.96417236328125
386;1673428332.337703;47.128115099999995;7.2371478;91.6300048828125;1673428332.3396554;-23.960830688476562;17.273805618286133;-136.96051025390625
387;1673428332.523452;47.1281051;7.2371342;92.02100372314453;1673428332.5254052;-24.03711700439453;17.206777572631836;-136.93968200683594
388;1673428332.7480679;47.1280952;7.2371206;92.41200256347656;1673428332.7490566;-23.9941349029541;17.265531539916992;-136.91468811035156
389;1673428332.910495;47.128085299999995;7.237107099999999;92.80500793457031;1673428332.9124482;-24.06645965576172;17.235021591186523;-136.95599365234375
390;1673428333.095884;47.1280753;7.237093499999999;93.19400787353516;1673428333.0988126;-24.077510833740234;17.252700805664062;-136.95433044433594
391;1673428333.3254895;47.1280654;7.2370798999999995;93.5830078125;1673428333.3274617;-23.901418685913086;17.257396697998047;-136.92543029785156
392;1673428333.5343857;47.1280554;7.2370662;93.97200775146484;1673428333.538285;-23.807737350463867;17.354549407958984;-136.91995239257812
393;1673428333.7796702;47.1280454;7.237052599999999;94.36600494384766;1673428333.7816393;-23.89792823791504;17.209686279296875;-136.92864990234375
394;1673428333.9674575;47.128035399999995;7.2370391;94.76300811767578;1673428333.9684265;-23.911701202392578;17.32689666748047;-136.92478942871094
395;1673428334.1683235;47.1280255;7.2370255;95.16000366210938;1673428334.1712444;-23.90043830871582;17.279876708984375;-136.91651916503906
396;1673428334.3624084;47.1280156;7.237012;95.55500793457031;1673428334.3633845;-23.97056770324707;17.38018798828125;-136.91842651367188
397;1673428334.532925;47.128005599999995;7.2369984;95.95000457763672;1673428334.5339181;-24.093902587890625;17.3553466796875;-136.9380645751953
398;1673428334.716407;47.1279957;7.2369848999999995;96.34500122070312;1673428334.7183585;-23.99840545654297;17.37893295288086;-136.898193359375
399;1673428334.9020119;47.127985699999996;7.2369712999999996;96.74000549316406;1673428334.9049568;-23.94192123413086;17.430330276489258;-136.89035034179688
400;1673428335.092898;47.127975799999994;7.2369577;97.13600158691406;1673428335.095826;-23.99735450744629;17.45525550842285;-136.8843994140625
401;1673428335.2874346;47.1279659;7.2369441;97.53400421142578;1673428335.2903523;-24.00171661376953;17.358556747436523;-136.87925720214844
402;1673428335.4849575;47.127956;7.2369305;97.9310073852539;1673428335.4869113;-24.003705978393555;17.261690139770508;-136.90444946289062
403;1673428335.6882677;47.127945999999994;7.2369169;98.3270034790039;1673428335.6922598;-24.11328887939453;17.16114044189453;-136.91709899902344
404;1673428335.8870275;47.1279361;7.2369033;98.72300720214844;1673428335.8919055;-24.003948211669922;17.27066993713379;-136.8984375
405;1673428336.0931416;47.127926099999996;7.2368897;99.12000274658203;1673428336.099972;-23.99736213684082;17.25899887084961;-136.879638671875
406;1673428336.280899;47.1279162;7.2368761;99.51600646972656;1673428336.2828662;-23.90504264831543;17.360464096069336;-136.89163208007812
407;1673428336.471681;47.1279062;7.2368624;99.91000366210938;1673428336.4755564;-23.726335525512695;17.40480613708496;-136.8708953857422
408;1673428336.6552274;47.127896299999996;7.2368488;100.3060073852539;1673428336.659133;-23.81252098083496;17.160953521728516;-136.86720275878906
409;1673428336.8575907;47.1278864;7.2368352;100.70100402832031;1673428336.8624842;-23.9301700592041;17.206708908081055;-136.89891052246094
410;1673428337.074832;47.1278764;7.2368216;101.09900665283203;1673428337.0777771;-23.99108123779297;17.199844360351562;-136.87599182128906
411;1673428337.2804809;47.127866499999996;7.236808;101.49900817871094;1673428337.2843885;-23.932008743286133;17.341445922851562;-136.8658447265625
412;1673428337.488968;47.1278565;7.2367944;101.89800262451172;1673428337.4928718;-23.956247329711914;17.286949157714844;-136.8635711669922
413;1673428337.6680856;47.1278466;7.2367808;102.29700469970703;1673428337.6710134;-23.80655860900879;17.436140060424805;-136.86651611328125
414;1673428337.859755;47.127836699999996;7.2367672;102.69800567626953;1673428337.86366;-23.870813369750977;17.39014434814453;-136.85702514648438
415;1673428338.067593;47.1278268;7.2367535;103.09700775146484;1673428338.0705297;-23.997657775878906;17.21910285949707;-136.85902404785156
416;1673428338.271713;47.127817;7.2367399;103.49700164794922;1673428338.2746546;-24.019607543945312;17.149471282958984;-136.86453247070312
417;1673428338.4737208;47.1278071;7.2367263;103.9000015258789;1673428338.4756718;-24.09364891052246;17.235050201416016;-136.86573791503906
