;pos_time;latitude;longitude;altitude;alt_time;pitch;roll;yaw
0;1673423071.5927694;47.1306424;7.24062;0.01900000125169754;1673423071.7451167;-0.17779096961021423;-0.8468008041381836;90.11483001708984
1;1673423071.8007476;47.1306423;7.24062;0.01600000075995922;1673423071.942388;-0.06392480432987213;-0.025501297786831856;90.07830047607422
2;1673423071.9989774;47.1306423;7.24062;0.01600000075995922;1673423072.138677;0.037051308900117874;-0.27134647965431213;90.17235565185547
3;1673423072.1972742;47.1306423;7.2406198999999996;0.017000000923871994;1673423072.33891;0.13329553604125977;-0.17189086973667145;90.02513885498047
4;1673423072.3955061;47.1306423;7.2406198999999996;0.015000000596046448;1673423072.5693269;-0.1895373910665512;-0.15444031357765198;90.3228759765625
5;1673423072.6239872;47.1306423;7.240619799999999;0.01600000075995922;1673423072.7783062;-0.014906620606780052;-0.17643475532531738;90.23754119873047
6;1673423072.859834;47.1306423;7.240619799999999;0.018000001087784767;1673423072.9902174;0.02323043905198574;-0.17522235214710236;90.3796157836914
7;1673423073.0395405;47.1306423;7.240619799999999;0.017000000923871994;1673423073.196272;-0.13251103460788727;-0.21601109206676483;90.38298034667969
8;1673423073.2524385;47.1306423;7.240619799999999;0.015000000596046448;1673423073.382785;-0.2584758996963501;-0.11222535371780396;90.37810516357422
9;1673423073.4331167;47.1306422;7.2406198999999996;0.01600000075995922;1673423073.566394;-0.17081892490386963;-0.07488634437322617;90.34521484375
10;1673423073.6151931;47.1306422;7.24062;0.0;1673423073.7646306;-0.09400556981563568;0.46938198804855347;90.41476440429688
11;1673423073.8114777;47.1306422;7.24062;-0.0010000000474974513;1673423073.9345663;-0.23869633674621582;0.24454674124717712;90.25984191894531
12;1673423073.994085;47.1306422;7.2406201;-0.005000000353902578;1673423074.1378167;-0.3240015506744385;0.2756288945674896;90.22919464111328
13;1673423074.1914947;47.1306422;7.2406201;-0.006000000052154064;1673423074.3419986;-0.2121773660182953;0.1754455268383026;90.32576751708984
14;1673423074.4035006;47.1306422;7.2406201999999995;-0.005000000353902578;1673423074.5488684;-0.19137512147426605;0.19287368655204773;90.3984375
15;1673423074.6097815;47.1306422;7.2406201999999995;-0.003000000026077032;1673423074.7491693;0.0038854170124977827;0.2451970875263214;90.40817260742188
16;1673423074.7985873;47.1306422;7.2406201;-0.005000000353902578;1673423074.94874;0.1623363196849823;0.77836674451828;90.32307434082031
17;1673423075.02572;47.1306423;7.2406201;-0.007000000216066837;1673423075.1667295;0.2868502140045166;0.3085152804851532;90.14297485351562
18;1673423075.2241237;47.1306423;7.24062;0.0;1673423075.3666983;0.1398361623287201;0.9449591040611267;90.16609954833984
19;1673423075.4205337;47.1306423;7.24062;0.0;1673423075.5610044;0.014735838398337364;0.6346433758735657;90.19609069824219
20;1673423075.6145725;47.1306423;7.2406198999999996;-0.0010000000474974513;1673423075.7459636;0.0561721995472908;0.35685649514198303;90.41202545166016
21;1673423075.802987;47.1306423;7.24062;-0.003000000026077032;1673423075.9579117;0.015434065833687782;0.7360302805900574;90.31867218017578
22;1673423076.0177271;47.1306423;7.24062;-0.004000000189989805;1673423076.151485;0.11074311286211014;-0.10663001984357834;90.2198715209961
23;1673423076.2048519;47.1306423;7.24062;-0.0010000000474974513;1673423076.3548782;0.14220382273197174;0.13016627728939056;90.47442626953125
24;1673423076.408013;47.1306423;7.24062;0.0020000000949949026;1673423076.5547302;0.11604224145412445;0.12710316479206085;90.33656311035156
25;1673423076.611729;47.1306422;7.24062;0.0020000000949949026;1673423076.7579503;-0.09354276955127716;0.0948886051774025;90.29899597167969
26;1673423076.8216202;47.1306422;7.24062;0.0;1673423076.9707108;0.07590633630752563;-0.3314458429813385;90.0998306274414
27;1673423077.0467508;47.130642099999996;7.24062;-0.004000000189989805;1673423077.2070036;-0.2052796334028244;-0.7380340695381165;90.12293243408203
28;1673423077.2569427;47.1306419;7.24062;-0.00800000037997961;1673423077.3667064;-1.3801487684249878;-6.31622314453125;87.05167388916016
29;1673423077.4180353;47.1306416;7.24062;0.005000000353902578;1673423077.5600061;-3.446727991104126;-10.469008445739746;85.69151306152344
30;1673423077.6127615;47.1306412;7.240619799999999;0.03400000184774399;1673423077.7536738;-4.0963640213012695;-9.543506622314453;86.3642349243164
31;1673423077.813651;47.130640899999996;7.2406197;0.08000000566244125;1673423077.9488125;-2.7480294704437256;-10.72329044342041;86.98491668701172
32;1673423078.0137153;47.1306407;7.2406196;0.1380000114440918;1673423078.1634762;-2.2564444541931152;-14.689565658569336;87.91064453125
33;1673423078.2248056;47.1306405;7.2406196;0.2110000103712082;1673423078.3547869;-1.78949773311615;-10.217203140258789;88.21644592285156
34;1673423078.4082017;47.1306406;7.2406197;0.2970000207424164;1673423078.5581238;-1.981636881828308;-10.23816204071045;89.0263900756836
35;1673423078.6176608;47.130640899999996;7.240619799999999;0.39400002360343933;1673423078.7690427;-1.8775714635849;-13.095834732055664;90.05569458007812
36;1673423078.8276517;47.1306413;7.2406198999999996;0.5010000467300415;1673423078.967378;-2.3935189247131348;-9.274166107177734;90.35469818115234
37;1673423079.0278897;47.1306417;7.24062;0.6220000386238098;1673423079.183232;-1.6454745531082153;-7.166066646575928;90.46099853515625
38;1673423079.2384284;47.130641999999995;7.24062;0.7570000290870667;1673423079.3882961;-0.8478319644927979;-11.60399055480957;90.90247344970703
39;1673423079.439576;47.1306422;7.24062;0.9040000438690186;1673423079.5738323;-0.9210705757141113;-9.759422302246094;90.90811157226562
40;1673423079.6255658;47.1306423;7.2406201;1.0630000829696655;1673423079.7624133;-1.0203777551651;-6.772110462188721;90.9597396850586
41;1673423079.8150985;47.1306425;7.2406201;1.2340000867843628;1673423079.9577327;-1.3985854387283325;-10.645307540893555;91.44540405273438
42;1673423080.0221498;47.130642699999996;7.2406201;1.4160000085830688;1673423080.155991;-1.9037257432937622;-9.590776443481445;90.45478057861328
43;1673423080.206742;47.1306429;7.2406201;1.599000096321106;1673423080.341527;-1.926835298538208;-6.480618953704834;90.50454711914062
44;1673423080.3991098;47.1306429;7.2406201;1.7890000343322754;1673423080.5544782;-1.3766272068023682;-9.588228225708008;90.65123748779297
45;1673423080.6149774;47.1306428;7.2406201;1.9810000658035278;1673423080.758589;-1.0419689416885376;-11.952227592468262;90.84394836425781
46;1673423080.8200831;47.130642699999996;7.2406201;2.1720001697540283;1673423080.964652;-1.239147663116455;-7.733641624450684;90.7562255859375
47;1673423081.0261266;47.130642599999995;7.2406201;2.3630001544952393;1673423081.1756244;-1.2125976085662842;-10.236656188964844;91.02577209472656
48;1673423081.2244205;47.130642699999996;7.2406201;2.552000045776367;1673423081.371889;-1.4995418787002563;-11.23715591430664;91.33493041992188
49;1673423081.4284973;47.1306428;7.2406201;2.742000102996826;1673423081.5671878;-1.4689401388168335;-7.333893775939941;91.08061218261719
50;1673423081.6277437;47.1306428;7.2406201;2.93500018119812;1673423081.7703266;-1.5180726051330566;-9.353836059570312;91.1700439453125
51;1673423081.8279092;47.130642699999996;7.2406201;3.128000259399414;1673423081.9734979;-1.126465082168579;-12.802289962768555;91.26500701904297
52;1673423082.0271902;47.130642599999995;7.2406201;3.324000120162964;1673423082.1483655;-1.2102564573287964;-7.967350959777832;91.01302337646484
53;1673423082.2000942;47.1306425;7.2406201;3.5190000534057617;1673423082.3778286;-1.3274024724960327;-8.366307258605957;91.15799713134766
54;1673423082.4340112;47.1306425;7.2406201;3.7150001525878906;1673423082.621925;-1.606576681137085;-11.9173002243042;91.36346435546875
55;1673423082.701579;47.1306425;7.2406201;3.9080002307891846;1673423082.8383305;-1.6604317426681519;-8.307831764221191;90.99459075927734
56;1673423082.8988423;47.1306425;7.2406201;4.1020002365112305;1673423083.032133;-1.500436544418335;-8.325773239135742;90.88115692138672
57;1673423083.0795138;47.1306423;7.2406201999999995;4.298000335693359;1673423083.2080204;-1.250630497932434;-12.502718925476074;91.17710876464844
58;1673423083.2740178;47.1306422;7.2406201999999995;4.494000434875488;1673423083.4121878;-1.242110013961792;-9.52198314666748;91.30606079101562
59;1673423083.4859083;47.130642099999996;7.2406201999999995;4.688000202178955;1673423083.6481333;-1.0883994102478027;-7.911128520965576;91.07017517089844
60;1673423083.7125282;47.130641999999995;7.2406203;4.879000186920166;1673423083.8385947;-1.057839035987854;-12.320942878723145;91.12799072265625
61;1673423083.88154;47.130642099999996;7.2406203;5.070000171661377;1673423084.0485542;-0.8241026997566223;-10.424660682678223;91.18921661376953
62;1673423084.0914853;47.130642099999996;7.2406203;5.266000270843506;1673423084.2336159;-1.306311011314392;-7.545993328094482;90.97392272949219
63;1673423084.281973;47.130641999999995;7.2406201999999995;5.465000152587891;1673423084.427937;-1.4123724699020386;-10.948127746582031;90.99736785888672
64;1673423084.4694626;47.1306419;7.2406201999999995;5.663000106811523;1673423084.5832133;-1.5896110534667969;-12.045805931091309;91.11653900146484
65;1673423084.6300936;47.1306419;7.2406201;5.86400032043457;1673423084.7824538;-1.7782062292099;-8.184030532836914;90.98014831542969
66;1673423084.8332045;47.1306419;7.24062;6.063000202178955;1673423084.9758468;-1.7577790021896362;-10.284197807312012;91.10576629638672
67;1673423085.0314796;47.130641999999995;7.2406198999999996;6.261000156402588;1673423085.1682882;-1.349949836730957;-11.793719291687012;91.16986083984375
68;1673423085.2258627;47.130641999999995;7.2406198999999996;6.462000370025635;1673423085.3557663;-1.2848149538040161;-7.7959065437316895;91.06999969482422
69;1673423085.41335;47.130641999999995;7.2406198999999996;6.663000106811523;1673423085.5510933;-1.2853807210922241;-8.433661460876465;91.16703796386719
70;1673423085.6037962;47.1306419;7.24062;6.8610005378723145;1673423085.7454758;-1.4449254274368286;-12.453669548034668;91.19950866699219
71;1673423085.8050086;47.1306419;7.24062;7.056000232696533;1673423085.951531;-1.5421321392059326;-8.021464347839355;90.86075592041016
72;1673423086.008139;47.1306419;7.2406201;7.25100040435791;1673423086.164479;-1.8460613489151;-8.831670761108398;90.91346740722656
73;1673423086.2191331;47.1306419;7.2406201;7.444000244140625;1673423086.3578212;-1.493920922279358;-12.11632251739502;91.24652099609375
74;1673423086.4105253;47.1306419;7.2406201;7.640000343322754;1673423086.5550697;-1.216191053390503;-9.240009307861328;91.12242126464844
75;1673423086.6107047;47.1306419;7.2406201;7.837000370025635;1673423086.7542765;-1.2745555639266968;-8.056912422180176;90.8801040649414
76;1673423086.8167474;47.1306418;7.2406201;8.032999992370605;1673423086.96324;-1.1305570602416992;-12.61251449584961;91.3228988647461
77;1673423087.018867;47.1306417;7.2406201;8.229000091552734;1673423087.1868877;-1.2621548175811768;-9.949056625366211;91.10479736328125
78;1673423087.246949;47.1306417;7.2406201999999995;8.430000305175781;1673423087.4212108;-1.7922734022140503;-8.2314453125;90.83721923828125
79;1673423087.4734752;47.1306417;7.2406201999999995;8.62700080871582;1673423087.6453526;-1.6246774196624756;-12.101239204406738;91.21461486816406
80;1673423087.7029355;47.1306418;7.2406201999999995;8.826000213623047;1673423087.8371823;-1.6583101749420166;-10.10165786743164;91.36921691894531
81;1673423087.879702;47.1306418;7.2406203;9.022000312805176;1673423088.0564344;-1.403104543685913;-7.469501972198486;90.95576477050781
82;1673423088.1043055;47.1306418;7.2406203;9.220000267028809;1673423088.2390935;-1.3127050399780273;-12.294551849365234;91.2040786743164
83;1673423088.313271;47.1306418;7.2406203;9.417000770568848;1673423088.4182422;-1.4286900758743286;-10.318291664123535;91.01485443115234
84;1673423088.4685464;47.1306418;7.2406203;9.610000610351562;1673423088.5959628;-1.618929147720337;-7.479620456695557;90.81434631347656
85;1673423088.6482246;47.130641999999995;7.2406201999999995;9.804000854492188;1673423088.8098195;-1.631777286529541;-11.370705604553223;91.15775299072266
86;1673423088.861093;47.130641999999995;7.2406201999999995;10.00100040435791;1673423089.015869;-1.6379084587097168;-10.997254371643066;91.1404037475586
87;1673423089.0622497;47.130641999999995;7.2406203;10.208000183105469;1673423089.1839724;-1.645495057106018;-8.102638244628906;90.75894927978516
88;1673423089.2401364;47.1306419;7.2406203;10.500000953674316;1673423089.3714614;-2.0265047550201416;-10.640382766723633;90.89971160888672
89;1673423089.4280705;47.130641999999995;7.2406204999999995;10.868000984191895;1673423089.5726116;-1.3786654472351074;-12.98007869720459;91.19432067871094
90;1673423089.6302028;47.1306422;7.2406206;11.253000259399414;1673423089.774738;-1.2601642608642578;-7.281661033630371;91.07340240478516
91;1673423089.8332999;47.1306424;7.2406207;11.63900089263916;1673423089.984669;-0.9657721519470215;-8.534934997558594;91.20537567138672
92;1673423090.0447419;47.130642599999995;7.240620799999999;12.031000137329102;1673423090.1887908;-0.7717164158821106;-10.868346214294434;91.23643493652344
93;1673423090.2395453;47.130642599999995;7.240620799999999;12.428000450134277;1673423090.385078;-0.7435852885246277;-7.153970718383789;91.08758544921875
94;1673423090.4490461;47.130642599999995;7.240620799999999;12.831000328063965;1673423090.5852463;-0.9244526028633118;-7.974702835083008;91.04015350341797
95;1673423090.6678574;47.1306424;7.240620799999999;13.234000205993652;1673423090.7992306;-1.1667340993881226;-11.875528335571289;91.17637634277344
96;1673423090.8554122;47.1306424;7.2406207;13.637001037597656;1673423091.004338;-1.401084542274475;-8.089942932128906;90.97708892822266
97;1673423091.0566;47.1306424;7.2406206;14.040000915527344;1673423091.2123487;-1.704011082649231;-7.7750444412231445;91.02542114257812
98;1673423091.298871;47.1306424;7.2406204999999995;14.441000938415527;1673423091.432149;-1.486750602722168;-11.5147066116333;91.28358459472656
99;1673423091.4853837;47.1306423;7.2406204;14.844000816345215;1673423091.6245456;-1.4096369743347168;-9.401381492614746;91.25221252441406
100;1673423091.6768298;47.130642099999996;7.2406204;15.250000953674316;1673423091.8199027;-1.1888935565948486;-7.739113807678223;90.92911529541016
101;1673423091.870221;47.130641999999995;7.2406204;15.656001091003418;1673423092.0044549;-1.358846664428711;-12.327479362487793;91.15336608886719
102;1673423092.0635707;47.1306419;7.2406204;16.06100082397461;1673423092.2164164;-1.4222337007522583;-10.39964771270752;90.99728393554688
103;1673423092.2746563;47.130641999999995;7.2406204;16.461999893188477;1673423092.4216213;-1.6485481262207031;-7.237979888916016;90.90824890136719
104;1673423092.4856062;47.130641999999995;7.2406204;16.860000610351562;1673423092.6257122;-1.4776036739349365;-10.475873947143555;91.13850402832031
105;1673423092.702395;47.130642099999996;7.2406204;17.261001586914062;1673423092.8279185;-1.1391985416412354;-10.868595123291016;91.27424621582031
106;1673423092.8811936;47.130641999999995;7.2406204;17.663000106811523;1673423093.0340264;-1.4504696130752563;-7.2898640632629395;91.00999450683594
107;1673423093.0872626;47.1306419;7.2406204;18.065000534057617;1673423093.2196038;-1.2742664813995361;-10.576358795166016;91.2328109741211
108;1673423093.268943;47.1306419;7.2406204;18.46700096130371;1673423093.4061666;-1.2211257219314575;-11.17431354522705;91.33708190917969
109;1673423093.4525568;47.130641999999995;7.2406204;18.867000579833984;1673423093.623903;-1.3742626905441284;-7.592432022094727;90.87215423583984
110;1673423093.6790977;47.130641999999995;7.2406204;19.262001037597656;1673423093.8124237;-1.6238958835601807;-9.682806968688965;91.04191589355469
111;1673423093.869616;47.130641999999995;7.2406204;19.658000946044922;1673423094.0087488;-1.2312712669372559;-11.664909362792969;91.21720123291016
112;1673423094.0571115;47.130641999999995;7.2406204;20.06100082397461;1673423094.194321;-1.4281032085418701;-7.937496662139893;90.91275024414062
113;1673423094.2421477;47.1306419;7.2406204;20.464000701904297;1673423094.3876681;-1.380365252494812;-9.04780101776123;90.99851989746094
114;1673423094.4403727;47.130641999999995;7.2406204;20.863000869750977;1673423094.5839577;-1.2885280847549438;-11.960319519042969;91.40520477294922
115;1673423094.637624;47.130642099999996;7.2406204;21.262001037597656;1673423094.7616699;-1.1254191398620605;-7.188653469085693;91.16805267333984
116;1673423094.8231583;47.1306422;7.2406204;21.654001235961914;1673423094.9706807;-1.320827841758728;-8.8158540725708;91.0862808227539
117;1673423095.0233839;47.1306423;7.2406204;22.049001693725586;1673423095.1713972;-1.3828381299972534;-11.659653663635254;91.20195770263672
118;1673423095.2397354;47.1306423;7.2406203;22.44900131225586;1673423095.383304;-1.4905396699905396;-8.260562896728516;90.88914489746094
119;1673423095.4311285;47.1306422;7.2406203;22.850000381469727;1673423095.5610373;-1.5256980657577515;-8.028907775878906;90.8306884765625
120;1673423095.6137402;47.1306422;7.2406203;23.251001358032227;1673423095.757327;-1.4104279279708862;-12.085973739624023;91.26435089111328
121;1673423095.8110077;47.1306423;7.2406201999999995;23.648000717163086;1673423095.9462454;-1.0746318101882935;-9.05001163482666;91.23951721191406
122;1673423096.0004587;47.1306423;7.2406201999999995;24.04400062561035;1673423096.1381755;-1.537238597869873;-7.700644493103027;91.14976501464844
123;1673423096.1938384;47.1306423;7.2406201;24.43800163269043;1673423096.3628078;-1.5314136743545532;-11.617622375488281;91.34776306152344
124;1673423096.4223604;47.1306422;7.24062;24.839000701904297;1673423096.5512786;-1.6005700826644897;-9.798667907714844;91.05186462402344
125;1673423096.6127665;47.130642099999996;7.24062;25.242000579833984;1673423096.8129804;-1.9101206064224243;-7.510379791259766;90.73884582519531
126;1673423096.87897;47.130642099999996;7.2406198999999996;25.644001007080078;1673423097.0151713;-1.601028323173523;-10.845357894897461;91.00761413574219
127;1673423097.0723772;47.1306422;7.2406198999999996;26.041000366210938;1673423097.1998405;-1.3887466192245483;-10.636038780212402;91.1161117553711
128;1673423097.2550178;47.1306423;7.24062;26.441001892089844;1673423097.3892684;-1.388500452041626;-7.150909900665283;90.91828918457031
129;1673423097.4390447;47.1306423;7.24062;26.83700180053711;1673423097.5767903;-1.4593837261199951;-9.344775199890137;91.21526336669922
130;1673423097.6373029;47.1306424;7.24062;27.237001419067383;1673423097.7740462;-1.3742786645889282;-11.398855209350586;91.35293579101562
131;1673423097.8414097;47.1306424;7.24062;27.641000747680664;1673423097.9693613;-1.3878141641616821;-6.640175819396973;91.0044174194336
132;1673423098.0347688;47.1306424;7.24062;28.042001724243164;1673423098.1647153;-1.371948480606079;-9.810101509094238;91.19200897216797
133;1673423098.218394;47.1306424;7.24062;28.441001892089844;1673423098.3814826;-1.3044776916503906;-11.101887702941895;91.1867904663086
134;1673423098.4341862;47.1306425;7.24062;28.84200096130371;1673423098.5748281;-1.4113689661026;-7.3435211181640625;90.93396759033203
135;1673423098.625582;47.1306425;7.24062;29.248001098632812;1673423098.7691588;-1.5672088861465454;-8.703703880310059;91.02458953857422
136;1673423098.8218627;47.1306424;7.24062;29.648000717163086;1673423098.9625118;-1.3778513669967651;-12.35455322265625;91.35359954833984
137;1673423099.0152094;47.1306423;7.24062;30.045001983642578;1673423099.144215;-1.643527626991272;-7.9298272132873535;90.85140991210938
138;1673423099.1970177;47.1306422;7.24062;30.44300079345703;1673423099.3361354;-1.5336719751358032;-8.863268852233887;91.0286636352539
139;1673423099.3903518;47.1306422;7.24062;30.840002059936523;1673423099.5490487;-1.3958970308303833;-12.138701438903809;91.41741943359375
140;1673423099.6169848;47.1306422;7.24062;31.237001419067383;1673423099.7673845;-1.5370973348617554;-8.533639907836914;91.1669692993164
141;1673423099.834786;47.1306423;7.24062;31.637001037597656;1673423099.9958673;-1.4197099208831787;-8.013710975646973;91.06396484375
142;1673423100.0627706;47.1306422;7.24062;32.03300094604492;1673423100.1961088;-1.4983222484588623;-12.06583309173584;91.16004180908203
143;1673423100.2478397;47.1306422;7.24062;32.43400192260742;1673423100.3962843;-1.4836807250976562;-9.937199592590332;90.99906158447266
144;1673423100.4470432;47.130642099999996;7.24062;32.83300018310547;1673423100.5838053;-1.8324611186981201;-7.455210208892822;90.98295593261719
145;1673423100.6365027;47.1306422;7.24062;33.22800064086914;1673423100.7869024;-1.4556578397750854;-12.004329681396484;91.25465393066406
146;1673423100.851326;47.1306423;7.24062;33.62600326538086;1673423101.017445;-1.391748070716858;-9.347338676452637;91.2005844116211
147;1673423101.0717282;47.1306424;7.24062;34.02900314331055;1673423101.2033124;-1.3181549310684204;-7.0646562576293945;91.05728912353516
148;1673423101.2634206;47.1306424;7.2406201;34.432003021240234;1673423101.403523;-1.2981730699539185;-11.505412101745605;91.37305450439453
149;1673423101.461642;47.1306423;7.2406201;34.8280029296875;1673423101.6251748;-1.347652554512024;-10.053502082824707;91.16850280761719
150;1673423101.6862247;47.1306423;7.2406201;35.22100067138672;1673423101.8185194;-1.5115866661071777;-7.225269794464111;90.87934112548828
151;1673423101.8717706;47.1306423;7.2406201;35.61600112915039;1673423102.0118904;-1.4682435989379883;-10.682714462280273;91.0566177368164
152;1673423102.0670652;47.1306424;7.2406201;36.01700210571289;1673423102.2052605;-1.3539249897003174;-10.327919006347656;91.19471740722656
153;1673423102.2624404;47.1306425;7.2406201;36.42300033569336;1673423102.4025543;-1.5227997303009033;-7.121838569641113;91.0417251586914
154;1673423102.4513402;47.1306425;7.2406201;36.829002380371094;1673423102.5958812;-1.4867100715637207;-9.42074966430664;91.09031677246094
155;1673423102.668639;47.1306425;7.2406201;37.22700119018555;1673423102.8048415;-1.3743153810501099;-11.944522857666016;91.14893341064453
156;1673423102.864912;47.1306424;7.2406201;37.624000549316406;1673423103.0020893;-1.3769481182098389;-7.5250420570373535;90.91443634033203
157;1673423103.0563366;47.1306424;7.2406201;38.02400207519531;1673423103.1945677;-1.5638809204101562;-8.940610885620117;91.15451049804688
158;1673423103.2472572;47.1306425;7.2406201999999995;38.42400360107422;1673423103.3850253;-1.5265954732894897;-11.26719856262207;91.37898254394531
159;1673423103.4367821;47.130642599999995;7.2406201999999995;38.82100296020508;1673423103.5833619;-1.4750267267227173;-7.731557846069336;91.0914306640625
160;1673423103.6360657;47.130642599999995;7.2406201999999995;39.217002868652344;1673423103.7835524;-1.6311275959014893;-7.898987770080566;90.89163208007812
161;1673423103.8352642;47.130642599999995;7.2406201999999995;39.61300277709961;1673423103.9700656;-1.3623292446136475;-12.061720848083496;91.16905212402344
162;1673423104.0276341;47.130642599999995;7.2406201;40.00200271606445;1673423104.1704245;-1.5178035497665405;-8.997228622436523;91.03325653076172
163;1673423104.2299604;47.1306425;7.2406201;40.3900032043457;1673423104.366818;-1.4891386032104492;-7.130847454071045;90.8680419921875
164;1673423104.427329;47.130642599999995;7.2406201;40.77800369262695;1673423104.574801;-1.5454527139663696;-11.460482597351074;91.10381317138672
165;1673423104.640191;47.130642599999995;7.2406201;41.17000198364258;1673423104.7896147;-1.6915605068206787;-9.615252494812012;91.02345275878906
166;1673423104.8481946;47.130642599999995;7.2406201;41.5620002746582;1673423104.996692;-1.6961897611618042;-6.907163619995117;90.80412292480469
167;1673423105.056238;47.130642599999995;7.2406201;41.95600128173828;1673423105.201791;-1.5751887559890747;-10.821352005004883;91.26107025146484
168;1673423105.253519;47.1306425;7.2406201;42.34800338745117;1673423105.3942213;-1.5101746320724487;-11.301178932189941;91.43162536621094
169;1673423105.4420466;47.1306424;7.24062;42.743003845214844;1673423105.610049;-1.6655248403549194;-7.367663860321045;91.00692749023438
170;1673423105.7101371;47.1306424;7.24062;43.13900375366211;1673423105.853177;-1.5185753107070923;-9.433636665344238;91.0829849243164
171;1673423105.901549;47.1306425;7.24062;43.538002014160156;1673423106.032936;-1.3078941106796265;-11.018794059753418;91.18476104736328
172;1673423106.084235;47.130642599999995;7.24062;43.941001892089844;1673423106.2518008;-1.6315056085586548;-7.130485534667969;90.83190155029297
173;1673423106.3089519;47.130642599999995;7.2406198999999996;44.34700393676758;1673423106.4334881;-1.6051218509674072;-8.270586967468262;91.02960968017578
174;1673423106.4799006;47.1306425;7.2406198999999996;44.75100326538086;1673423106.614145;-1.592957854270935;-11.84954833984375;91.26622009277344
175;1673423106.6644924;47.1306425;7.2406198999999996;45.147003173828125;1673423106.804569;-1.3819255828857422;-7.421545505523682;91.10909271240234
176;1673423106.8582623;47.1306425;7.2406198999999996;45.5420036315918;1673423106.9961817;-1.6646946668624878;-8.441632270812988;91.17123413085938
177;1673423107.044971;47.130642599999995;7.2406198999999996;45.94000244140625;1673423107.1847544;-1.4569687843322754;-11.7219877243042;91.15775299072266
178;1673423107.240388;47.1306425;7.2406198999999996;46.3390007019043;1673423107.3752027;-1.7529406547546387;-8.598429679870605;90.90099334716797
179;1673423107.4337626;47.1306425;7.2406198999999996;46.7400016784668;1673423107.5812333;-1.7281759977340698;-7.7985029220581055;90.96715545654297
180;1673423107.6368668;47.1306424;7.2406198999999996;47.1410026550293;1673423107.7823892;-1.4414341449737549;-12.326457023620605;91.3104476928711
181;1673423107.8370535;47.1306423;7.2406198999999996;47.53600311279297;1673423107.9866047;-1.3905819654464722;-8.932388305664062;91.10424041748047
182;1673423108.0461392;47.1306423;7.2406198999999996;47.932003021240234;1673423108.1976142;-1.8422073125839233;-8.389968872070312;90.93887329101562
183;1673423108.2571507;47.1306423;7.240619799999999;48.302001953125;1673423108.3997552;-1.7160844802856445;-11.825681686401367;91.27188110351562
184;1673423108.4563475;47.1306424;7.240619799999999;48.624000549316406;1673423108.6038368;-1.759016990661621;-9.956995964050293;91.11109161376953
185;1673423108.6678123;47.1306423;7.240619799999999;48.89600372314453;1673423108.798162;-1.8954089879989624;-7.011622905731201;91.09815216064453
186;1673423108.8557467;47.1306422;7.2406197;49.121002197265625;1673423109.003219;-1.7441847324371338;-12.241999626159668;91.44071960449219
187;1673423109.0608044;47.130642099999996;7.2406197;49.30400085449219;1673423109.223061;5.901493072509766;-4.285713195800781;91.58229064941406
188;1673423109.274338;47.1306419;7.240619499999999;49.45100402832031;1673423109.4115376;23.924335479736328;20.809709548950195;101.84342956542969
189;1673423109.4613163;47.130641;7.2406181;49.586002349853516;1673423109.5931852;29.850370407104492;40.8314323425293;113.05843353271484
190;1673423109.6507711;47.130638399999995;7.240614;49.7030029296875;1673423109.7953255;25.85847282409668;49.92707824707031;120.47602081298828
191;1673423109.8568149;47.1306332;7.240606199999999;49.785003662109375;1673423109.980873;10.757596969604492;51.82768249511719;130.4930419921875
192;1673423110.0296729;47.130625699999996;7.240595;49.832000732421875;1673423110.2533116;-4.173026084899902;51.20990753173828;140.97528076171875
193;1673423110.316323;47.130615999999996;7.2405811;49.86000061035156;1673423110.4398963;-19.791950225830078;48.34241485595703;151.24818420410156
194;1673423110.4970253;47.130604299999995;7.240564999999999;49.88100051879883;1673423110.6556766;-34.91654586791992;43.27738952636719;164.33055114746094
195;1673423110.7041063;47.1305907;7.2405469;49.897003173828125;1673423110.8335402;-46.66001892089844;41.18735122680664;176.96237182617188
196;1673423110.8936002;47.130575199999996;7.240526699999999;49.90800094604492;1673423111.021993;-54.71443176269531;34.09721374511719;-170.76583862304688
197;1673423111.0831468;47.1305578;7.2405038;49.89600372314453;1673423111.2214224;-51.37078857421875;25.535945892333984;-162.52359008789062
198;1673423111.2786012;47.1305391;7.240478899999999;49.85600280761719;1673423111.4099252;-47.874420166015625;19.96879768371582;-156.71766662597656
199;1673423111.4661005;47.1305194;7.240452599999999;49.802001953125;1673423111.6081617;-48.67134475708008;15.225178718566895;-149.89682006835938
200;1673423111.667258;47.1304993;7.2404253999999995;49.746002197265625;1673423111.7946775;-48.034141540527344;11.267607688903809;-143.354248046875
201;1673423111.8415427;47.1304788;7.2403974;49.69900131225586;1673423111.9851153;-45.457618713378906;7.2821431159973145;-136.34292602539062
202;1673423112.0446446;47.1304582;7.2403688;49.663002014160156;1673423112.2214391;-46.5204963684082;0.9494948387145996;-130.2042694091797
203;1673423112.2707815;47.1304376;7.2403397;49.6400032043457;1673423112.4040492;-46.55522155761719;-3.030780553817749;-130.922119140625
204;1673423112.450897;47.1304168;7.240310399999999;49.62200164794922;1673423112.6091373;-45.61412048339844;-1.1682549715042114;-134.21092224121094
205;1673423112.6916895;47.1303956;7.2402812999999995;49.618003845214844;1673423112.8620691;-47.57610321044922;-0.1670340746641159;-135.27418518066406
206;1673423112.91238;47.1303743;7.2402523;49.62800216674805;1673423113.0388176;-48.080535888671875;1.11845064163208;-135.94737243652344
207;1673423113.0852282;47.130352699999996;7.2402235;49.643001556396484;1673423113.2253704;-48.24614715576172;2.4853968620300293;-136.40121459960938
208;1673423113.2796016;47.1303309;7.240194499999999;49.663002014160156;1673423113.4656475;-48.22434997558594;3.396566152572632;-136.6627655029297
209;1673423113.5315814;47.130308899999996;7.240165299999999;49.69200134277344;1673423113.7122386;-48.25129318237305;3.766803026199341;-136.62359619140625
210;1673423113.7610328;47.1302868;7.240135899999999;49.72700119018555;1673423113.863094;-49.35520935058594;3.885305881500244;-136.52481079101562
211;1673423113.9271183;47.1302646;7.2401063;49.759002685546875;1673423114.0632777;-49.18437194824219;3.8016698360443115;-136.34329223632812
212;1673423114.1258483;47.1302423;7.2400765;49.788002014160156;1673423114.2586455;-48.899925231933594;3.618715524673462;-136.15187072753906
213;1673423114.3050525;47.13022;7.2400465;49.814002990722656;1673423114.4559066;-48.67605209350586;3.515545129776001;-136.0531005859375
214;1673423114.5345595;47.1301977;7.2400164;49.829002380371094;1673423114.7015667;-48.074249267578125;3.413947343826294;-135.95814514160156
215;1673423114.7802176;47.1301753;7.2399862;49.840003967285156;1673423114.9379144;-47.99509048461914;3.3672003746032715;-135.97750854492188
216;1673423114.967197;47.130153;7.2399559;49.855003356933594;1673423115.0604937;-48.05638885498047;3.44950008392334;-135.99578857421875
217;1673423115.1020215;47.130130699999995;7.2399255;49.86900329589844;1673423115.2441792;-48.35516357421875;3.3121838569641113;-135.91168212890625
218;1673423115.3032727;47.1301084;7.2398951;49.88200378417969;1673423115.4638724;-48.49816131591797;3.3050286769866943;-135.91700744628906
219;1673423115.5161326;47.1300861;7.2398647;49.89500427246094;1673423115.6455557;-48.494258880615234;3.249091386795044;-135.89724731445312
220;1673423115.7222178;47.130063799999995;7.2398342;49.89800262451172;1673423115.8482106;-48.101051330566406;3.2161154747009277;-135.88482666015625
221;1673423115.8960674;47.1300415;7.2398036999999995;49.90200424194336;1673423116.0323482;-47.939491271972656;3.167613983154297;-135.90139770507812
222;1673423116.0865545;47.1300192;7.239773199999999;49.90800094604492;1673423116.222859;-48.252567291259766;3.1881566047668457;-135.92755126953125
223;1673423116.279026;47.129996899999995;7.2397426;49.913002014160156;1673423116.4337797;-48.45707321166992;3.143350124359131;-135.9239044189453
224;1673423116.4792173;47.1299746;7.239712;49.915000915527344;1673423116.62421;-48.279029846191406;3.118032455444336;-135.92987060546875
225;1673423116.6755028;47.1299523;7.239681399999999;49.91100311279297;1673423116.8097606;-47.834144592285156;3.059962034225464;-135.92393493652344
226;1673423116.86442;47.129929999999995;7.2396509;49.90500259399414;1673423116.9992075;-47.676719665527344;3.041541576385498;-135.92518615722656
227;1673423117.0846689;47.1299077;7.2396204;49.89800262451172;1673423117.2267625;-47.807273864746094;3.115323781967163;-135.94993591308594
228;1673423117.2878122;47.1298855;7.2395898999999995;49.893001556396484;1673423117.4318326;-47.892311096191406;3.246109962463379;-136.00314331054688
229;1673423117.4879992;47.1298633;7.2395594;49.89400100708008;1673423117.646682;-48.19389724731445;3.153540849685669;-135.9744415283203
230;1673423117.709762;47.1298411;7.239529;49.89900207519531;1673423117.8255327;-48.5813102722168;3.163130283355713;-135.9588623046875
231;1673423117.8797493;47.1298189;7.2394985;49.90300369262695;1673423118.0140674;-48.58869171142578;3.185199737548828;-135.94586181640625
232;1673423118.0648375;47.1297966;7.239468;49.90400314331055;1673423118.2027528;-48.43198776245117;3.0837013721466064;-135.91770935058594
233;1673423118.2681518;47.129774399999995;7.239437499999999;49.90300369262695;1673423118.4049191;-48.11205291748047;3.083693027496338;-135.92706298828125
234;1673423118.4644587;47.1297521;7.239407;49.90800094604492;1673423118.609008;-48.33140563964844;3.1347341537475586;-135.92529296875
235;1673423118.6636963;47.1297298;7.2393765;49.91100311279297;1673423118.8063428;-48.495277404785156;3.1659889221191406;-135.9079132080078
236;1673423118.8570766;47.1297074;7.2393458;49.90900421142578;1673423118.9909627;-48.30113983154297;3.0621132850646973;-135.8564453125
237;1673423119.0387866;47.129685099999996;7.2393152;49.90900421142578;1673423119.1784918;-48.15904998779297;2.9851555824279785;-135.833740234375
238;1673423119.2360773;47.1296628;7.2392845999999995;49.910003662109375;1673423119.3786793;-48.185428619384766;2.9727182388305664;-135.81610107421875
239;1673423119.432358;47.1296405;7.239254;49.91100311279297;1673423119.5866582;-48.25254821777344;3.002807378768921;-135.84996032714844
240;1673423119.6452353;47.129618199999996;7.239223399999999;49.91200256347656;1673423119.792701;-48.23373794555664;2.9597651958465576;-135.81570434570312
241;1673423119.8502846;47.1295959;7.2391929;49.91200256347656;1673423119.9958515;-48.09210968017578;3.05635404586792;-135.84414672851562
242;1673423120.0504942;47.1295736;7.239162299999999;49.91100311279297;1673423120.1901891;-47.98601150512695;2.970478057861328;-135.78724670410156
243;1673423120.2487485;47.129551299999996;7.2391317;49.91200256347656;1673423120.3913665;-47.95273208618164;2.9579479694366455;-135.75054931640625
244;1673423120.4479887;47.1295289;7.2391011;49.91400146484375;1673423120.5734308;-48.08649444580078;3.0285329818725586;-135.77316284179688
245;1673423120.6305726;47.1295066;7.2390706;49.919002532958984;1673423120.830762;-48.290191650390625;3.0468435287475586;-135.74533081054688
246;1673423120.8830786;47.129484399999996;7.239039999999999;49.92500305175781;1673423121.0416727;-48.473182678222656;2.880608320236206;-135.64404296875
247;1673423121.0949147;47.1294621;7.2390094;49.93100357055664;1673423121.2292197;-48.35210418701172;2.894878625869751;-135.64825439453125
248;1673423121.2795634;47.1294398;7.238978899999999;49.935001373291016;1673423121.4217308;-48.1893424987793;2.997321367263794;-135.63172912597656
249;1673423121.4828758;47.1294176;7.2389484;49.93700408935547;1673423121.6200569;-48.004371643066406;4.8990478515625;-136.12200927734375
250;1673423121.6791635;47.1293953;7.238917799999999;49.93800354003906;1673423121.8203626;-47.9935188293457;4.7885236740112305;-135.47242736816406
251;1673423121.9195187;47.129373099999995;7.238887;49.939002990722656;1673423122.052813;-47.7606315612793;3.604628801345825;-135.05506896972656
252;1673423122.104087;47.129351;7.2388561;49.94200134277344;1673423122.2412949;-47.797420501708984;5.049382209777832;-135.4622802734375
253;1673423122.296525;47.129329;7.2388252;49.94900131225586;1673423122.432801;-41.039730072021484;4.253212928771973;-134.5353546142578
254;1673423122.4851694;47.1293072;7.2387942999999995;49.97600173950195;1673423122.6193657;-27.807106018066406;5.762707233428955;-135.9054718017578
255;1673423122.6813905;47.1292859;7.238764;49.999000549316406;1673423122.8117363;-9.595410346984863;5.497493267059326;-135.85650634765625
256;1673423122.8586;47.1292658;7.2387353;50.00600051879883;1673423122.9944065;4.941808700561523;5.593075752258301;-136.49057006835938
257;1673423123.0539565;47.1292475;7.238709399999999;50.00100326538086;1673423123.1916924;15.404380798339844;6.737351417541504;-136.890869140625
258;1673423123.2482991;47.129231499999996;7.2386868;49.97900390625;1673423123.398698;24.56879425048828;6.186206340789795;-136.6242218017578
259;1673423123.4465232;47.1292179;7.2386678;49.92500305175781;1673423123.5803323;22.272069931030273;4.656968593597412;-136.85292053222656
260;1673423123.6408427;47.129207;7.2386525;49.85700225830078;1673423123.7883117;23.798402786254883;7.555609703063965;-135.5367431640625
261;1673423123.8458972;47.129198099999996;7.2386401;49.816001892089844;1673423124.000288;22.086496353149414;12.522528648376465;-136.4859619140625
262;1673423124.0637255;47.129191;7.2386303;49.76700210571289;1673423124.2063792;16.24683952331543;12.614182472229004;-137.44692993164062
263;1673423124.2678623;47.1291856;7.2386224;49.73600387573242;1673423124.4250953;8.749432563781738;9.606532096862793;-137.30264282226562
264;1673423124.4929743;47.1291815;7.2386156999999995;49.72100067138672;1673423124.6672397;1.3020116090774536;6.745850086212158;-137.2977294921875
265;1673423124.7194998;47.1291782;7.238609599999999;49.72900390625;1673423124.855707;-2.7823503017425537;2.6869020462036133;-136.92242431640625
266;1673423124.9118814;47.1291752;7.238603599999999;49.7760009765625;1673423125.038326;-2.7162437438964844;1.5841643810272217;-137.45152282714844
267;1673423125.0974286;47.129172;7.2385977;49.8380012512207;1673423125.2503302;-2.0870676040649414;1.6536186933517456;-138.4069061279297
268;1673423125.31632;47.1291685;7.238592;49.89500427246094;1673423125.4593883;0.11253924667835236;1.4045863151550293;-139.7314453125
269;1673423125.5088599;47.1291649;7.2385867;49.939002990722656;1673423125.6362526;1.7290321588516235;2.4470298290252686;-140.832275390625
270;1673423125.6895516;47.1291612;7.238582;49.970001220703125;1673423125.837466;4.208979606628418;1.7314128875732422;-141.52752685546875
271;1673423125.885825;47.1291577;7.2385779999999995;49.996002197265625;1673423126.0552104;-4.073103904724121;4.741792678833008;-141.0519256591797
272;1673423126.1094248;47.129154299999996;7.2385743;50.02800369262695;1673423126.2690794;-18.559419631958008;1.9258466958999634;-137.0267791748047
273;1673423126.3311007;47.129150499999994;7.238569999999999;50.090003967285156;1673423126.4634075;-15.672473907470703;-1.5543402433395386;-135.58462524414062
274;1673423126.512758;47.1291461;7.2385646999999995;50.23800277709961;1673423126.67334;-17.738868713378906;0.16948208212852478;-136.56883239746094
275;1673423126.735361;47.129140899999996;7.238558599999999;50.48800277709961;1673423126.8481507;-21.45868492126465;1.9715359210968018;-136.68492126464844
276;1673423126.917981;47.1291349;7.2385516;50.816001892089844;1673423127.0463798;-38.37683868408203;6.999533176422119;-136.7239990234375
277;1673423127.1045022;47.1291278;7.238543;51.1670036315918;1673423127.2729397;-39.09761428833008;8.842406272888184;-136.61532592773438
278;1673423127.3349586;47.1291194;7.238531999999999;51.51700210571289;1673423127.4594448;-37.876976013183594;10.148853302001953;-136.50762939453125
279;1673423127.5107558;47.1291097;7.238518699999999;51.8910026550293;1673423127.6459773;-30.409236907958984;9.123616218566895;-136.7953643798828
280;1673423127.713855;47.1290993;7.2385037;52.281002044677734;1673423127.867623;-23.616853713989258;6.551434516906738;-136.9010467529297
281;1673423127.9159818;47.1290884;7.238487999999999;52.67400360107422;1673423128.0697503;-17.868404388427734;3.977968215942383;-136.86911010742188
282;1673423128.1152005;47.1290775;7.2384723;53.070003509521484;1673423128.2436223;-13.383252143859863;2.7393088340759277;-137.02330017089844
283;1673423128.2929556;47.1290668;7.2384569;53.467002868652344;1673423128.4340353;-11.127445220947266;1.4635192155838013;-137.24896240234375
284;1673423128.4853218;47.1290565;7.238442099999999;53.862003326416016;1673423128.6283529;-10.66360092163086;2.320389747619629;-137.68101501464844
285;1673423128.683555;47.129046699999996;7.2384281999999995;54.256004333496094;1673423128.8382993;-12.13359260559082;4.0580973625183105;-137.9780731201172
286;1673423128.8895876;47.129037;7.2384148999999995;54.6510009765625;1673423129.051194;-14.018655776977539;5.974397659301758;-137.87445068359375
287;1673423129.1094432;47.1290275;7.2384021;55.047000885009766;1673423129.2681768;-16.46634292602539;7.0969133377075195;-137.7222900390625
288;1673423129.3205392;47.129017999999995;7.2383897;55.44400405883789;1673423129.4460077;-18.32219696044922;6.923462867736816;-137.7579803466797
289;1673423129.495346;47.1290086;7.2383771999999995;55.84100341796875;1673423129.6374009;-19.892045974731445;5.0558552742004395;-137.36683654785156
290;1673423129.6803489;47.128999199999996;7.2383647;56.23800277709961;1673423129.8034446;-20.776321411132812;3.791013479232788;-136.76617431640625
291;1673423129.8542295;47.1289897;7.238352;56.631004333496094;1673423129.983599;-21.44943618774414;2.5682125091552734;-136.43898010253906
292;1673423130.0388212;47.1289801;7.238339;57.025001525878906;1673423130.1790214;-21.277400970458984;3.5314228534698486;-136.62171936035156
293;1673423130.2372673;47.1289704;7.238325799999999;57.423004150390625;1673423130.373526;-21.026426315307617;4.893685340881348;-136.9027557373047
294;1673423130.427798;47.1289607;7.238312199999999;57.82100296020508;1673423130.5767918;-20.15528106689453;5.933931827545166;-137.06105041503906
295;1673423130.6447005;47.1289508;7.238298599999999;58.21800231933594;1673423130.8009415;-19.719877243041992;7.12816047668457;-137.40103149414062
296;1673423130.851682;47.128940899999996;7.2382848;58.6150016784668;1673423130.9933922;-19.419109344482422;7.5095534324646;-137.42710876464844
297;1673423131.0451207;47.1289309;7.2382709;59.012001037597656;1673423131.1966984;-19.174684524536133;7.038359642028809;-137.2777557373047
298;1673423131.2552736;47.128921;7.238257099999999;59.40900421142578;1673423131.4078064;-19.06859016418457;6.013241767883301;-137.08709716796875
299;1673423131.4624457;47.128911099999996;7.2382433;59.80900192260742;1673423131.5943732;-18.899978637695312;5.362602710723877;-136.98904418945312
300;1673423131.6471279;47.1289012;7.2382295999999995;60.211002349853516;1673423131.7833655;-19.019498825073242;4.317599773406982;-136.71731567382812
301;1673423131.8366392;47.1288912;7.2382159999999995;60.61300277709961;1673423131.980672;-19.035484313964844;3.5401132106781006;-136.79444885253906
302;1673423132.0398235;47.128881299999996;7.2382024;61.012001037597656;1673423132.179038;-19.179244995117188;2.7705576419830322;-136.55294799804688
303;1673423132.2391698;47.1288714;7.238188999999999;61.41100311279297;1673423132.380216;-19.31023597717285;2.6338043212890625;-136.38436889648438
304;1673423132.4324758;47.1288615;7.2381755;61.810001373291016;1673423132.5716906;-19.32545280456543;2.74387526512146;-136.40139770507812
305;1673423132.6289494;47.1288516;7.238162;62.204002380371094;1673423132.773005;-19.475048065185547;3.180056571960449;-136.6788330078125
306;1673423132.8282235;47.1288418;7.238148499999999;62.60000228881836;1673423132.9674366;-19.69414710998535;3.683350086212158;-136.736328125
307;1673423133.0284839;47.128831899999994;7.2381348999999995;62.996002197265625;1673423133.171673;-19.502851486206055;4.411504745483398;-136.9110565185547
308;1673423133.2367342;47.1288221;7.238121199999999;63.393001556396484;1673423133.3910227;-19.584020614624023;5.241272926330566;-136.980224609375
309;1673423133.44474;47.1288122;7.2381075;63.7910041809082;1673423133.5877347;-19.686840057373047;6.022377014160156;-136.97084045410156
310;1673423133.646826;47.1288023;7.2380938;64.18700408935547;1673423133.7879412;-19.419095993041992;6.028742790222168;-137.0682830810547
311;1673423133.8450825;47.128792399999995;7.23808;64.58100128173828;1673423133.9917452;-19.54342269897461;6.780486106872559;-137.47946166992188
312;1673423134.0493784;47.1287825;7.238066399999999;64.97600555419922;1673423134.191079;-19.340272903442383;7.084706783294678;-137.44863891601562
313;1673423134.2477283;47.128772399999995;7.2380529;65.37300109863281;1673423134.3923473;-19.34982681274414;7.51517915725708;-137.32586669921875
314;1673423134.4450517;47.1287624;7.2380394;65.76800537109375;1673423134.5925205;-19.36613655090332;7.400752067565918;-137.21717834472656
315;1673423134.6520958;47.128752399999996;7.238025899999999;66.16699981689453;1673423134.7975924;-19.376413345336914;7.556601524353027;-137.0675811767578
316;1673423134.8522317;47.1287424;7.238012299999999;66.56900024414062;1673423134.9948819;-19.258380889892578;7.367135524749756;-137.18936157226562
317;1673423135.0475838;47.1287325;7.2379986999999995;66.96900177001953;1673423135.1868794;-19.553258895874023;7.057485580444336;-137.156005859375
318;1673423135.242067;47.128722599999996;7.237985;67.36600494384766;1673423135.3832262;-19.75571632385254;6.878948211669922;-136.94329833984375
319;1673423135.4394214;47.128712799999995;7.237971399999999;67.76200103759766;1673423135.5824199;-19.72334861755371;6.888295650482178;-136.894287109375
320;1673423135.6415842;47.1287029;7.237957799999999;68.15800476074219;1673423135.7875469;-19.7486629486084;6.9341044425964355;-137.02362060546875
321;1673423135.8495662;47.1286931;7.2379441;68.55400085449219;1673423136.0000124;-19.731365203857422;6.503990173339844;-137.12608337402344
322;1673423136.0517263;47.1286832;7.2379305;68.94900512695312;1673423136.1919527;-19.81420135498047;6.610961437225342;-137.07176208496094
323;1673423136.249133;47.128673299999996;7.2379169;69.34400177001953;1673423136.4007027;-19.803503036499023;6.689693927764893;-137.08563232421875
324;1673423136.4505131;47.1286634;7.237903299999999;69.73900604248047;1673423136.682057;-19.896100997924805;6.260067462921143;-137.01519775390625
325;1673423136.7353585;47.1286536;7.2378896;70.13600158691406;1673423136.8735511;-19.991830825805664;5.846628665924072;-136.8475341796875
326;1673423136.9297378;47.1286437;7.237875799999999;70.53600311279297;1673423137.0698433;-19.931560516357422;5.548515796661377;-136.86317443847656
327;1673423137.128667;47.1286339;7.2378621;70.94000244140625;1673423137.2961526;-19.92347526550293;5.3321990966796875;-136.856689453125
328;1673423137.3547122;47.128623999999995;7.2378484;71.34600067138672;1673423137.4955056;-19.71767807006836;5.040966987609863;-136.92611694335938
329;1673423137.5472462;47.128614;7.2378348;71.75;1673423137.694228;-19.893529891967773;5.072475433349609;-137.04550170898438
330;1673423137.7503989;47.1286041;7.2378212;72.14800262451172;1673423137.8924553;-20.059345245361328;5.145380020141602;-136.91525268554688
331;1673423137.9495983;47.1285941;7.2378075;72.54300689697266;1673423138.0887272;-19.895505905151367;5.1482439041137695;-136.85305786132812
332;1673423138.1464067;47.1285842;7.2377939;72.94000244140625;1673423138.289941;-20.037065505981445;4.861286640167236;-136.7222900390625
333;1673423138.3529308;47.1285743;7.237780099999999;73.33900451660156;1673423138.49403;-19.91887092590332;4.84669303894043;-136.62014770507812
334;1673423138.5512197;47.128564399999995;7.237766499999999;73.74100494384766;1673423138.685461;-19.96820640563965;4.969568252563477;-136.6801300048828
335;1673423138.744604;47.1285545;7.2377528;74.14500427246094;1673423138.8876786;-20.019372940063477;4.801548004150391;-136.64598083496094
336;1673423138.9379685;47.1285445;7.2377392;74.54800415039062;1673423139.0781627;-20.0488338470459;4.386492729187012;-136.7176513671875
337;1673423139.1379297;47.1285345;7.2377256;74.94600677490234;1673423139.2952302;-20.42105484008789;4.4697465896606445;-136.74893188476562
338;1673423139.3465853;47.1285246;7.2377118;75.34500122070312;1673423139.4788861;-20.33350372314453;4.229522705078125;-136.61961364746094
339;1673423139.5350466;47.1285147;7.237698;75.74200439453125;1673423139.6849525;-20.335939407348633;4.07853364944458;-136.61351013183594
340;1673423139.7470026;47.128504799999995;7.2376841999999995;76.13700103759766;1673423139.893971;-20.19601058959961;4.298028469085693;-136.6316680908203
341;1673423139.960874;47.1284948;7.2376704;76.5320053100586;1673423140.0971024;-19.53852081298828;4.225980758666992;-136.59075927734375
342;1673423140.1460254;47.1284849;7.2376567;76.92500305175781;1673423140.28172;-19.49293327331543;4.544172286987305;-136.69915771484375
343;1673423140.3360205;47.1284749;7.2376429;77.31800079345703;1673423140.4712822;-19.680727005004883;5.005674362182617;-136.8388671875
344;1673423140.5304873;47.1284649;7.2376293;77.71300506591797;1673423140.7004375;-19.913930892944336;5.084591865539551;-136.92355346679688
345;1673423140.7609482;47.1284549;7.2376156;78.10900115966797;1673423140.908428;-20.765907287597656;4.857040882110596;-136.9493408203125
346;1673423140.9611459;47.128445;7.237602;78.5050048828125;1673423141.098312;-21.01416778564453;5.039975166320801;-137.11233520507812
347;1673423141.1608663;47.128434999999996;7.2375884;78.90300750732422;1673423141.3049085;-20.429397583007812;5.166741371154785;-137.0092010498047
348;1673423141.3556612;47.1284251;7.2375747;79.30000305175781;1673423141.4801853;-19.849943161010742;5.284585475921631;-136.98849487304688
349;1673423141.5334978;47.1284151;7.2375609999999995;79.69900512695312;1673423141.669662;-18.965797424316406;5.401234149932861;-136.921630859375
350;1673423141.736608;47.128405199999996;7.2375473999999995;80.09500122070312;1673423141.8865047;-19.097932815551758;5.02248477935791;-136.8997039794922
351;1673423141.9797885;47.1283953;7.237533699999999;80.49200439453125;1673423142.1156104;-19.92801856994629;4.928371906280518;-136.844482421875
352;1673423142.172752;47.1283853;7.237520099999999;80.89100646972656;1673423142.310939;-20.786842346191406;4.847886562347412;-136.89683532714844
353;1673423142.3675458;47.128375399999996;7.2375064;81.29700469970703;1673423142.5101385;-20.822839736938477;5.109457015991211;-136.99765014648438
354;1673423142.567722;47.1283654;7.2374928;81.7030029296875;1673423142.7240562;-20.286043167114258;5.43955135345459;-136.9920654296875
355;1673423142.7709;47.1283555;7.2374792;82.10800170898438;1673423142.90373;-19.561996459960938;5.378220558166504;-136.954345703125
356;1673423142.9554574;47.128345499999995;7.2374657;82.51000213623047;1673423143.0887325;-18.799856185913086;5.417172908782959;-136.9265899658203
357;1673423143.140053;47.1283356;7.2374521;82.90900421142578;1673423143.3032882;-19.406841278076172;5.270659446716309;-136.87472534179688
358;1673423143.3589187;47.1283257;7.2374385;83.30900573730469;1673423143.4990523;-20.1728572845459;5.17022705078125;-136.89334106445312
359;1673423143.5552232;47.128315799999996;7.237424799999999;83.71100616455078;1673423143.7144942;-20.78713035583496;5.009678840637207;-136.8408203125
360;1673423143.7681537;47.1283059;7.2374111999999995;84.11200714111328;1673423143.8947225;-20.95456314086914;5.197944641113281;-136.97067260742188
361;1673423143.9479885;47.128296;7.237397499999999;84.51300048828125;1673423144.0822842;-20.430328369140625;5.3942437171936035;-137.05137634277344
362;1673423144.1367242;47.1282862;7.2373838;84.91400146484375;1673423144.2807927;-19.45037078857422;5.307507038116455;-136.96771240234375
363;1673423144.3340936;47.128276299999996;7.2373702;85.31300354003906;1673423144.4869053;-19.09299087524414;5.178884506225586;-136.93881225585938
364;1673423144.5459797;47.1282664;7.2373565;85.71000671386719;1673423144.6860828;-19.046144485473633;5.085986614227295;-136.913818359375
365;1673423144.740375;47.1282565;7.2373427999999995;86.10900115966797;1673423144.8833914;-20.08649444580078;4.954394340515137;-136.9125213623047
366;1673423144.9385839;47.1282466;7.237329099999999;86.50900268554688;1673423145.0835674;-20.788103103637695;4.8809814453125;-136.95872497558594
367;1673423145.1457481;47.128236699999995;7.2373154;86.90900421142578;1673423145.2869143;-20.989177703857422;5.077769756317139;-137.07350158691406
368;1673423145.3461018;47.1282268;7.2373018;87.31000518798828;1673423145.4881878;-20.551603317260742;5.254112720489502;-137.04156494140625
369;1673423145.5443542;47.1282169;7.2372882;87.71000671386719;1673423145.6893463;-20.00102424621582;5.408308982849121;-137.0225067138672
370;1673423145.7485306;47.128206999999996;7.2372746999999995;88.10700225830078;1673423145.882779;-19.10716438293457;5.443542003631592;-136.96676635742188
371;1673423145.9428892;47.1281971;7.2372611;88.50000762939453;1673423146.0859416;-19.245447158813477;5.296268939971924;-136.86376953125
372;1673423146.1510875;47.1281871;7.237247399999999;88.89400482177734;1673423146.3020833;-20.114967346191406;5.186758041381836;-136.9498291015625
373;1673423146.3573194;47.128177199999996;7.237233799999999;89.29100799560547;1673423146.5004957;-20.836162567138672;5.3758649826049805;-136.97352600097656
374;1673423146.5547388;47.1281672;7.2372201;89.69000244140625;1673423146.7091684;-20.815170288085938;5.265125274658203;-136.98904418945312
375;1673423146.7628903;47.1281573;7.2372064;90.09000396728516;1673423146.9049711;-20.215089797973633;5.428640842437744;-137.1025390625
376;1673423146.9563065;47.128147399999996;7.2371928;90.49000549316406;1673423147.0866504;-19.546939849853516;5.36044979095459;-136.9995880126953
377;1673423147.1360629;47.1281375;7.2371791;90.89200592041016;1673423147.269321;-18.848548889160156;5.288549423217773;-136.93287658691406
378;1673423147.3274708;47.1281276;7.2371655;91.29300689697266;1673423147.473437;-19.033750534057617;5.151906490325928;-136.90420532226562
379;1673423147.5325258;47.128117599999996;7.2371517999999995;91.69400787353516;1673423147.674601;-19.907989501953125;5.167856216430664;-136.958984375
380;1673423147.7298057;47.1281077;7.237138099999999;92.09300231933594;1673423147.8680172;-20.675811767578125;5.096492767333984;-137.0067596435547
381;1673423147.922232;47.1280978;7.237124499999999;92.49100494384766;1673423148.0691788;-20.478761672973633;5.221752166748047;-137.0406036376953
382;1673423148.1284182;47.1280879;7.2371108;92.88800811767578;1673423148.271492;-20.31381607055664;5.229410648345947;-137.05564880371094
383;1673423148.3238628;47.128077999999995;7.2370972;93.28600311279297;1673423148.466903;-19.746780395507812;5.356016635894775;-137.0067138671875
384;1673423148.5220904;47.1280681;7.2370836999999995;93.6830062866211;1673423148.6622107;-18.848344802856445;5.2459869384765625;-136.92881774902344
385;1673423148.7183692;47.1280581;7.2370700999999995;94.0780029296875;1673423148.8555458;-19.170902252197266;5.1621246337890625;-136.89013671875
386;1673423148.9082732;47.128048199999995;7.2370565;94.47300720214844;1673423149.0479515;-20.14487075805664;5.068591117858887;-136.94285583496094
387;1673423149.1065004;47.1280383;7.2370429;94.87000274658203;1673423149.2442498;-21.100996017456055;5.0945143699646;-136.98646545410156
388;1673423149.3018394;47.1280284;7.2370293;95.26500701904297;1673423149.4444306;-20.791685104370117;5.175155162811279;-137.00869750976562
389;1673423149.500068;47.128018499999996;7.2370158;95.66000366210938;1673423149.6750832;-20.07725715637207;5.280159950256348;-136.96136474609375
390;1673423149.7488534;47.1280086;7.2370022;96.05500793457031;1673423149.894817;-19.271095275878906;5.32193660736084;-137.01417541503906
391;1673423149.9509897;47.1279986;7.2369886;96.44900512695312;1673423150.0959804;-18.91277503967285;5.093257427215576;-136.90357971191406
392;1673423150.153265;47.127988699999996;7.236974999999999;96.84200286865234;1673423150.2983186;-19.213947296142578;4.9804463386535645;-136.86575317382812
393;1673423150.348629;47.1279787;7.236961399999999;97.23600769042969;1673423150.4926395;-20.089807510375977;5.068042278289795;-136.88739013671875
394;1673423150.554696;47.1279688;7.236947799999999;97.6310043334961;1673423150.698724;-21.029577255249023;4.9678754806518555;-136.92257690429688
395;1673423150.7558708;47.127958799999995;7.2369343;98.02700805664062;1673423150.9028153;-20.56568145751953;5.2274322509765625;-136.98269653320312
396;1673423150.9550772;47.1279489;7.2369207;98.42400360107422;1673423151.0834715;-19.82120132446289;5.255207538604736;-137.0093536376953
397;1673423151.1339722;47.1279389;7.2369071;98.82400512695312;1673423151.2662692;-19.110088348388672;5.3709635734558105;-136.91737365722656
398;1673423151.3204863;47.127928999999995;7.236893599999999;99.22100830078125;1673423151.4606338;-18.89598846435547;5.195338249206543;-136.90231323242188
399;1673423151.5158553;47.127919;7.2368801;99.62000274658203;1673423151.6735244;-19.078107833862305;5.123240947723389;-136.8342742919922
400;1673423151.7307072;47.1279091;7.2368665;100.02000427246094;1673423151.8903375;-20.075830459594727;5.029592990875244;-136.86764526367188
401;1673423151.942734;47.127899199999995;7.2368529;100.41900634765625;1673423152.0838265;-20.967866897583008;5.071808338165283;-136.89352416992188
402;1673423152.1390836;47.1278893;7.2368393;100.81900787353516;1673423152.2861316;-20.909456253051758;5.126208305358887;-136.94476318359375
403;1673423152.3637378;47.1278794;7.2368258;101.22200775146484;1673423152.5009212;-20.29037857055664;5.346035003662109;-136.90716552734375
404;1673423152.5590377;47.127869499999996;7.236812199999999;101.62400817871094;1673423152.7030451;-19.35816764831543;5.27144718170166;-136.81829833984375
405;1673423152.7592196;47.1278595;7.2367987;102.02400207519531;1673423152.8905406;-18.95762062072754;5.238553047180176;-136.75230407714844
406;1673423152.9486601;47.1278496;7.2367852;102.42400360107422;1673423153.0916889;-19.36587142944336;5.14351224899292;-136.7931365966797
407;1673423153.1596994;47.127839599999994;7.2367716;102.82300567626953;1673423153.303755;-20.035951614379883;5.16019868850708;-136.82701110839844
408;1673423153.3608844;47.1278296;7.236758;103.22500610351562;1673423153.5029557;-20.574556350708008;5.2512969970703125;-136.82986450195312
409;1673423153.561073;47.127819699999996;7.2367443;103.62500762939453;1673423153.7099707;-20.90081024169922;5.058463096618652;-136.89816284179688
410;1673423153.7671134;47.1278098;7.2367306;104.0250015258789;1673423153.909173;-20.047752380371094;5.315675735473633;-136.9623260498047
411;1673423153.966315;47.1277999;7.236717;104.4260025024414;1673423154.1025195;-19.511445999145508;5.27121114730835;-136.9088134765625
412;1673423154.1611755;47.12779;7.2367034;104.8280029296875;1673423154.3066397;-18.754688262939453;5.1319355964660645;-136.7242431640625
413;1673423154.3872123;47.127780099999995;7.2366899;105.22900390625;1673423154.521995;-19.332120895385742;4.942668437957764;-136.6908416748047
414;1673423154.574698;47.1277701;7.2366763;105.6290054321289;1673423154.7387817;-19.51959800720215;5.126787185668945;-136.7405548095703
415;1673423154.7924602;47.1277602;7.2366626;106.02700805664062;1673423154.9409106;-20.552440643310547;4.8503522872924805;-136.8303985595703
416;1673423155.0195549;47.127750299999995;7.236649;106.42500305175781;1673423155.1460469;-21.302255630493164;5.1225266456604;-136.8584442138672
417;1673423155.1977952;47.127740499999994;7.2366354;106.82000732421875;1673423155.332589;-21.079626083374023;5.096029281616211;-136.8717041015625
418;1673423155.3843327;47.1277306;7.2366218;107.21700286865234;1673423155.5137265;-20.499685287475586;5.239598274230957;-136.86790466308594
419;1673423155.5689662;47.1277207;7.2366081;107.61600494384766;1673423155.7120357;-19.21109390258789;5.144378662109375;-136.837158203125
420;1673423155.768274;47.127710699999994;7.2365943999999995;108.01300811767578;1673423155.8966374;-18.85089111328125;5.136594295501709;-136.84877014160156
