;pos_time;latitude;longitude;altitude;alt_time;pitch;roll;yaw
0;1673427922.8789198;47.1306425;7.2406198999999996;-0.03400000184774399;1673427923.088294;0.07989073544740677;0.21838811039924622;90.12873077392578
1;1673427923.13081;47.1306425;7.2406198999999996;-0.032999999821186066;1673427923.2785833;0.15734997391700745;0.25658532977104187;90.06779479980469
2;1673427923.3409688;47.1306425;7.2406198999999996;-0.03200000151991844;1673427923.4619122;-0.10816795378923416;0.4235520362854004;89.99226379394531
3;1673427923.509141;47.1306425;7.24062;-0.03100000135600567;1673427923.6405199;-0.006236216053366661;0.23763024806976318;90.08234405517578
4;1673427923.703975;47.1306425;7.24062;-0.030000001192092896;1673427923.8380349;-0.009876979514956474;0.2000253051519394;90.02703857421875
5;1673427923.9284933;47.1306425;7.24062;-0.030000001192092896;1673427924.0540812;0.15202155709266663;0.12205276638269424;90.14532470703125
6;1673427924.1043413;47.1306425;7.24062;-0.03400000184774399;1673427924.2320437;0.2038859724998474;0.18229667842388153;90.24163055419922
7;1673427924.289094;47.1306425;7.2406198999999996;-0.039000000804662704;1673427924.4206853;-0.049602389335632324;0.10121288895606995;90.16128540039062
8;1673427924.4821973;47.1306425;7.2406198999999996;-0.0430000014603138;1673427924.6160653;0.13099929690361023;0.2303171157836914;90.12090301513672
9;1673427924.6716998;47.1306425;7.240619799999999;-0.04700000211596489;1673427924.8040442;0.1257067769765854;0.2982192039489746;90.17554473876953
10;1673427924.872083;47.1306425;7.2406197;-0.005000000353902578;1673427925.0196157;0.19942912459373474;0.6009150743484497;90.28279113769531
11;1673427925.0891283;47.1306425;7.2406197;-0.012000000104308128;1673427925.2451186;-0.015210216864943504;0.5026923418045044;90.05078887939453
12;1673427925.3118215;47.1306425;7.2406197;-0.018000001087784767;1673427925.4440384;-0.16466866433620453;0.5508594512939453;90.1727294921875
13;1673427925.499978;47.1306425;7.2406197;-0.01900000125169754;1673427925.6511738;-0.2029295265674591;0.4604779779911041;90.25633239746094
14;1673427925.706937;47.1306425;7.240619799999999;-0.018000001087784767;1673427925.8312483;-0.1006786897778511;0.46999746561050415;90.30923461914062
15;1673427925.8795986;47.130642599999995;7.240619799999999;-0.017000000923871994;1673427926.0201428;-0.022263426333665848;0.6127025485038757;90.18999481201172
16;1673427926.0671427;47.130642599999995;7.2406197;-0.018000001087784767;1673427926.2034886;-0.01893661916255951;0.8572383522987366;90.31765747070312
17;1673427926.2680895;47.130642599999995;7.2406197;-0.01900000125169754;1673427926.4196784;-0.055566638708114624;1.0780470371246338;90.25333404541016
18;1673427926.4827049;47.130642599999995;7.2406196;0.0;1673427926.6248245;-0.05554214492440224;0.9221561551094055;90.1268539428711
19;1673427926.6807568;47.130642599999995;7.2406196;-0.0010000000474974513;1673427926.8171666;0.13964441418647766;0.07147739082574844;90.30201721191406
20;1673427926.8709922;47.1306425;7.2406196;-0.0020000000949949026;1673427927.032406;-0.1603410243988037;1.0612345933914185;90.23639678955078
21;1673427927.10395;47.1306425;7.2406197;-0.0020000000949949026;1673427927.2394633;-0.05992089956998825;0.47373953461647034;90.20431518554688
22;1673427927.2902048;47.1306425;7.240619799999999;0.0;1673427927.4242842;0.01781448721885681;-0.02533208392560482;90.33268737792969
23;1673427927.4792047;47.1306424;7.240619799999999;0.007000000216066837;1673427927.6430254;0.03279567509889603;0.2685002386569977;89.99552154541016
24;1673427927.698852;47.1306424;7.240619799999999;0.010000000707805157;1673427927.8307703;-0.23088181018829346;0.2676082253456116;89.97933197021484
25;1673427927.885636;47.1306424;7.240619799999999;0.010000000707805157;1673427928.0392475;-0.16414093971252441;0.02951645664870739;89.87692260742188
26;1673427928.1034548;47.1306424;7.240619799999999;0.01100000087171793;1673427928.2438235;0.07715833187103271;0.2201394885778427;88.57367706298828
27;1673427928.299455;47.1306423;7.240619799999999;0.01100000087171793;1673427928.4301999;0.045630574226379395;-0.9863327145576477;86.16839599609375
28;1673427928.4919496;47.130642099999996;7.24062;0.009000000543892384;1673427928.6263003;0.06885258853435516;-5.709198474884033;85.92955780029297
29;1673427928.6761854;47.1306419;7.2406201999999995;0.021000001579523087;1673427928.8147306;5.402637958526611;-7.143497943878174;86.74034118652344
30;1673427928.8706841;47.1306416;7.2406204999999995;0.05100000277161598;1673427929.0214899;7.2732930183410645;-7.483908653259277;87.71294403076172
31;1673427929.0822654;47.130641399999995;7.2406207;0.09700000286102295;1673427929.216745;6.6625895500183105;-10.624885559082031;88.64978790283203
32;1673427929.2734106;47.1306413;7.240620799999999;0.15800000727176666;1673427929.4193244;6.138617515563965;-9.124479293823242;89.4609146118164
33;1673427929.4772885;47.1306412;7.240621;0.22600001096725464;1673427929.6199481;6.405908584594727;-6.791884422302246;89.90706634521484
34;1673427929.6762493;47.1306412;7.240621;0.30400002002716064;1673427929.8224897;6.834054470062256;-11.376976013183594;90.19940185546875
35;1673427929.8847537;47.130641399999995;7.2406209;0.3960000276565552;1673427930.0309687;7.062364101409912;-9.806199073791504;90.98609924316406
36;1673427930.0877092;47.1306416;7.2406206;0.5010000467300415;1673427930.2269728;6.967502117156982;-5.696980953216553;91.95619201660156
37;1673427930.2895901;47.1306419;7.2406203;0.6200000047683716;1673427930.4351363;6.806441307067871;-8.621076583862305;92.70919799804688
38;1673427930.4897828;47.130641999999995;7.24062;0.753000020980835;1673427930.6442707;5.925586700439453;-9.063860893249512;93.1026611328125
39;1673427930.7149284;47.1306422;7.240619799999999;0.8970000147819519;1673427930.8475523;5.249873161315918;-4.891684055328369;93.50238037109375
40;1673427930.8992796;47.1306423;7.2406196;1.0540000200271606;1673427931.0420136;5.240603446960449;-8.531025886535645;93.53546905517578
41;1673427931.092824;47.1306424;7.2406196;1.2300000190734863;1673427931.23047;5.760903835296631;-9.471871376037598;94.03833770751953
42;1673427931.2871091;47.130642599999995;7.2406196;1.415000081062317;1673427931.4307163;6.178680419921875;-4.799500465393066;93.52660369873047
43;1673427931.4846137;47.1306428;7.240619499999999;1.6010000705718994;1673427931.6121278;6.39731502532959;-5.197453498840332;94.55113983154297
44;1673427931.6641319;47.1306429;7.240619499999999;1.790000081062317;1673427931.801641;6.630659103393555;-8.565643310546875;94.5969467163086
45;1673427931.8583016;47.1306429;7.2406194;1.9810000658035278;1673427932.01866;6.197155475616455;-6.302037715911865;94.59463500976562
46;1673427932.0881984;47.1306428;7.2406194;2.1750001907348633;1673427932.2313638;5.911193370819092;-6.586063861846924;94.64404296875
47;1673427932.2848864;47.130642699999996;7.240619499999999;2.372000217437744;1673427932.429714;5.848325729370117;-10.248178482055664;94.9859848022461
48;1673427932.4880402;47.1306428;7.240619499999999;2.568000078201294;1673427932.6574662;6.589803218841553;-6.152994155883789;95.54191589355469
49;1673427932.7290323;47.1306429;7.2406196;2.761000156402588;1673427932.8651981;6.933323860168457;-3.887897253036499;95.64289855957031
50;1673427932.926683;47.130643;7.240619499999999;2.9560000896453857;1673427933.074064;6.542670726776123;-9.157193183898926;95.17382049560547
51;1673427933.1319468;47.1306428;7.2406194;3.1500000953674316;1673427933.2505968;6.309457778930664;-7.502806186676025;94.83098602294922
52;1673427933.3045914;47.130642699999996;7.2406194;3.3480000495910645;1673427933.4791265;5.689416885375977;-5.6873979568481445;94.91825103759766
53;1673427933.530619;47.1306425;7.2406194;3.5520002841949463;1673427933.6658602;5.5535430908203125;-9.839834213256836;94.98921966552734
54;1673427933.7173266;47.1306425;7.2406194;3.752000093460083;1673427933.859652;6.188804626464844;-8.328543663024902;95.52906799316406
55;1673427933.913601;47.130642599999995;7.240619499999999;3.949000120162964;1673427934.0636926;6.955111980438232;-4.4261298179626465;95.81405639648438
56;1673427934.122977;47.130642599999995;7.2406196;4.148000240325928;1673427934.2652066;7.014739990234375;-7.9300856590271;95.1964340209961
57;1673427934.3171196;47.1306425;7.2406196;4.3480000495910645;1673427934.4478157;6.495189189910889;-8.97941780090332;94.7948989868164
58;1673427934.4956398;47.1306424;7.2406196;4.545000076293945;1673427934.6322136;5.7814555168151855;-5.435913562774658;94.60952758789062
59;1673427934.6827295;47.1306423;7.2406196;4.744000434875488;1673427934.8450525;5.722682476043701;-8.906523704528809;94.55476379394531
60;1673427934.8998427;47.1306423;7.2406196;4.941000461578369;1673427935.0475016;6.1373724937438965;-10.223031997680664;94.88993072509766
61;1673427935.1090262;47.1306424;7.2406197;5.136000156402588;1673427935.25563;6.375357151031494;-5.280893325805664;95.45330047607422
62;1673427935.3080893;47.1306425;7.2406197;5.332000255584717;1673427935.4639022;6.687831878662109;-5.896257400512695;95.22023010253906
63;1673427935.5138931;47.1306425;7.2406197;5.535000324249268;1673427935.65923;6.76375675201416;-9.742408752441406;94.7603988647461
64;1673427935.721977;47.1306424;7.2406196;5.7330002784729;1673427935.8532643;6.701402187347412;-7.0557451248168945;94.73735046386719
65;1673427935.9100764;47.1306423;7.2406197;5.929000377655029;1673427936.0686836;6.144305229187012;-6.025327682495117;95.0295181274414
66;1673427936.120437;47.1306423;7.2406197;6.129000186920166;1673427936.2620738;5.821381092071533;-9.841801643371582;95.53489685058594
67;1673427936.3269002;47.1306424;7.240619799999999;6.331000328063965;1673427936.4639604;6.2588114738464355;-7.037636756896973;95.85159301757812
68;1673427936.5117857;47.1306424;7.2406198999999996;6.534000396728516;1673427936.6461754;7.224911212921143;-4.447444915771484;95.56175994873047
69;1673427936.6951272;47.1306424;7.2406198999999996;6.741000175476074;1673427936.835835;6.823482513427734;-9.183916091918945;95.00912475585938
70;1673427936.8885372;47.1306423;7.240619799999999;6.940000534057617;1673427937.034992;6.916636943817139;-8.49147891998291;94.7506332397461
71;1673427937.088269;47.1306422;7.240619799999999;7.136000156402588;1673427937.2332754;6.432684421539307;-5.32291841506958;94.81443786621094
72;1673427937.2920012;47.130642099999996;7.240619799999999;7.332000255584717;1673427937.437298;5.9267659187316895;-8.615392684936523;95.10620880126953
73;1673427937.4970317;47.130642099999996;7.240619799999999;7.53000020980835;1673427937.6469953;5.92857027053833;-9.583763122558594;95.37409210205078
74;1673427937.6928666;47.1306422;7.2406198999999996;7.729000568389893;1673427937.8201509;6.446071147918701;-5.042661666870117;95.47992706298828
75;1673427937.874373;47.1306422;7.2406198999999996;7.926000595092773;1673427938.0108323;6.900412559509277;-7.078981399536133;95.16262817382812
76;1673427938.063864;47.1306422;7.2406198999999996;8.125;1673427938.2052548;6.8279008865356445;-10.521249771118164;94.55000305175781
77;1673427938.2600243;47.130642099999996;7.2406198999999996;8.320000648498535;1673427938.4058194;6.356241703033447;-6.436995029449463;94.48307037353516
78;1673427938.459807;47.130641999999995;7.2406198999999996;8.516000747680664;1673427938.6036568;6.059699535369873;-7.635779857635498;94.68605041503906
79;1673427938.6654005;47.130642099999996;7.2406198999999996;8.71500015258789;1673427938.8018506;6.0376105308532715;-10.579268455505371;94.9903564453125
80;1673427938.8618393;47.1306422;7.2406198999999996;8.913000106811523;1673427939.01994;6.193573951721191;-6.264645576477051;95.20781707763672
81;1673427939.080899;47.1306423;7.2406198999999996;9.112000465393066;1673427939.217793;6.3010101318359375;-4.959739685058594;95.0873794555664
82;1673427939.292964;47.1306423;7.2406198999999996;9.314000129699707;1673427939.4437337;6.519502639770508;-9.95497989654541;94.75706481933594
83;1673427939.5232973;47.1306423;7.2406198999999996;9.51200008392334;1673427939.6517363;7.090338230133057;-7.487499713897705;94.78456115722656
84;1673427939.6999116;47.1306423;7.2406198999999996;9.707000732421875;1673427939.8556957;6.71668815612793;-5.654719829559326;95.17819213867188
85;1673427939.9042006;47.1306422;7.2406198999999996;9.903000831604004;1673427940.036712;6.206973075866699;-9.349921226501465;95.30657958984375
86;1673427940.0923297;47.1306423;7.24062;10.100000381469727;1673427940.2197945;6.027948379516602;-8.001068115234375;95.11317443847656
87;1673427940.2770953;47.1306424;7.2406201;10.333000183105469;1673427940.4587111;6.3932204246521;-7.712405204772949;94.76798248291016
88;1673427940.5117939;47.130642599999995;7.24062;10.67400074005127;1673427940.6471593;7.511740207672119;-9.557287216186523;94.69011688232422
89;1673427940.7111294;47.1306428;7.2406198999999996;11.057000160217285;1673427940.8464465;6.660200119018555;-10.386726379394531;94.5254135131836
90;1673427940.931277;47.130643199999994;7.2406196;11.44800090789795;1673427941.082737;6.3415679931640625;-6.030374526977539;94.7844467163086
91;1673427941.1327984;47.1306435;7.2406194;11.846000671386719;1673427941.2756324;5.696057319641113;-4.211665153503418;95.03524017333984
92;1673427941.3292952;47.1306438;7.2406193;12.246000289916992;1673427941.477885;5.491393566131592;-7.761285305023193;95.02692413330078
93;1673427941.5256848;47.130644;7.2406193;12.647000312805176;1673427941.6723535;5.479910850524902;-4.5517425537109375;95.01923370361328
94;1673427941.733403;47.1306441;7.2406193;13.04900074005127;1673427941.8650794;5.462722301483154;-3.5723981857299805;94.93434143066406
95;1673427941.912918;47.130643899999995;7.2406193;13.450000762939453;1673427942.0466015;5.7622456550598145;-8.330329895019531;94.75605773925781
96;1673427942.0984612;47.1306437;7.2406193;13.845000267028809;1673427942.2402844;6.092494487762451;-6.983566761016846;94.78421783447266
97;1673427942.297044;47.1306434;7.2406194;14.236001014709473;1673427942.4439664;6.423712730407715;-5.32205867767334;95.02237701416016
98;1673427942.502672;47.1306431;7.2406194;14.625000953674316;1673427942.6537104;6.271081924438477;-9.737725257873535;95.07599639892578
99;1673427942.7044945;47.1306429;7.240619499999999;15.01400089263916;1673427942.8483436;6.355656623840332;-8.659887313842773;94.80078125
100;1673427942.899265;47.1306429;7.2406196;15.405000686645508;1673427943.0548573;6.285482883453369;-5.473896503448486;94.85536193847656
101;1673427943.1126196;47.1306428;7.2406196;15.79800033569336;1673427943.2556522;6.26261043548584;-8.517995834350586;94.95540618896484
102;1673427943.3102715;47.130642699999996;7.2406196;16.19099998474121;1673427943.4535818;6.4271745681762695;-9.623554229736328;94.91222381591797
103;1673427943.5036259;47.130642699999996;7.2406196;16.579999923706055;1673427943.6514633;6.626227855682373;-5.641633987426758;94.80640411376953
104;1673427943.7042108;47.130642699999996;7.2406196;16.972000122070312;1673427943.839608;6.573271751403809;-6.321267604827881;94.87476348876953
105;1673427943.899728;47.1306428;7.2406196;17.369001388549805;1673427944.0383263;6.390535831451416;-9.630959510803223;94.98927307128906
106;1673427944.105055;47.1306428;7.2406196;17.767000198364258;1673427944.2476587;6.501039981842041;-6.3410115242004395;94.99002075195312
107;1673427944.3193107;47.1306429;7.2406196;18.16400146484375;1673427944.4760363;6.294312477111816;-5.028436660766602;95.08079528808594
108;1673427944.5276303;47.1306429;7.2406197;18.56100082397461;1673427944.6960227;5.987952709197998;-8.93092155456543;95.16957092285156
109;1673427944.7876568;47.1306428;7.2406197;18.95400047302246;1673427944.938294;5.820938587188721;-8.519472122192383;94.90658569335938
110;1673427944.9844642;47.1306428;7.2406196;19.34600067138672;1673427945.0978467;6.176262378692627;-5.217038631439209;94.67768096923828
111;1673427945.1486585;47.1306428;7.2406196;19.74100112915039;1673427945.3086298;6.245429992675781;-8.709095001220703;94.83887481689453
112;1673427945.3618672;47.1306428;7.2406196;20.137001037597656;1673427945.4837213;6.523589134216309;-8.267217636108398;94.92547607421875
113;1673427945.5374744;47.1306429;7.2406196;20.533000946044922;1673427945.659963;6.235373497009277;-4.5961995124816895;94.9077377319336
114;1673427945.7117183;47.130643;7.2406196;20.93000030517578;1673427945.85545;6.19668436050415;-6.892837047576904;95.0188217163086
115;1673427945.9112105;47.1306429;7.2406196;21.327001571655273;1673427946.0589187;6.2092790603637695;-9.098809242248535;95.07752990722656
116;1673427946.123751;47.1306429;7.2406197;21.71900177001953;1673427946.276711;6.278604507446289;-5.3725266456604;94.97679138183594
117;1673427946.3589296;47.1306429;7.2406197;22.10700035095215;1673427946.5151184;6.313525199890137;-6.573514938354492;94.83822631835938
118;1673427946.5671208;47.1306429;7.2406197;22.500001907348633;1673427946.711742;6.440014839172363;-9.78426456451416;94.73470306396484
119;1673427946.760711;47.130643;7.2406197;22.894001007080078;1673427946.9028254;6.322840213775635;-6.341921806335449;94.79877471923828
120;1673427946.9565992;47.130643;7.2406197;23.288002014160156;1673427947.1026223;6.2643537521362305;-5.075722694396973;94.99284362792969
121;1673427947.1490204;47.130643;7.2406196;23.685001373291016;1673427947.297708;6.168645858764648;-8.986115455627441;95.16917419433594
122;1673427947.3525484;47.130643;7.2406196;24.07900047302246;1673427947.4994836;6.273991107940674;-7.63588809967041;95.02493286132812
123;1673427947.5464928;47.1306429;7.240619499999999;24.46900177001953;1673427947.6723332;6.268986701965332;-4.891259670257568;94.84150695800781
124;1673427947.7240608;47.1306429;7.240619499999999;24.860000610351562;1673427947.8940718;6.0770649909973145;-8.75694751739502;94.84851837158203
125;1673427947.946723;47.1306429;7.240619499999999;25.25200080871582;1673427948.1269789;6.288663864135742;-8.291470527648926;94.95794677734375
126;1673427948.205106;47.130643;7.240619499999999;25.645000457763672;1673427948.344488;6.23386812210083;-4.744015216827393;95.05646514892578
127;1673427948.3891535;47.1306431;7.240619499999999;26.03700065612793;1673427948.5040572;6.135516166687012;-7.426642894744873;94.93233489990234
128;1673427948.5569336;47.130643;7.240619499999999;26.43000030517578;1673427948.6953385;5.994780540466309;-9.522708892822266;94.79533386230469
129;1673427948.7482536;47.130643;7.240619499999999;26.816001892089844;1673427948.894357;6.166860103607178;-5.326732635498047;94.91602325439453
130;1673427948.9614427;47.1306429;7.240619499999999;27.20600128173828;1673427949.0997472;6.236819744110107;-6.464511871337891;94.94670867919922
131;1673427949.1530569;47.1306429;7.240619499999999;27.600000381469727;1673427949.2766116;6.310143947601318;-9.437369346618652;94.74884796142578
132;1673427949.3313596;47.130643;7.240619499999999;27.992000579833984;1673427949.476859;6.178285598754883;-5.5382795333862305;94.74827575683594
133;1673427949.5350742;47.130643;7.240619499999999;28.386001586914062;1673427949.6674764;6.152101993560791;-5.78563928604126;94.89549255371094
134;1673427949.7275229;47.130643;7.240619499999999;28.781002044677734;1673427949.861856;6.043090343475342;-8.827919006347656;95.03334045410156
135;1673427949.937266;47.1306429;7.240619499999999;29.170001983642578;1673427950.0809119;6.38416051864624;-7.159693241119385;95.07843780517578
136;1673427950.1692133;47.1306428;7.240619499999999;29.560001373291016;1673427950.2981668;6.26376485824585;-5.208190441131592;95.04364776611328
137;1673427950.3510408;47.130642699999996;7.2406194;29.95100212097168;1673427950.5027213;6.347570896148682;-8.705193519592285;94.84044647216797
138;1673427950.5568752;47.1306428;7.2406194;30.34200096130371;1673427950.70713;6.273894786834717;-8.524892807006836;94.72840881347656
139;1673427950.7622828;47.1306428;7.240619499999999;30.733001708984375;1673427950.8996608;6.206605911254883;-5.205479145050049;94.90139770507812
140;1673427950.9579136;47.1306428;7.240619499999999;31.126001358032227;1673427951.095275;6.259421348571777;-6.593428134918213;95.08531188964844
141;1673427951.1550531;47.1306428;7.240619499999999;31.519001007080078;1673427951.3012834;6.101190090179443;-9.490276336669922;95.07971954345703
142;1673427951.3680375;47.130642699999996;7.240619499999999;31.904001235961914;1673427951.5064454;6.259454727172852;-6.545680522918701;94.97535705566406
143;1673427951.5636256;47.130642599999995;7.240619499999999;32.294002532958984;1673427951.7463212;5.9464311599731445;-5.64595365524292;94.79359436035156
144;1673427951.790278;47.130642699999996;7.240619499999999;32.6870002746582;1673427951.92301;6.046748161315918;-9.400732040405273;94.84932708740234
145;1673427951.9857461;47.1306428;7.240619499999999;33.08000183105469;1673427952.1319263;6.152997970581055;-7.2793498039245605;94.95233154296875
146;1673427952.1803076;47.1306429;7.240619499999999;33.47600173950195;1673427952.3256161;6.3153581619262695;-4.608745098114014;94.9916000366211
147;1673427952.3853683;47.130643;7.240619499999999;33.87200164794922;1673427952.51208;6.139554977416992;-8.019566535949707;94.99459838867188
148;1673427952.562212;47.1306429;7.240619499999999;34.26100158691406;1673427952.7084894;6.245861053466797;-8.391911506652832;94.87663269042969
149;1673427952.763239;47.1306429;7.2406196;34.652000427246094;1673427952.9254317;5.961080074310303;-5.180751323699951;94.76416778564453
150;1673427952.9686632;47.1306428;7.2406196;35.04500198364258;1673427953.1036534;5.912602424621582;-7.891627311706543;94.84691619873047
151;1673427953.1526453;47.1306428;7.2406196;35.4370002746582;1673427953.2977958;6.265120983123779;-8.920100212097168;94.97637176513672
152;1673427953.350713;47.1306429;7.2406197;35.8280029296875;1673427953.4940004;6.369161605834961;-5.081553936004639;94.95549011230469
153;1673427953.5481868;47.130643;7.2406197;36.224002838134766;1673427953.6813004;6.279443740844727;-6.687010288238525;94.90250396728516
154;1673427953.7575965;47.130643;7.2406197;36.62000274658203;1673427953.8926334;6.1934123039245605;-9.294533729553223;94.82466888427734
155;1673427953.94858;47.1306429;7.2406197;37.01000213623047;1673427954.1077242;6.277083873748779;-6.3813910484313965;94.8935546875
156;1673427954.1567225;47.1306429;7.2406197;37.402000427246094;1673427954.2911246;6.139585018157959;-5.499725818634033;95.0211410522461
157;1673427954.364875;47.1306428;7.240619799999999;37.794002532958984;1673427954.5133393;6.1459574699401855;-9.206075668334961;94.94037628173828
158;1673427954.5636969;47.1306429;7.240619799999999;38.18300247192383;1673427954.694787;6.244361877441406;-6.629509449005127;94.89991760253906
159;1673427954.7689328;47.130643;7.2406198999999996;38.57500076293945;1673427954.9094665;6.262353420257568;-4.622451305389404;94.99786376953125
160;1673427954.9594026;47.1306431;7.2406198999999996;38.97100067138672;1673427955.108203;6.397476673126221;-8.35268783569336;94.95865631103516
161;1673427955.1643758;47.130643;7.2406198999999996;39.362003326416016;1673427955.306974;6.551826477050781;-7.914452075958252;94.8676986694336
162;1673427955.3551311;47.1306429;7.2406198999999996;39.74800109863281;1673427955.484859;6.5144267082214355;-4.794455528259277;94.91954803466797
163;1673427955.5388155;47.1306429;7.2406198999999996;40.13500213623047;1673427955.680174;6.328032970428467;-7.9696855545043945;95.07154083251953
164;1673427955.7328913;47.1306429;7.2406198999999996;40.525001525878906;1673427955.8958845;6.183313369750977;-8.880842208862305;94.8722915649414
165;1673427955.9479415;47.1306429;7.2406198999999996;40.915000915527344;1673427956.0825434;6.517679214477539;-4.717866897583008;95.03728485107422
166;1673427956.13714;47.130643;7.24062;41.30600357055664;1673427956.2757812;6.37362813949585;-6.570123672485352;94.86132049560547
167;1673427956.3324366;47.1306429;7.24062;41.70100021362305;1673427956.4769561;6.4709553718566895;-9.462662696838379;94.60187530517578
168;1673427956.5268538;47.1306428;7.2406198999999996;42.09000015258789;1673427956.7028015;6.397780418395996;-5.440924167633057;94.89065551757812
169;1673427956.763321;47.1306428;7.2406198999999996;42.480003356933594;1673427956.9351344;6.23626708984375;-5.943789005279541;95.11820220947266
170;1673427956.9872246;47.1306428;7.2406198999999996;42.874000549316406;1673427957.160235;6.069756507873535;-9.690520286560059;94.98715209960938
171;1673427957.209958;47.1306428;7.240619799999999;43.2660026550293;1673427957.3348134;6.102205753326416;-6.809020042419434;94.90137481689453
172;1673427957.3923998;47.130643;7.2406197;43.65800094604492;1673427957.5285158;6.114686965942383;-4.491307258605957;95.01374816894531
173;1673427957.582382;47.130643;7.2406197;44.05400085449219;1673427957.740402;6.100325107574463;-8.216160774230957;94.81693267822266
174;1673427957.7905176;47.130643;7.2406196;44.445003509521484;1673427957.9435978;6.38670539855957;-8.07677173614502;94.78821563720703
175;1673427957.9946873;47.1306429;7.2406196;44.83400344848633;1673427958.1385477;6.231441020965576;-4.578715801239014;95.06643676757812
176;1673427958.187881;47.1306428;7.2406196;45.22500228881836;1673427958.3358386;6.154531478881836;-8.186806678771973;94.91700744628906
177;1673427958.4008994;47.130642699999996;7.2406197;45.61600112915039;1673427958.5390565;5.867483615875244;-8.845658302307129;94.87741088867188
178;1673427958.5893998;47.1306428;7.2406196;46.00400161743164;1673427958.7412422;5.964630603790283;-4.97625732421875;94.95308685302734
179;1673427958.7896874;47.1306429;7.2406196;46.39400100708008;1673427958.9063838;6.028221607208252;-6.7590718269348145;94.95887756347656
180;1673427958.9721026;47.1306428;7.2406196;46.788002014160156;1673427959.1398814;6.384121417999268;-9.392491340637207;94.82574462890625
181;1673427959.1850092;47.1306428;7.2406196;47.177001953125;1673427959.3268166;6.456371307373047;-5.85599422454834;94.87474060058594
182;1673427959.384488;47.1306428;7.2406196;47.56800079345703;1673427959.5353427;6.383903503417969;-5.726911544799805;94.94011688232422
183;1673427959.5945334;47.1306428;7.2406196;47.961002349853516;1673427959.7731695;6.043232440948486;-9.614347457885742;95.08619689941406
184;1673427959.8479698;47.1306429;7.2406196;48.327003479003906;1673427959.9800873;6.063431739807129;-5.658732891082764;95.23290252685547
185;1673427960.0183055;47.1306429;7.2406196;48.64200210571289;1673427960.145039;5.919588088989258;-4.84392786026001;95.2888412475586
186;1673427960.1885452;47.1306429;7.2406196;48.90700149536133;1673427960.31308;6.153458118438721;-8.611276626586914;95.0330581665039
187;1673427960.3674605;47.130642699999996;7.2406197;49.121002197265625;1673427960.5247543;6.54263162612915;-6.790221214294434;95.12895202636719
188;1673427960.5728397;47.1306424;7.2406198999999996;49.302001953125;1673427960.709353;14.645294189453125;3.639958620071411;96.42127227783203
189;1673427960.7601068;47.130641999999995;7.240619799999999;49.46000289916992;1673427960.896052;28.899675369262695;27.92548179626465;107.6729965209961
190;1673427960.9509442;47.130641;7.2406184;49.605003356933594;1673427961.0873716;32.34431838989258;46.76126480102539;118.40084838867188
191;1673427961.1420274;47.1306382;7.240614099999999;49.73100280761719;1673427961.2825303;25.947826385498047;57.582828521728516;126.28889465332031
192;1673427961.3442395;47.1306327;7.240605899999999;49.82100296020508;1673427961.471117;9.036273002624512;59.500160217285156;135.96177673339844
193;1673427961.5316355;47.130624499999996;7.240594;49.87600326538086;1673427961.691828;-9.679920196533203;53.676124572753906;147.5616455078125
194;1673427961.7514207;47.1306139;7.2405791;49.90300369262695;1673427961.8861282;-24.230131149291992;47.5268440246582;157.86566162109375
195;1673427961.944618;47.1306016;7.2405621;49.906002044677734;1673427962.0807483;-36.4385986328125;44.026432037353516;168.80142211914062
196;1673427962.1447098;47.1305876;7.2405436;49.89200210571289;1673427962.2879558;-43.82191848754883;35.981361389160156;-176.97203063964844
197;1673427962.3389637;47.130572199999996;7.2405235999999995;49.87700271606445;1673427962.4853384;-49.865089416503906;30.558984756469727;-165.113037109375
198;1673427962.5469725;47.1305555;7.240501999999999;49.86300277709961;1673427962.6808317;-50.287925720214844;24.202991485595703;-157.43902587890625
199;1673427962.7396278;47.1305379;7.240478899999999;49.82600402832031;1673427962.8844755;-47.29209899902344;19.131629943847656;-151.67347717285156
200;1673427962.942242;47.130519799999995;7.2404549;49.7760009765625;1673427963.0715883;-47.31137466430664;14.369446754455566;-144.74490356445312
201;1673427963.1392345;47.1305014;7.2404302;49.733001708984375;1673427963.2761443;-47.371612548828125;8.79451847076416;-137.34527587890625
202;1673427963.3290153;47.130482799999996;7.2404049;49.69900131225586;1673427963.4915395;-45.974674224853516;6.62954044342041;-131.4330596923828
203;1673427963.567376;47.1304641;7.2403792;49.676002502441406;1673427963.7612174;-47.536903381347656;-0.034570034593343735;-128.8404541015625
204;1673427963.8175747;47.1304453;7.2403531;49.65800094604492;1673427963.95976;-46.12090301513672;0.1252986192703247;-132.38539123535156
205;1673427964.0160513;47.130426299999996;7.240327;49.643001556396484;1673427964.1461253;-46.59938049316406;1.0906492471694946;-134.20278930664062
206;1673427964.2154257;47.130407;7.240301199999999;49.64200210571289;1673427964.3475068;-48.08138656616211;2.4025750160217285;-135.01890563964844
207;1673427964.3958733;47.1303875;7.2402757;49.64900207519531;1673427964.5434337;-48.08652877807617;3.9638850688934326;-135.55841064453125
208;1673427964.595413;47.1303677;7.2402501;49.66400146484375;1673427964.767156;-48.311187744140625;5.3582563400268555;-135.95494079589844
209;1673427964.8238199;47.130347799999996;7.2402245;49.68700408935547;1673427964.9318295;-48.601341247558594;5.907288551330566;-135.95945739746094
210;1673427964.9916587;47.130327699999995;7.240198599999999;49.70900344848633;1673427965.1435187;-48.484256744384766;6.148359775543213;-135.8571319580078
211;1673427965.20089;47.130307599999995;7.2401725;49.737003326416016;1673427965.3561592;-48.946407318115234;6.290010452270508;-135.7325897216797
212;1673427965.4162443;47.1302874;7.240146299999999;49.76300048828125;1673427965.5632792;-48.77718734741211;6.156396865844727;-135.53733825683594
213;1673427965.612525;47.1302672;7.2401197999999996;49.7760009765625;1673427965.7319133;-48.130645751953125;5.855165481567383;-135.30868530273438
214;1673427965.8170683;47.1302471;7.2400932;49.781002044677734;1673427965.9514613;-47.48744583129883;5.726000785827637;-135.2982940673828
215;1673427966.001945;47.130227;7.2400664;49.788002014160156;1673427966.123641;-47.2789421081543;5.859653472900391;-135.34515380859375
216;1673427966.17461;47.1302069;7.240039599999999;49.798004150390625;1673427966.3031912;-47.82635498046875;5.879633903503418;-135.3186798095703
217;1673427966.3568647;47.1301868;7.2400128;49.81200408935547;1673427966.4950993;-48.32195281982422;5.935273170471191;-135.30093383789062
218;1673427966.5546632;47.1301668;7.2399857999999995;49.8280029296875;1673427966.6934905;-48.576080322265625;5.896996974945068;-135.26663208007812
219;1673427966.7423148;47.1301468;7.239958799999999;49.84300231933594;1673427966.8891125;-48.53182601928711;5.734838485717773;-135.1958465576172
220;1673427966.9438891;47.1301267;7.2399317;49.85000228881836;1673427967.0850227;-47.96883773803711;5.6039814949035645;-135.12429809570312
221;1673427967.147637;47.1301067;7.2399045;49.855003356933594;1673427967.3050907;-47.76484680175781;5.607560634613037;-135.16879272460938
222;1673427967.3633966;47.1300866;7.2398772;49.8640022277832;1673427967.4947643;-48.06292724609375;5.796452522277832;-135.25833129882812
223;1673427967.5513911;47.1300665;7.239849899999999;49.87300109863281;1673427967.6915793;-48.477073669433594;5.789292335510254;-135.20181274414062
224;1673427967.7562082;47.1300464;7.2398226;49.87900161743164;1673427967.896953;-48.406288146972656;5.68130350112915;-135.14401245117188
225;1673427967.95206;47.1300264;7.2397952;49.880001068115234;1673427968.0833435;-48.0040397644043;5.547244071960449;-135.1018524169922
226;1673427968.138005;47.1300063;7.2397678999999995;49.875003814697266;1673427968.3062997;-47.58879852294922;5.543862342834473;-135.1200714111328
227;1673427968.3570802;47.1299863;7.239740599999999;49.867000579833984;1673427968.4943964;-47.36294174194336;5.657438278198242;-135.17938232421875
228;1673427968.5560036;47.1299663;7.2397133;49.862003326416016;1673427968.6949785;-47.6365852355957;5.707363605499268;-135.21267700195312
229;1673427968.7557955;47.1299463;7.239686;49.862003326416016;1673427968.9147794;-48.14451217651367;5.752037525177002;-135.20069885253906
230;1673427968.9789014;47.129926399999995;7.2396588;49.862003326416016;1673427969.1405509;-48.33465576171875;5.780663013458252;-135.1799774169922
231;1673427969.1920228;47.1299065;7.2396315;49.86100387573242;1673427969.34745;-48.20256042480469;5.579258441925049;-135.11172485351562
232;1673427969.394485;47.1298865;7.239604099999999;49.86000061035156;1673427969.521817;-47.94318389892578;5.625797748565674;-135.14166259765625
233;1673427969.5915492;47.1298665;7.2395768;49.86000061035156;1673427969.7182083;-47.96965789794922;5.654724597930908;-135.1240997314453
234;1673427969.769969;47.1298466;7.2395495;49.85600280761719;1673427969.9281206;-47.90892791748047;5.5774312019348145;-135.10206604003906
235;1673427970.015934;47.129826699999995;7.239522099999999;49.85300064086914;1673427970.1719558;-47.92732238769531;5.498934745788574;-135.08140563964844
236;1673427970.2364829;47.129806699999996;7.239494799999999;49.85400390625;1673427970.3562534;-48.032073974609375;5.542797565460205;-135.1016082763672
237;1673427970.4075246;47.1297868;7.2394674;49.858001708984375;1673427970.558291;-48.164573669433594;5.535090923309326;-135.08802795410156
238;1673427970.6215618;47.1297668;7.2394400999999995;49.86100387573242;1673427970.7532074;-48.13202667236328;5.523781776428223;-135.0808563232422
239;1673427970.803289;47.1297469;7.2394127;49.862003326416016;1673427970.9756298;-47.976966857910156;5.443248748779297;-135.03082275390625
240;1673427971.0171967;47.129726899999994;7.2393852999999995;49.85900115966797;1673427971.1369545;-47.68857192993164;5.5015668869018555;-135.04725646972656
241;1673427971.2160256;47.129706999999996;7.239357999999999;49.858001708984375;1673427971.3515875;-47.63108825683594;5.511497974395752;-135.04197692871094
242;1673427971.406411;47.129687;7.2393307;49.85900115966797;1673427971.5648847;-47.704490661621094;5.4983906745910645;-134.98028564453125
243;1673427971.6158106;47.129667;7.2393032999999996;49.86000061035156;1673427971.7536328;-47.79818344116211;5.513399124145508;-134.9969024658203
244;1673427971.8041465;47.1296471;7.239275999999999;49.8640022277832;1673427971.9346492;-47.942962646484375;5.536191463470459;-134.9678497314453
245;1673427971.9955895;47.129627199999995;7.2392487;49.867000579833984;1673427972.1514459;-48.02928924560547;5.3719658851623535;-134.86846923828125
246;1673427972.2205558;47.129607299999996;7.2392214;49.868003845214844;1673427972.337185;-47.85770034790039;5.351393222808838;-134.8602294921875
247;1673427972.3833;47.1295874;7.2391941;49.871002197265625;1673427972.5218434;-47.740116119384766;5.358489513397217;-134.83937072753906
248;1673427972.5739338;47.1295675;7.2391668;49.874000549316406;1673427972.7015514;-47.83595275878906;5.330082893371582;-134.78895568847656
249;1673427972.754649;47.1295475;7.2391394;49.87900161743164;1673427972.9004333;-47.94184112548828;5.39839506149292;-134.79879760742188
250;1673427972.9571283;47.129527599999996;7.2391121;49.88500213623047;1673427973.1026137;-48.0535888671875;5.282200336456299;-134.67977905273438
251;1673427973.163271;47.1295077;7.2390848;49.89200210571289;1673427973.3124301;-48.11042404174805;5.27333927154541;-134.6706085205078
252;1673427973.3594756;47.1294877;7.2390574;49.9010009765625;1673427973.5033827;-48.05331802368164;5.195921897888184;-134.5480499267578
253;1673427973.5570633;47.1294677;7.23903;49.90800094604492;1673427973.7152464;-48.10618209838867;5.071680545806885;-134.479736328125
254;1673427973.7757838;47.1294478;7.2390025;49.91200256347656;1673427973.9175234;-47.75206756591797;4.964939117431641;-134.39024353027344
255;1673427973.9704452;47.1294277;7.238975099999999;49.913002014160156;1673427974.1509418;-47.415924072265625;5.763906478881836;-134.54876708984375
256;1673427974.213285;47.129407699999994;7.2389475999999995;49.91800308227539;1673427974.355576;-47.26444625854492;8.494680404663086;-134.9857635498047
257;1673427974.4074614;47.129387799999996;7.2389202;49.92400360107422;1673427974.5459104;-47.67622756958008;7.438833713531494;-134.0686492919922
258;1673427974.5933166;47.1293681;7.2388924999999995;49.932003021240234;1673427974.7353706;-48.224239349365234;6.825002670288086;-133.64581298828125
259;1673427974.8062146;47.1293485;7.2388647;49.94200134277344;1673427974.9248443;-47.97245788574219;7.96381139755249;-133.603271484375
260;1673427974.9708104;47.129329;7.2388366;49.95000076293945;1673427975.096828;-47.79705810546875;8.067891120910645;-133.2494354248047
261;1673427975.1475658;47.1293097;7.2388083;49.957000732421875;1673427975.2782269;-46.49969482421875;9.137822151184082;-133.09295654296875
262;1673427975.3320715;47.129290499999996;7.2387799;49.970001220703125;1673427975.4707596;-37.53271484375;7.3541131019592285;-132.12777709960938
263;1673427975.5284538;47.1292717;7.238751499999999;50.00400161743164;1673427975.699406;-21.519426345825195;9.856858253479004;-134.1355438232422
264;1673427975.765869;47.1292536;7.2387242;50.03200149536133;1673427975.9114332;-4.808983325958252;8.873896598815918;-135.1303253173828
265;1673427975.9793847;47.129236999999996;7.2386989999999996;50.04600143432617;1673427976.1277146;6.873408317565918;7.764693737030029;-136.03558349609375
266;1673427976.1819804;47.1292221;7.2386767;50.04600143432617;1673427976.3287888;13.900416374206543;7.112110614776611;-136.04464721679688
267;1673427976.385636;47.1292093;7.2386579;50.031002044677734;1673427976.5318627;19.234586715698242;11.263078689575195;-138.40135192871094
268;1673427976.578696;47.1291988;7.2386424;49.99800109863281;1673427976.7289324;21.042001724243164;12.760896682739258;-140.23745727539062
269;1673427976.7753184;47.1291903;7.23863;49.958003997802734;1673427976.9441655;22.274320602416992;10.402828216552734;-138.995361328125
270;1673427977.0000386;47.1291838;7.2386205;49.906002044677734;1673427977.1400697;14.714469909667969;11.619525909423828;-138.53436279296875
271;1673427977.2096286;47.1291788;7.2386132;49.8640022277832;1673427977.3282404;5.792446613311768;11.470367431640625;-137.72271728515625
272;1673427977.3728254;47.1291751;7.2386073;49.85900115966797;1673427977.4916813;-3.8084676265716553;7.426488399505615;-137.11471557617188
273;1673427977.5449317;47.129172;7.2386021;49.884002685546875;1673427977.675299;-9.604191780090332;8.225058555603027;-136.9432373046875
274;1673427977.728625;47.1291691;7.2385972;49.9170036315918;1673427977.8649387;-11.278616905212402;6.432281970977783;-137.06532287597656
275;1673427977.9258218;47.1291662;7.238592499999999;49.94900131225586;1673427978.0673187;-8.941551208496094;9.640368461608887;-137.37135314941406
276;1673427978.1271589;47.1291632;7.238588;49.97700119018555;1673427978.285897;-5.159242630004883;7.9086713790893555;-138.11190795898438
277;1673427978.3495986;47.12916;7.2385836999999995;50.000003814697266;1673427978.49907;-1.4807589054107666;8.04160213470459;-138.7537078857422
278;1673427978.556479;47.1291568;7.238579799999999;50.02000427246094;1673427978.7071807;-4.825458526611328;8.818377494812012;-138.51780700683594
279;1673427978.760035;47.129153599999995;7.2385760999999995;50.051002502441406;1673427978.9016004;-28.0061092376709;7.56663703918457;-139.20333862304688
280;1673427978.9630773;47.129149999999996;7.238572;50.11900329589844;1673427979.1137598;-18.891660690307617;0.7846512198448181;-136.5565643310547
281;1673427979.1655793;47.1291455;7.2385668999999995;50.24400329589844;1673427979.3118715;-19.11082649230957;1.6679943799972534;-136.72784423828125
282;1673427979.3892279;47.129140199999995;7.238561499999999;50.4530029296875;1673427979.5230596;-17.594091415405273;2.699204921722412;-136.95216369628906
283;1673427979.5758739;47.1291345;7.2385559;50.73600387573242;1673427979.7421522;-36.374568939208984;11.250884056091309;-138.7552947998047
284;1673427979.7993014;47.129127999999994;7.238549399999999;51.07400131225586;1673427979.9663458;-42.9959716796875;14.826915740966797;-137.15579223632812
285;1673427980.0148592;47.1291206;7.238540599999999;51.4170036315918;1673427980.1347487;-41.81023025512695;14.698171615600586;-135.47003173828125
286;1673427980.1864786;47.129112199999994;7.238529;51.78000259399414;1673427980.3231914;-36.10713195800781;14.328944206237793;-135.85325622558594
287;1673427980.3758783;47.129103;7.2385155;52.14900207519531;1673427980.5059664;-30.93157196044922;12.55488109588623;-136.0766143798828
288;1673427980.5622387;47.129093499999996;7.2385009;52.51400375366211;1673427980.7025483;-27.508455276489258;9.179203987121582;-136.02061462402344
289;1673427980.767001;47.129083699999995;7.2384857;52.884002685546875;1673427980.9364388;-24.246082305908203;6.620193004608154;-136.1322021484375
290;1673427980.9895377;47.1290738;7.2384704;53.25300216674805;1673427981.1261709;-21.873394012451172;5.223640441894531;-136.37564086914062
291;1673427981.185723;47.1290639;7.2384555;53.625003814697266;1673427981.3304088;-20.716604232788086;5.442047595977783;-136.74948120117188
292;1673427981.3823247;47.1290542;7.238441;54.006004333496094;1673427981.5196476;-20.380298614501953;6.676174640655518;-137.39895629882812
293;1673427981.6010516;47.1290445;7.2384268;54.3900032043457;1673427981.7360764;-20.607297897338867;8.502954483032227;-137.86766052246094
294;1673427981.785026;47.1290349;7.2384131;54.7760009765625;1673427981.9161716;-21.322614669799805;9.48933219909668;-138.08383178710938
295;1673427981.9802058;47.1290252;7.2383998;55.165000915527344;1673427982.11831;-22.8250789642334;9.251320838928223;-138.08642578125
296;1673427982.168085;47.129015599999995;7.2383868;55.55600357055664;1673427982.311824;-23.80465316772461;8.215682983398438;-137.5895538330078
297;1673427982.379273;47.129006;7.2383739;55.948001861572266;1673427982.5489101;-24.743921279907227;7.116316795349121;-137.06387329101562
298;1673427982.6052005;47.1289963;7.238360999999999;56.342002868652344;1673427982.752306;-25.376667022705078;7.028355121612549;-136.99514770507812
299;1673427982.810423;47.1289867;7.238347999999999;56.73600387573242;1673427982.9479196;-25.649921417236328;7.031023025512695;-137.0701446533203
300;1673427983.0058095;47.128977;7.2383348;57.131004333496094;1673427983.152562;-25.469003677368164;8.333185195922852;-137.20594787597656
301;1673427983.217805;47.1289673;7.2383215;57.525001525878906;1673427983.3709645;-25.008319854736328;9.969167709350586;-137.4688720703125
302;1673427983.451874;47.1289575;7.238308;57.922000885009766;1673427983.5761054;-24.5752010345459;10.31811237335205;-137.48648071289062
303;1673427983.641536;47.1289477;7.238294499999999;58.3180046081543;1673427983.7764242;-24.396024703979492;10.468003273010254;-137.5290069580078
304;1673427983.818432;47.128937799999996;7.2382808999999995;58.711002349853516;1673427983.950606;-24.289592742919922;9.299710273742676;-137.32003784179688
305;1673427984.0256166;47.128927999999995;7.2382675;59.103004455566406;1673427984.169641;-24.432621002197266;8.77655029296875;-137.17007446289062
306;1673427984.2151656;47.128918;7.2382539999999995;59.496002197265625;1673427984.3505592;-24.330028533935547;7.375177383422852;-136.79678344726562
307;1673427984.409759;47.1289081;7.238240599999999;59.887001037597656;1673427984.5366871;-24.653268814086914;7.344208240509033;-136.77911376953125
308;1673427984.5920372;47.128898199999995;7.2382272;60.27900314331055;1673427984.7355597;-24.57038116455078;7.498504161834717;-136.84349060058594
309;1673427984.7873485;47.1288883;7.238213699999999;60.67400360107422;1673427984.9251113;-24.49393081665039;7.834526062011719;-136.9497528076172
310;1673427984.9755268;47.1288786;7.2382002;61.0680046081543;1673427985.109101;-24.56369400024414;8.076587677001953;-136.97267150878906
311;1673427985.160822;47.1288688;7.2381866;61.46200180053711;1673427985.302611;-24.56174087524414;9.261245727539062;-137.28761291503906
312;1673427985.355477;47.1288591;7.238173;61.853004455566406;1673427985.4964845;-24.406667709350586;9.64077091217041;-137.39772033691406
313;1673427985.553938;47.1288493;7.2381592999999995;62.246002197265625;1673427985.6983628;-24.500696182250977;9.809815406799316;-137.4392547607422
314;1673427985.7520845;47.1288396;7.238145599999999;62.6410026550293;1673427985.908182;-24.53275489807129;10.111347198486328;-137.43223571777344
315;1673427985.9630253;47.1288298;7.2381319;63.03900146484375;1673427986.1112707;-24.525304794311523;9.748064994812012;-137.446533203125
316;1673427986.1641128;47.12882;7.2381182;63.43700408935547;1673427986.3303761;-24.50096893310547;9.52773666381836;-137.24159240722656
317;1673427986.4052534;47.128810099999995;7.2381046;63.83200454711914;1673427986.5529974;-24.809398651123047;9.025182723999023;-137.1361846923828
318;1673427986.6199658;47.128800299999995;7.2380911;64.2280044555664;1673427986.7456815;-24.761545181274414;8.251556396484375;-137.0571746826172
319;1673427986.82761;47.1287904;7.2380777;64.625;1673427986.9608335;-24.951091766357422;7.823544025421143;-136.73817443847656
320;1673427987.0109856;47.1287804;7.2380643;65.02300262451172;1673427987.1593194;-24.934185028076172;7.473760604858398;-136.6186065673828
321;1673427987.2231274;47.128770499999995;7.238050899999999;65.42000579833984;1673427987.3610978;-25.000843048095703;7.455061435699463;-136.70974731445312
322;1673427987.4115314;47.1287606;7.2380374;65.81800079345703;1673427987.5643406;-24.947948455810547;7.411270618438721;-136.4423065185547
323;1673427987.6146529;47.1287507;7.238023999999999;66.21300506591797;1673427987.7637687;-25.150066375732422;7.448233604431152;-136.4761505126953
324;1673427987.831692;47.128740799999996;7.2380105;66.60700225830078;1673427987.958376;-25.013212203979492;7.539569854736328;-136.5876007080078
325;1673427988.0121753;47.128730999999995;7.2379969;66.9990005493164;1673427988.1424286;-24.9406681060791;7.340922832489014;-136.524658203125
326;1673427988.1933758;47.1287212;7.2379833;67.39400482177734;1673427988.3314054;-25.214702606201172;7.249473571777344;-136.59951782226562
327;1673427988.3822675;47.1287114;7.2379697;67.78900146484375;1673427988.5238872;-24.863935470581055;6.9279704093933105;-136.50030517578125
328;1673427988.5766916;47.1287016;7.237956;68.18400573730469;1673427988.708883;-24.916584014892578;6.548796653747559;-136.421875
329;1673427988.7638369;47.1286918;7.2379424;68.58100128173828;1673427988.9119344;-24.83074188232422;7.27358341217041;-136.49435424804688
330;1673427988.9722443;47.1286819;7.2379288;68.9780044555664;1673427989.1255193;-25.274385452270508;7.687526226043701;-136.75588989257812
331;1673427989.1774187;47.128672099999996;7.2379152;69.37800598144531;1673427989.3280914;-25.134571075439453;7.95853853225708;-136.90599060058594
332;1673427989.3759217;47.1286622;7.2379014999999995;69.77799987792969;1673427989.5027747;-25.096920013427734;8.719019889831543;-137.0486297607422
333;1673427989.5558548;47.1286523;7.2378879;70.1780014038086;1673427989.6875134;-25.018447875976562;8.498268127441406;-137.0167694091797
334;1673427989.7433782;47.1286424;7.237874199999999;70.58000183105469;1673427989.8857045;-24.97323226928711;8.966259956359863;-136.99481201171875
335;1673427989.9455104;47.128632499999995;7.2378605;70.9800033569336;1673427990.0926998;-25.126874923706055;8.850686073303223;-137.0052490234375
336;1673427990.1478922;47.1286226;7.2378469;71.37700653076172;1673427990.2871141;-25.205432891845703;8.90395736694336;-136.93214416503906
337;1673427990.340388;47.1286126;7.2378332;71.77100372314453;1673427990.4801147;-25.231719970703125;9.124659538269043;-136.94741821289062
338;1673427990.5350814;47.128602699999995;7.2378195;72.17200469970703;1673427990.6804397;-25.198570251464844;9.271117210388184;-136.95790100097656
339;1673427990.7361124;47.1285927;7.2378059;72.57300567626953;1673427990.9213316;-25.05660057067871;9.61745834350586;-137.12921142578125
340;1673427990.992174;47.128582699999995;7.2377921999999995;72.97200012207031;1673427991.1430774;-25.013011932373047;9.786547660827637;-137.19215393066406
341;1673427991.1988225;47.1285727;7.2377784;73.37000274658203;1673427991.3640223;-24.924104690551758;9.554682731628418;-137.09951782226562
342;1673427991.4200594;47.128562699999996;7.2377647;73.76600646972656;1673427991.6008873;-25.0115966796875;9.453937530517578;-137.0878143310547
343;1673427991.695919;47.1285528;7.237750999999999;74.16200256347656;1673427991.790204;-25.17562484741211;9.380170822143555;-137.0264892578125
344;1673427991.8503366;47.1285429;7.237737399999999;74.55599975585938;1673427992.0172071;-25.410606384277344;9.290119171142578;-136.93582153320312
345;1673427992.0534341;47.128532899999996;7.2377237999999995;74.95100402832031;1673427992.2123504;-25.666196823120117;9.248799324035645;-136.90086364746094
346;1673427992.2569804;47.1285229;7.237710099999999;75.34600067138672;1673427992.371368;-25.78911018371582;9.221623420715332;-136.91445922851562
347;1673427992.422684;47.128513;7.2376964;75.74200439453125;1673427992.5549273;-25.6237850189209;9.033292770385742;-136.84991455078125
348;1673427992.6091146;47.128502999999995;7.2376827;76.13600158691406;1673427992.7395146;-25.525909423828125;8.934513092041016;-136.83531188964844
349;1673427992.792221;47.128493;7.2376689;76.5300064086914;1673427992.943896;-25.423274993896484;8.856163024902344;-136.8763427734375
350;1673427992.9955485;47.1284831;7.237654999999999;76.92500305175781;1673427993.1285152;-25.249916076660156;8.81324577331543;-136.90652465820312
351;1673427993.180242;47.128473199999995;7.2376412;77.32100677490234;1673427993.335516;-25.27387046813965;8.618101119995117;-136.9169158935547
352;1673427993.4067662;47.1284633;7.237627499999999;77.71900177001953;1673427993.544429;-25.389808654785156;8.586718559265137;-136.9232177734375
353;1673427993.5922682;47.1284534;7.2376138;78.11700439453125;1673427993.7310624;-25.300046920776367;8.75416088104248;-136.9075469970703
354;1673427993.7976503;47.128443499999996;7.2376001;78.52000427246094;1673427993.9361157;-25.33655548095703;8.592307090759277;-136.89501953125
355;1673427994.0016906;47.1284336;7.2375864;78.92200469970703;1673427994.1229565;-25.219030380249023;8.610880851745605;-136.93263244628906
356;1673427994.1766367;47.1284237;7.237572699999999;79.32200622558594;1673427994.3232741;-25.357934951782227;8.74896240234375;-136.92520141601562
357;1673427994.3798838;47.1284138;7.237559;79.72200012207031;1673427994.5442042;-25.368846893310547;8.707680702209473;-136.93699645996094
358;1673427994.60567;47.128403899999995;7.237545399999999;80.12300109863281;1673427994.7509115;-25.361574172973633;8.615986824035645;-136.9167022705078
359;1673427994.8183992;47.128394;7.2375317;80.52400207519531;1673427994.9943082;-25.238080978393555;8.70648193359375;-136.92674255371094
360;1673427995.0452826;47.1283841;7.2375181;80.9260025024414;1673427995.1709645;-25.354280471801758;8.709723472595215;-136.9378204345703
361;1673427995.24289;47.128374199999996;7.2375044;81.3280029296875;1673427995.3732867;-25.23928451538086;8.717157363891602;-136.89373779296875
362;1673427995.4193134;47.1283643;7.2374906999999995;81.7300033569336;1673427995.5471473;-25.331687927246094;8.6596097946167;-136.92530822753906
363;1673427995.6011977;47.1283544;7.2374770999999996;82.13200378417969;1673427995.7375867;-25.37560272216797;8.805438995361328;-136.95535278320312
364;1673427995.7963636;47.1283445;7.2374635;82.5320053100586;1673427995.940344;-25.348648071289062;8.704495429992676;-136.9222869873047
365;1673427995.9955556;47.128334599999995;7.2374499;82.9320068359375;1673427996.132122;-25.296838760375977;8.734075546264648;-136.94009399414062
366;1673427996.2207081;47.128324799999994;7.237436199999999;83.33000183105469;1673427996.3944402;-25.461288452148438;8.717657089233398;-136.93856811523438
367;1673427996.4399214;47.1283149;7.2374225999999995;83.7300033569336;1673427996.582157;-25.52396583557129;8.73682975769043;-136.95843505859375
368;1673427996.6384842;47.128305;7.2374089999999995;84.1290054321289;1673427996.7856324;-25.361644744873047;8.789870262145996;-136.9451141357422
369;1673427996.831646;47.128295099999995;7.2373954;84.5260009765625;1673427996.98836;-25.433061599731445;8.836590766906738;-136.96795654296875
370;1673427997.0402498;47.1282852;7.2373818;84.92300415039062;1673427997.2023728;-25.33793830871582;8.75802230834961;-136.92178344726562
371;1673427997.249534;47.1282752;7.237368099999999;85.31900024414062;1673427997.3852448;-25.31167221069336;8.764531135559082;-136.93785095214844
372;1673427997.4589899;47.128265299999995;7.2373544999999995;85.71400451660156;1673427997.6466286;-25.451961517333984;8.737288475036621;-136.96258544921875
373;1673427997.738653;47.128255499999995;7.237340799999999;86.11100769042969;1673427997.840329;-25.368234634399414;8.663524627685547;-136.93739318847656
374;1673427997.8754551;47.1282455;7.2373271;86.5060043334961;1673427997.9850848;-25.23322868347168;8.727134704589844;-136.95816040039062
375;1673427998.0366006;47.1282356;7.2373135;86.9020004272461;1673427998.1728055;-25.243995666503906;8.645400047302246;-136.91671752929688
376;1673427998.2270188;47.128225699999994;7.2372999;87.3010025024414;1673427998.431108;-25.429656982421875;8.706171035766602;-136.94686889648438
377;1673427998.4800892;47.1282158;7.2372863;87.70000457763672;1673427998.619331;-25.415849685668945;8.773454666137695;-136.94993591308594
378;1673427998.6986542;47.128205799999996;7.2372727;88.09800720214844;1673427998.8126926;-25.463218688964844;8.800844192504883;-136.94448852539062
379;1673427998.8532493;47.128195899999994;7.237259;88.49300384521484;1673427998.999327;-25.34364891052246;8.74957275390625;-136.91908264160156
380;1673427999.0457566;47.1281859;7.2372454;88.88800048828125;1673427999.170241;-25.1197566986084;8.79940128326416;-136.92276000976562
381;1673427999.263933;47.128175999999996;7.2372317;89.28300476074219;1673427999.3863974;-25.23996925354004;8.810237884521484;-136.96273803710938
382;1673427999.4353073;47.1281661;7.2372181;89.6780014038086;1673427999.5601668;-25.378610610961914;8.756309509277344;-136.93968200683594
383;1673427999.6356785;47.1281561;7.2372045;90.07100677490234;1673427999.7623932;-25.319133758544922;8.741092681884766;-136.9534149169922
384;1673427999.808014;47.128146199999996;7.2371908;90.46400451660156;1673427999.9346056;-25.228172302246094;8.650424003601074;-136.9430389404297
385;1673427999.9849253;47.1281363;7.2371772;90.8550033569336;1673428000.1237051;-25.30884552001953;8.56813907623291;-136.9400177001953
386;1673428000.1928554;47.1281264;7.2371636;91.2490005493164;1673428000.350687;-25.28278350830078;8.573355674743652;-136.92623901367188
387;1673428000.4083753;47.1281165;7.23715;91.64200592041016;1673428000.5666053;-25.297080993652344;8.575226783752441;-136.93576049804688
388;1673428000.6325426;47.1281065;7.2371364;92.03300476074219;1673428000.7619646;-25.273990631103516;8.634716033935547;-136.91912841796875
389;1673428000.8166256;47.1280966;7.2371228;92.42500305175781;1673428000.9553683;-25.28584861755371;8.603979110717773;-136.953125
390;1673428001.0066674;47.1280867;7.237109299999999;92.82100677490234;1673428001.135089;-25.504053115844727;8.624002456665039;-136.94821166992188
391;1673428001.2004778;47.1280767;7.2370958;93.21500396728516;1673428001.3470497;-25.408946990966797;8.621909141540527;-136.91995239257812
392;1673428001.4156048;47.1280668;7.2370822;93.6050033569336;1673428001.553837;-25.370529174804688;8.846023559570312;-136.92835998535156
393;1673428001.631646;47.128056799999996;7.2370686;93.99800109863281;1673428001.7604065;-25.362293243408203;8.688170433044434;-136.9102325439453
394;1673428001.816137;47.1280468;7.237055;94.39500427246094;1673428001.952008;-25.122310638427734;8.816574096679688;-136.89035034179688
395;1673428002.017419;47.1280368;7.2370414;94.79300689697266;1673428002.1520796;-25.080116271972656;8.798101425170898;-136.90249633789062
396;1673428002.246138;47.128026899999995;7.237027899999999;95.18900299072266;1673428002.399212;-25.145395278930664;8.838675498962402;-136.9001922607422
397;1673428002.4433496;47.1280169;7.237014299999999;95.58200073242188;1673428002.5749714;-25.23527717590332;8.752187728881836;-136.90023803710938
398;1673428002.645528;47.128006899999995;7.237000699999999;95.97700500488281;1673428002.7978966;-25.2023983001709;8.83660888671875;-136.88409423828125
399;1673428002.8731923;47.127997;7.2369870999999995;96.37300109863281;1673428002.9911513;-25.209688186645508;8.685237884521484;-136.87918090820312
400;1673428003.06247;47.1279871;7.2369734999999995;96.77100372314453;1673428003.1750848;-25.19447898864746;8.768756866455078;-136.8825225830078
401;1673428003.2191277;47.1279772;7.23696;97.17000579833984;1673428003.3705356;-25.293455123901367;8.805925369262695;-136.89036560058594
402;1673428003.4243124;47.127967299999995;7.2369464;97.56900787353516;1673428003.566658;-25.372488021850586;8.65319538116455;-136.8756561279297
403;1673428003.6213121;47.1279574;7.236932899999999;97.96800231933594;1673428003.76227;-25.461023330688477;8.684630393981934;-136.89065551757812
404;1673428003.816098;47.1279474;7.236919299999999;98.36400604248047;1673428003.951198;-25.30752182006836;8.856284141540527;-136.8706512451172
405;1673428004.0091465;47.1279374;7.2369058;98.76000213623047;1673428004.1543202;-25.206735610961914;8.87722110748291;-136.8366241455078
406;1673428004.2144697;47.1279274;7.2368922;99.156005859375;1673428004.390977;-25.099885940551758;8.927474975585938;-136.86074829101562
407;1673428004.4449966;47.127917499999995;7.2368784999999995;99.55400848388672;1673428004.6086073;-25.085325241088867;8.900673866271973;-136.85177612304688
408;1673428004.6540911;47.1279076;7.2368649;99.9520034790039;1673428004.803582;-25.052471160888672;8.57749080657959;-136.80604553222656
409;1673428004.8701324;47.1278977;7.2368513;100.35000610351562;1673428004.9900029;-25.241790771484375;8.684707641601562;-136.87339782714844
410;1673428005.0359623;47.127887799999996;7.2368377;100.74800109863281;1673428005.1929252;-25.195098876953125;8.723864555358887;-136.85301208496094
411;1673428005.2413645;47.127877899999994;7.2368241;101.14900207519531;1673428005.3971899;-25.22858428955078;8.757216453552246;-136.8284454345703
412;1673428005.4466727;47.127868;7.2368105;101.54900360107422;1673428005.619136;-25.33053207397461;8.595257759094238;-136.82029724121094
413;1673428005.6617923;47.1278581;7.2367969;101.94700622558594;1673428005.7724133;-25.267242431640625;8.749011993408203;-136.86888122558594
414;1673428005.821325;47.127848199999995;7.2367833;102.34500122070312;1673428005.9494727;-25.329219818115234;8.713325500488281;-136.84837341308594
415;1673428005.999396;47.1278383;7.2367697;102.74300384521484;1673428006.1430075;-25.310340881347656;8.571257591247559;-136.8237762451172
416;1673428006.1989202;47.1278285;7.2367561;103.14100646972656;1673428006.3338761;-25.431875228881836;8.545689582824707;-136.85414123535156
417;1673428006.3924708;47.1278186;7.2367425;103.54200744628906;1673428006.5501244;-25.559938430786133;8.619525909423828;-136.86080932617188
418;1673428006.6059377;47.127808699999996;7.236728899999999;103.94400787353516;1673428006.7437267;-25.544496536254883;8.611825942993164;-136.83839416503906
419;1673428006.8022766;47.1277988;7.236715299999999;104.34300231933594;1673428006.9489377;-25.430221557617188;8.780083656311035;-136.85350036621094
420;1673428007.005898;47.1277888;7.236701699999999;104.74300384521484;1673428007.149313;-25.32718276977539;8.759174346923828;-136.8011932373047
421;1673428007.2078831;47.127778899999996;7.236688099999999;105.14100646972656;1673428007.3560126;-25.466890335083008;8.729595184326172;-136.843017578125
422;1673428007.425802;47.127769;7.2366744;105.53900146484375;1673428007.5442147;-25.362533569335938;8.639812469482422;-136.8297119140625
