;pos_time;latitude;longitude;altitude;alt_time;pitch;roll;yaw
0;1673428990.2850688;47.1306425;7.240619799999999;0.007000000216066837;1673428990.3285487;0.01813492551445961;-0.18733380734920502;90.43939971923828
1;1673428990.483702;47.1306425;7.2406197;0.01100000087171793;1673428990.5237741;-0.24994510412216187;-0.1898678094148636;90.61784362792969
2;1673428990.683533;47.1306425;7.2406197;0.010000000707805157;1673428990.7270234;-0.28507688641548157;-0.1678100973367691;90.55643463134766
3;1673428990.890126;47.1306424;7.2406196;0.00800000037997961;1673428990.94395;-0.2436952143907547;-0.3575388193130493;90.67044067382812
4;1673428991.0952258;47.1306424;7.2406196;0.010000000707805157;1673428991.1365764;-0.32459092140197754;-0.03833146393299103;90.52690887451172
5;1673428991.2898195;47.1306424;7.2406197;0.009000000543892384;1673428991.3318985;-0.34525051712989807;-0.351677268743515;90.59069061279297
6;1673428991.515409;47.1306424;7.240619799999999;0.007000000216066837;1673428991.5549712;-0.3338373601436615;-0.03319647163152695;90.55476379394531
7;1673428991.7067318;47.1306424;7.2406198999999996;0.004000000189989805;1673428991.747;-0.279150128364563;-0.20440921187400818;90.53292846679688
8;1673428991.900681;47.1306424;7.2406198999999996;0.004000000189989805;1673428991.9439363;-0.25937196612358093;-0.1448824256658554;90.48355102539062
9;1673428992.0943584;47.1306424;7.2406198999999996;0.0010000000474974513;1673428992.1392467;-0.36011117696762085;1.2787467241287231;90.3406982421875
10;1673428992.2994058;47.1306424;7.2406198999999996;-0.0010000000474974513;1673428992.3414526;-0.3956949710845947;0.8203215599060059;90.55834197998047
11;1673428992.4917734;47.1306424;7.2406198999999996;-0.005000000353902578;1673428992.531941;-0.4692347049713135;1.024055004119873;90.4350814819336
12;1673428992.687542;47.1306424;7.24062;-0.007000000216066837;1673428992.734056;-0.1348721832036972;0.8098627924919128;90.505859375
13;1673428992.8798375;47.1306424;7.24062;-0.00800000037997961;1673428992.9263396;-0.228864386677742;0.8996941447257996;90.4483871459961
14;1673428993.0880227;47.1306424;7.24062;-0.01100000087171793;1673428993.1316578;-0.38899457454681396;1.3333181142807007;90.29817199707031
15;1673428993.288053;47.1306424;7.24062;-0.014000000432133675;1673428993.3307865;-0.5127633810043335;2.1839325428009033;90.25210571289062
16;1673428993.478665;47.1306424;7.24062;0.0;1673428993.5238783;-0.3519634008407593;1.8568660020828247;90.19591522216797
17;1673428993.6843524;47.1306424;7.24062;-0.0010000000474974513;1673428993.7259724;-0.6593672037124634;1.829977035522461;90.12451171875
18;1673428993.8870876;47.1306424;7.24062;0.0;1673428993.9301827;-0.4928838610649109;0.17095623910427094;89.66182708740234
19;1673428994.0905828;47.1306423;7.2406201;0.0020000000949949026;1673428994.1294131;-0.8288102149963379;0.5690138936042786;90.26956939697266
20;1673428994.288772;47.1306423;7.2406201999999995;0.004000000189989805;1673428994.3312738;-0.6046872735023499;0.4161362648010254;90.01985931396484
21;1673428994.493168;47.1306423;7.2406203;0.006000000052154064;1673428994.5343935;-0.7888015508651733;0.5905988812446594;90.34239959716797
22;1673428994.6933627;47.130642099999996;7.2406201999999995;0.01100000087171793;1673428994.7356586;-0.548076868057251;0.5630624890327454;90.18926239013672
23;1673428994.878576;47.130641999999995;7.2406201999999995;0.020000001415610313;1673428994.9216006;-0.989993155002594;0.4313912093639374;90.24990844726562
24;1673428995.0752294;47.1306416;7.2406204;0.017000000923871994;1673428995.1192021;-0.5236210823059082;0.6119884252548218;89.15669250488281
25;1673428995.2853637;47.130640799999995;7.240621099999999;0.01600000075995922;1673428995.3351722;0.002286565722897649;-1.0462757349014282;95.84378051757812
26;1673428995.5398133;47.1306394;7.2406220999999995;0.029000001028180122;1673428995.6028216;1.5036710500717163;-2.7265491485595703;95.18103790283203
27;1673428995.783687;47.1306376;7.2406234;0.039000000804662704;1673428995.818639;4.856138229370117;-5.702428817749023;94.92999267578125
28;1673428995.9713426;47.130635399999996;7.2406251;0.05100000277161598;1673428996.003383;8.305256843566895;-9.66756534576416;94.32698822021484
29;1673428996.1567757;47.1306328;7.240627099999999;0.07000000029802322;1673428996.1959844;11.3191499710083;-13.89502239227295;93.24930572509766
30;1673428996.3244672;47.13063;7.2406293999999995;0.10100000351667404;1673428996.3562489;11.16988754272461;-15.603311538696289;92.27262115478516
31;1673428996.495569;47.130626899999996;7.2406321;0.14300000667572021;1673428996.5366926;11.229292869567871;-17.160945892333984;91.52874755859375
32;1673428996.698848;47.130623899999996;7.2406349;0.20100000500679016;1673428996.7399123;11.806193351745605;-18.394136428833008;90.94792175292969
33;1673428996.8936937;47.1306209;7.240637899999999;0.2680000066757202;1673428996.930357;12.715283393859863;-19.51898765563965;90.53131866455078
34;1673428997.077446;47.1306181;7.2406409;0.3540000021457672;1673428997.126666;13.803142547607422;-21.023164749145508;90.15044403076172
35;1673428997.2880545;47.130615399999996;7.2406438;0.4540000259876251;1673428997.3339694;15.033882141113281;-22.51717758178711;89.93353271484375
36;1673428997.489806;47.1306131;7.2406466;0.5720000267028809;1673428997.535504;16.42295265197754;-23.868999481201172;89.8216323852539
37;1673428997.691595;47.130611099999996;7.2406489999999994;0.7070000171661377;1673428997.7434745;17.954635620117188;-25.34336280822754;89.74910736083984
38;1673428997.8954802;47.1306095;7.2406511;0.8570000529289246;1673428997.941469;19.45362091064453;-26.87045669555664;89.73841857910156
39;1673428998.100043;47.1306084;7.2406526;1.0220000743865967;1673428998.142977;21.174224853515625;-28.152711868286133;89.9721908569336
40;1673428998.296168;47.1306079;7.2406536;1.2070000171661377;1673428998.3383052;22.975160598754883;-29.713661193847656;90.26056671142578
41;1673428998.5046878;47.1306079;7.240653999999999;1.3980001211166382;1673428998.5459082;24.84954071044922;-31.078678131103516;90.63069915771484
42;1673428998.7007966;47.130608699999996;7.2406535;1.5950000286102295;1673428998.74877;26.879505157470703;-32.318817138671875;90.96669006347656
43;1673428998.920511;47.13061;7.2406521999999995;1.7920000553131104;1673428998.9624813;21.151859283447266;-37.741111755371094;78.91973876953125
44;1673428999.1191556;47.130612299999996;7.2406502999999995;1.996000051498413;1673428999.1607728;26.160701751708984;-38.621700286865234;79.21337127685547
45;1673428999.3235161;47.1306156;7.2406479;2.202000141143799;1673428999.3621383;27.65375328063965;-35.97285079956055;80.69581604003906
46;1673428999.527981;47.1306198;7.2406451;2.4070000648498535;1673428999.5660641;27.50670623779297;-29.584915161132812;82.71102142333984
47;1673428999.72061;47.1306243;7.240641999999999;2.6070001125335693;1673428999.7667446;26.828649520874023;-23.27017593383789;84.28314208984375
48;1673428999.9240296;47.130628699999995;7.240638799999999;2.7980000972747803;1673428999.9690413;24.717063903808594;-18.266088485717773;84.93344116210938
49;1673429000.1208477;47.1306326;7.2406353999999995;2.9810001850128174;1673429000.1648202;22.068378448486328;-14.456663131713867;84.66570281982422
50;1673429000.3414385;47.1306358;7.2406318999999995;3.1540000438690186;1673429000.3822362;19.471054077148438;-12.576970100402832;84.50811767578125
51;1673429000.5345244;47.130638;7.2406286;3.325000047683716;1673429000.57757;17.53975486755371;-12.6268892288208;84.94703674316406
52;1673429000.730933;47.1306394;7.2406253;3.494000196456909;1673429000.7742198;13.41344928741455;-13.992558479309082;85.47002410888672
53;1673429000.9217968;47.13064;7.2406222;3.6700000762939453;1673429000.9638708;10.470611572265625;-17.07367706298828;85.17097473144531
54;1673429001.1203823;47.13064;7.2406197;3.8450002670288086;1673429001.1623738;8.453524589538574;-20.388813018798828;84.85037994384766
55;1673429001.3027084;47.130639599999995;7.2406181;4.026000022888184;1673429001.3547182;8.070502281188965;-22.997474670410156;84.62605285644531
56;1673429001.5029845;47.130639099999996;7.2406174;4.2170000076293945;1673429001.5460773;8.887624740600586;-25.726119995117188;84.20046997070312
57;1673429001.6928384;47.1306388;7.2406175;4.410000324249268;1673429001.7356966;10.679997444152832;-27.1898136138916;84.00212860107422
58;1673429001.8914404;47.1306386;7.2406181;4.607000350952148;1673429001.9341376;12.234444618225098;-26.610219955444336;84.45777130126953
59;1673429002.090365;47.130638499999996;7.240618899999999;4.808000087738037;1673429002.133316;14.288681983947754;-26.217079162597656;84.47405242919922
60;1673429002.2880497;47.1306387;7.240619799999999;5.005000114440918;1673429002.3345237;15.89837646484375;-27.31167221069336;84.32669067382812
61;1673429002.4936852;47.130638999999995;7.2406207;5.206000328063965;1673429002.5416625;16.796913146972656;-25.93613624572754;84.41463470458984
62;1673429002.6956923;47.1306394;7.2406213;5.409000396728516;1673429002.7435474;17.48511505126953;-23.86104965209961;84.60735321044922
63;1673429002.909617;47.1306399;7.240621699999999;5.612000465393066;1673429002.9517207;17.704851150512695;-24.748933792114258;84.49600982666016
64;1673429003.1114306;47.1306404;7.2406217999999996;5.809000492095947;1673429003.1593633;17.2303524017334;-23.97394561767578;84.4581069946289
65;1673429003.33436;47.130640799999995;7.240621699999999;6.006000518798828;1673429003.3737178;16.763240814208984;-22.153173446655273;84.65039825439453
66;1673429003.5080545;47.1306411;7.2406215;6.209000110626221;1673429003.5481057;16.167503356933594;-23.350019454956055;84.46009063720703
67;1673429003.6906114;47.130641399999995;7.2406212;6.413000106811523;1673429003.7306688;15.480498313903809;-23.61318588256836;84.4283676147461
68;1673429003.877192;47.130641499999996;7.2406209;6.612000465393066;1673429003.9193547;14.826643943786621;-22.161287307739258;84.57083129882812
69;1673429004.0696225;47.1306416;7.2406206;6.810000419616699;1673429004.112172;14.433614730834961;-23.093006134033203;84.42216491699219
70;1673429004.269136;47.1306416;7.2406203;7.004000186920166;1673429004.31033;14.238780975341797;-24.549739837646484;84.19802856445312
71;1673429004.480959;47.1306416;7.2406201999999995;7.198000431060791;1673429004.5557885;14.104294776916504;-23.240768432617188;84.45381927490234
72;1673429004.74613;47.1306416;7.2406201;7.39300012588501;1673429004.78833;14.183404922485352;-23.350826263427734;84.41753387451172
73;1673429004.94221;47.1306416;7.2406201;7.593000411987305;1673429004.9935577;14.480886459350586;-24.859872817993164;84.17801666259766
74;1673429005.155887;47.1306417;7.2406201999999995;7.7920002937316895;1673429005.194937;14.449286460876465;-24.202863693237305;84.32379913330078
75;1673429005.3605783;47.1306416;7.2406203;7.98900032043457;1673429005.3986526;14.697257041931152;-23.11396598815918;84.51750946044922
76;1673429005.5382817;47.1306416;7.2406204;8.188000679016113;1673429005.5714667;15.025995254516602;-24.99040985107422;84.28655242919922
77;1673429005.7192216;47.1306417;7.2406204;8.384000778198242;1673429005.7710686;14.95110034942627;-24.48568344116211;84.25352478027344
78;1673429005.9087005;47.1306417;7.2406206;8.582000732421875;1673429005.9598098;15.282211303710938;-23.012163162231445;84.51087951660156
79;1673429006.1237116;47.1306417;7.2406206;8.782999992370605;1673429006.1637406;15.30675220489502;-24.32301902770996;84.38188934326172
80;1673429006.3276198;47.1306418;7.2406206;8.980000495910645;1673429006.3686876;15.307050704956055;-24.771902084350586;84.21515655517578
81;1673429006.540826;47.1306418;7.2406207;9.180000305175781;1673429006.582933;15.120830535888672;-22.93819808959961;84.50511932373047
82;1673429006.7387097;47.1306418;7.2406206;9.378000259399414;1673429006.7748232;14.987748146057129;-23.772123336791992;84.3929672241211
83;1673429006.9359128;47.1306419;7.2406206;9.572000503540039;1673429006.9723477;14.915067672729492;-25.013092041015625;84.1985092163086
84;1673429007.1352935;47.1306419;7.2406206;9.76300048828125;1673429007.1753228;14.834195137023926;-23.33027458190918;84.46452331542969
85;1673429007.321794;47.1306419;7.2406206;9.961000442504883;1673429007.3692243;14.928030014038086;-23.242708206176758;84.50593566894531
86;1673429007.5140622;47.130641999999995;7.2406206;10.168000221252441;1673429007.5557923;15.069437026977539;-23.873201370239258;84.41290283203125
87;1673429007.7081892;47.130642099999996;7.2406204999999995;10.472000122070312;1673429007.7514176;14.176986694335938;-23.50152587890625;84.35557556152344
88;1673429007.904018;47.1306424;7.2406203;10.855000495910645;1673429007.9427876;15.465347290039062;-24.547304153442383;84.13450622558594
89;1673429008.0890794;47.130642699999996;7.24062;11.238000869750977;1673429008.130785;14.621798515319824;-23.294530868530273;84.37714385986328
90;1673429008.2955;47.1306431;7.2406197;11.628000259399414;1673429008.3399456;14.01604175567627;-23.042999267578125;84.17564392089844
91;1673429008.509452;47.1306434;7.240619499999999;12.023000717163086;1673429008.5477178;13.820266723632812;-21.25874900817871;84.4025650024414
92;1673429008.7149851;47.1306435;7.2406193;12.42300033569336;1673429008.7540474;13.895285606384277;-21.17618179321289;84.4489974975586
93;1673429008.9152813;47.1306436;7.2406193;12.824000358581543;1673429008.9789312;13.819199562072754;-22.573923110961914;84.21107482910156
94;1673429009.1557465;47.1306436;7.2406193;13.220000267028809;1673429009.195803;13.729974746704102;-21.903682708740234;84.29679107666016
95;1673429009.3428986;47.1306435;7.2406193;13.61400032043457;1673429009.3831177;14.065970420837402;-21.537830352783203;84.4778823852539
96;1673429009.535742;47.130643299999996;7.2406194;14.00200080871582;1673429009.5753043;14.221776008605957;-23.18173599243164;84.34355926513672
97;1673429009.736945;47.1306431;7.240619499999999;14.390000343322754;1673429009.7720804;14.38188648223877;-23.729814529418945;84.2650146484375
98;1673429009.9013183;47.1306429;7.2406196;14.780000686645508;1673429009.9389448;14.262024879455566;-22.397676467895508;84.4974594116211
99;1673429010.112391;47.1306428;7.2406197;15.171000480651855;1673429010.1548986;14.672150611877441;-23.707538604736328;84.34947967529297
100;1673429010.3163118;47.130642699999996;7.2406197;15.564001083374023;1673429010.356435;14.608672142028809;-24.285802841186523;84.29744720458984
101;1673429010.563684;47.130642699999996;7.240619799999999;15.955000877380371;1673429010.6158748;14.445123672485352;-22.765459060668945;84.44866943359375
102;1673429010.7893267;47.130642699999996;7.240619799999999;16.34600067138672;1673429010.8269825;14.539098739624023;-23.064050674438477;84.4559326171875
103;1673429010.955166;47.130642699999996;7.2406197;16.73200035095215;1673429010.9953368;14.437386512756348;-24.02534294128418;84.30296325683594
104;1673429011.1340275;47.130642699999996;7.2406197;17.124000549316406;1673429011.175174;14.394745826721191;-23.030012130737305;84.40206909179688
105;1673429011.3237793;47.130642699999996;7.2406197;17.520000457763672;1673429011.3701994;14.226736068725586;-22.59424591064453;84.42864990234375
106;1673429011.5108113;47.1306428;7.240619799999999;17.916000366210938;1673429011.552577;14.346927642822266;-23.73373794555664;84.2540283203125
107;1673429011.7102616;47.1306429;7.240619799999999;18.308000564575195;1673429011.750492;14.308836936950684;-22.95392417907715;84.37273406982422
108;1673429011.9030213;47.1306429;7.240619799999999;18.703001022338867;1673429011.9430685;14.357913970947266;-22.130054473876953;84.57185363769531
109;1673429012.1049213;47.1306429;7.240619799999999;19.091001510620117;1673429012.1503842;14.26508617401123;-23.673221588134766;84.30593872070312
110;1673429012.3135197;47.1306429;7.240619799999999;19.48200035095215;1673429012.3566353;14.313590049743652;-23.634288787841797;84.27864074707031
111;1673429012.5127668;47.1306429;7.240619799999999;19.876001358032227;1673429012.5563438;14.344158172607422;-22.11368751525879;84.4432144165039
112;1673429012.7162986;47.1306429;7.240619799999999;20.2710018157959;1673429012.7592833;14.431123733520508;-23.382768630981445;84.33932495117188
113;1673429012.907549;47.130643;7.240619799999999;20.667001724243164;1673429012.9471333;14.360294342041016;-23.6042537689209;84.33953857421875
114;1673429013.108864;47.130643;7.240619799999999;21.065000534057617;1673429013.1518083;14.28951358795166;-22.379100799560547;84.37187957763672
115;1673429013.3172812;47.130643;7.240619799999999;21.459001541137695;1673429013.3588016;14.335314750671387;-22.800569534301758;84.3915023803711
116;1673429013.5099297;47.1306429;7.240619799999999;21.84400177001953;1673429013.557474;14.314444541931152;-23.89187240600586;84.24443817138672
117;1673429013.7170057;47.1306429;7.240619799999999;22.23000144958496;1673429013.7585778;14.292470932006836;-22.829368591308594;84.36607360839844
118;1673429013.9179606;47.1306429;7.2406197;22.62200164794922;1673429013.9640193;14.423626899719238;-22.630794525146484;84.44144439697266
119;1673429014.11727;47.1306429;7.2406197;23.012001037597656;1673429014.1594193;14.378471374511719;-24.01274299621582;84.30528259277344
120;1673429014.3151548;47.130643;7.2406196;23.404001235961914;1673429014.3597543;14.214322090148926;-23.35664176940918;84.34036254882812
121;1673429014.5194013;47.1306429;7.2406196;23.801000595092773;1673429014.5621326;14.084856986999512;-22.340660095214844;84.48649597167969
122;1673429014.7238457;47.1306429;7.240619499999999;24.18800163269043;1673429014.7659235;14.168353080749512;-23.732463836669922;84.29485321044922
123;1673429014.9271843;47.1306429;7.240619499999999;24.576000213623047;1673429014.9711046;14.123519897460938;-23.598196029663086;84.29045104980469
124;1673429015.1545591;47.1306429;7.240619499999999;24.966001510620117;1673429015.1926806;14.026069641113281;-22.287513732910156;84.4942398071289
125;1673429015.3361712;47.1306429;7.2406194;25.358001708984375;1673429015.3787045;14.150480270385742;-23.2552433013916;84.4339370727539
126;1673429015.533645;47.130643;7.2406194;25.748001098632812;1673429015.5796616;14.16436767578125;-23.721435546875;84.35967254638672
127;1673429015.734759;47.130643;7.2406194;26.139001846313477;1673429015.7739618;14.140149116516113;-22.285350799560547;84.45207977294922
128;1673429015.9233928;47.130643;7.2406194;26.525001525878906;1673429015.9664233;14.168111801147461;-22.4587345123291;84.48075866699219
129;1673429016.124796;47.1306429;7.240619499999999;26.908000946044922;1673429016.1658316;14.233499526977539;-23.88987922668457;84.2840347290039
130;1673429016.319528;47.1306429;7.240619499999999;27.299001693725586;1673429016.3576097;14.125251770019531;-22.91391372680664;84.45984649658203
131;1673429016.5004313;47.1306429;7.240619499999999;27.690000534057617;1673429016.5411196;14.204133987426758;-22.622488021850586;84.4533920288086
132;1673429016.6932151;47.1306429;7.240619499999999;28.08100128173828;1673429016.7402337;14.189411163330078;-24.112863540649414;84.23974609375
133;1673429016.906878;47.1306429;7.240619499999999;28.47500228881836;1673429016.948411;14.042019844055176;-23.21246910095215;84.32301330566406
134;1673429017.1054327;47.1306429;7.240619499999999;28.86600112915039;1673429017.1533656;14.038154602050781;-22.343807220458984;84.48006439208984
135;1673429017.3381326;47.1306428;7.240619499999999;29.250001907348633;1673429017.3787968;14.14124584197998;-23.679338455200195;84.29236602783203
136;1673429017.5509584;47.1306428;7.240619499999999;29.63800048828125;1673429017.5900006;13.854743957519531;-23.932327270507812;84.22853088378906
137;1673429017.7450721;47.1306428;7.240619499999999;30.029001235961914;1673429017.7844758;14.133827209472656;-22.3629150390625;84.46810913085938
138;1673429017.9394858;47.130642699999996;7.240619499999999;30.421001434326172;1673429017.9795606;14.041433334350586;-23.364337921142578;84.38735961914062
139;1673429018.1315718;47.130642699999996;7.240619499999999;30.81300163269043;1673429018.1739678;14.100737571716309;-24.00376319885254;84.40367889404297
140;1673429018.3215466;47.130642699999996;7.240619499999999;31.204002380371094;1673429018.363271;14.040095329284668;-22.708003997802734;84.4818344116211
141;1673429018.5212505;47.130642699999996;7.240619499999999;31.593002319335938;1673429018.5657616;14.00404167175293;-22.650131225585938;84.44651794433594
142;1673429018.7198846;47.130642699999996;7.240619499999999;31.977001190185547;1673429018.7718518;14.095574378967285;-24.264799118041992;84.20448303222656
143;1673429018.9427664;47.130642699999996;7.2406196;32.36800003051758;1673429018.9749942;13.843829154968262;-23.442270278930664;84.39518737792969
144;1673429019.1403537;47.130642699999996;7.2406196;32.762001037597656;1673429019.1980882;13.989209175109863;-22.53546905517578;84.50514221191406
145;1673429019.34644;47.130642699999996;7.2406196;33.15700149536133;1673429019.3860316;13.937370300292969;-23.964664459228516;84.24443054199219
146;1673429019.5716534;47.1306428;7.2406196;33.553001403808594;1673429019.6264708;13.95790958404541;-23.76003074645996;84.24139404296875
147;1673429019.7516637;47.1306428;7.2406196;33.95000076293945;1673429019.7868001;13.988146781921387;-22.25823211669922;84.47689819335938
148;1673429019.9215238;47.1306428;7.2406196;34.33500289916992;1673429019.9586508;14.112276077270508;-23.27587890625;84.39434814453125
149;1673429020.1214802;47.1306428;7.2406197;34.729000091552734;1673429020.1634924;13.969584465026855;-24.092676162719727;84.20814514160156
150;1673429020.3192906;47.1306428;7.2406197;35.124000549316406;1673429020.3588793;13.925076484680176;-22.553688049316406;84.47711181640625
151;1673429020.5153098;47.1306428;7.2406197;35.518001556396484;1673429020.5584464;14.120039939880371;-23.002796173095703;84.4475326538086
152;1673429020.7174268;47.1306428;7.2406197;35.91400146484375;1673429020.7555258;13.976394653320312;-24.093952178955078;84.25711059570312
153;1673429020.9125085;47.1306428;7.2406197;36.3120002746582;1673429020.9713314;13.90679931640625;-23.047136306762695;84.39917755126953
154;1673429021.1370354;47.1306428;7.2406197;36.70800018310547;1673429021.175116;13.921835899353027;-22.743999481201172;84.5183334350586
155;1673429021.35633;47.130642699999996;7.240619799999999;37.092002868652344;1673429021.426895;13.99893856048584;-24.231855392456055;84.33065032958984
156;1673429021.575974;47.130642699999996;7.240619799999999;37.48400115966797;1673429021.64258;13.910985946655273;-23.634870529174805;84.3808364868164
157;1673429021.7963543;47.130642699999996;7.240619799999999;37.87900161743164;1673429021.8305314;13.872987747192383;-22.51481819152832;84.54949951171875
158;1673429021.9963467;47.130642699999996;7.2406198999999996;38.27300262451172;1673429022.0591795;14.063912391662598;-23.9576473236084;84.32799530029297
159;1673429022.2415802;47.1306428;7.2406198999999996;38.67000198364258;1673429022.269208;13.853031158447266;-24.130901336669922;84.22132110595703
160;1673429022.4070628;47.1306428;7.2406198999999996;39.06500244140625;1673429022.439818;13.950778007507324;-22.61473846435547;84.46075439453125
161;1673429022.6068542;47.1306428;7.2406198999999996;39.448001861572266;1673429022.6382139;13.872049331665039;-22.929767608642578;84.4516372680664
162;1673429022.772997;47.1306429;7.240619799999999;39.83700180053711;1673429022.811106;13.87998104095459;-24.212932586669922;84.30264282226562
163;1673429022.9668684;47.1306428;7.2406198999999996;40.23100280761719;1673429023.0140812;13.865335464477539;-23.202314376831055;84.40459442138672
164;1673429023.1620748;47.1306428;7.2406198999999996;40.624000549316406;1673429023.1981852;13.763895988464355;-22.515785217285156;84.46102142333984
165;1673429023.3855605;47.1306428;7.2406198999999996;41.01900100708008;1673429023.4294925;14.02064323425293;-23.89225959777832;84.3469467163086
166;1673429023.5675826;47.1306428;7.2406198999999996;41.415000915527344;1673429023.6066637;13.878362655639648;-23.8684139251709;84.29044342041016
167;1673429023.7844105;47.1306428;7.2406198999999996;41.810001373291016;1673429023.814804;13.926446914672852;-22.662734985351562;84.43621826171875
168;1673429023.9408927;47.130642699999996;7.2406198999999996;42.19200134277344;1673429024.010518;13.844605445861816;-23.519393920898438;84.3512191772461
169;1673429024.160221;47.130642699999996;7.240619799999999;42.58100128173828;1673429024.2113314;13.666183471679688;-24.361902236938477;84.29442596435547
170;1673429024.3674717;47.130642699999996;7.2406197;42.97200393676758;1673429024.4467084;13.618300437927246;-23.095773696899414;84.38972473144531
171;1673429024.6171854;47.130642699999996;7.2406197;43.367000579833984;1673429024.6499345;13.665803909301758;-22.94362449645996;84.4705810546875
172;1673429024.7733595;47.130642699999996;7.2406197;43.7660026550293;1673429024.8094668;13.760114669799805;-24.564088821411133;84.2818832397461
173;1673429024.9390848;47.130642699999996;7.2406197;44.1670036315918;1673429024.974232;13.500853538513184;-23.54239845275879;84.38873291015625
174;1673429025.110018;47.130642699999996;7.2406197;44.553001403808594;1673429025.1510634;13.76597785949707;-22.752309799194336;84.45832061767578
175;1673429025.2955387;47.130642699999996;7.2406197;44.945003509521484;1673429025.3397267;13.704299926757812;-24.083877563476562;84.28977966308594
176;1673429025.5044124;47.130642699999996;7.2406197;45.34100341796875;1673429025.5471325;13.733238220214844;-24.13410186767578;84.28514862060547
177;1673429025.7256484;47.130642699999996;7.2406197;45.73800277709961;1673429025.7687721;13.573013305664062;-22.921306610107422;84.44515228271484
178;1673429025.9226284;47.130642699999996;7.2406197;46.137001037597656;1673429025.9648716;13.66279411315918;-23.31884002685547;84.49188232421875
179;1673429026.1087096;47.130642699999996;7.2406196;46.53300094604492;1673429026.1507154;13.533437728881836;-24.410598754882812;84.27479553222656
180;1673429026.3006604;47.130642699999996;7.2406196;46.928001403808594;1673429026.3422759;13.45527172088623;-23.149940490722656;84.43946075439453
181;1673429026.501278;47.130642699999996;7.2406196;47.31300354003906;1673429026.5424547;13.368029594421387;-23.126779556274414;84.48318481445312
182;1673429026.69823;47.130642699999996;7.2406196;47.70500183105469;1673429026.7466042;13.457083702087402;-24.44342613220215;84.2413558959961
183;1673429026.9153242;47.130642699999996;7.2406196;48.099002838134766;1673429026.9568622;13.210338592529297;-23.547306060791016;84.35112762451172
184;1673429027.1174777;47.130642599999995;7.2406196;48.46000289916992;1673429027.1629605;13.53728199005127;-23.692888259887695;84.33699035644531
185;1673429027.3724036;47.1306425;7.240619799999999;48.77000045776367;1673429027.4096222;13.497204780578613;-24.72715950012207;84.20201110839844
186;1673429027.5486982;47.1306424;7.24062;49.03200149536133;1673429027.5927336;13.632177352905273;-24.670272827148438;84.2250747680664
187;1673429027.7413197;47.130642099999996;7.2406201999999995;49.23800277709961;1673429027.7824354;14.096833229064941;-23.886159896850586;84.45968627929688
188;1673429027.9368951;47.1306419;7.2406204999999995;49.415000915527344;1673429027.9775212;27.98028564453125;-11.705318450927734;86.88165283203125
189;1673429028.1217246;47.130641;7.240619799999999;49.58000183105469;1673429028.1632783;42.29964828491211;11.534098625183105;98.94589233398438
190;1673429028.3228571;47.130638499999996;7.240616999999999;49.72900390625;1673429028.3717926;47.989253997802734;31.307147979736328;109.79761505126953
191;1673429028.5231204;47.130633499999995;7.2406106999999995;49.85400390625;1673429028.56672;47.24091339111328;42.117340087890625;114.64778137207031
192;1673429028.7232733;47.130625599999995;7.240601099999999;49.919002532958984;1673429028.7613897;34.0885009765625;40.85991287231445;119.21206665039062
193;1673429028.9078205;47.1306156;7.240589399999999;49.94200134277344;1673429028.949833;19.524831771850586;41.97456741333008;133.99960327148438
194;1673429029.1027954;47.130603699999995;7.240576;49.983001708984375;1673429029.1449616;9.327658653259277;52.24443054199219;148.3511962890625
195;1673429029.2958627;47.1305902;7.2405605;50.00800323486328;1673429029.338686;-10.899378776550293;53.0920295715332;161.77154541015625
196;1673429029.494205;47.130575199999996;7.2405433;50.00200271606445;1673429029.5402474;-24.732585906982422;48.52928924560547;172.46229553222656
197;1673429029.7202072;47.130558799999996;7.2405247;49.98200225830078;1673429029.7599266;-29.712116241455078;41.19643783569336;-178.49581909179688
198;1673429029.9150894;47.1305413;7.2405053;49.95100402832031;1673429029.960061;-34.192848205566406;36.49428939819336;-171.53628540039062
199;1673429030.119029;47.1305228;7.240485199999999;49.91800308227539;1673429030.1626565;-40.76300811767578;33.945858001708984;-162.82530212402344
200;1673429030.320317;47.1305037;7.2404645;49.887001037597656;1673429030.3608947;-44.72575759887695;30.94498634338379;-150.578125
201;1673429030.525584;47.130483999999996;7.2404426;49.84600067138672;1673429030.5720036;-45.39082336425781;25.569908142089844;-140.36065673828125
202;1673429030.7334445;47.1304642;7.2404198;49.78700256347656;1673429030.77471;-41.981197357177734;20.07600975036621;-134.601318359375
203;1673429030.91823;47.130444399999995;7.2403965999999995;49.733001708984375;1673429030.963674;-41.51998519897461;16.213764190673828;-128.37991333007812
204;1673429031.1255724;47.1304249;7.2403732;49.69300079345703;1673429031.171816;-41.355918884277344;12.415376663208008;-125.99842071533203
205;1673429031.3279655;47.1304054;7.2403498;49.66100311279297;1673429031.3681643;-38.91041946411133;14.43980598449707;-129.1474609375
206;1673429031.520895;47.130386099999996;7.2403267;49.6670036315918;1673429031.5760884;-42.60787582397461;15.740019798278809;-122.54220581054688
207;1673429031.7378528;47.1303675;7.2403035;49.68700408935547;1673429031.7786558;-46.12063980102539;11.677458763122559;-112.27931213378906
208;1673429031.9328375;47.1303493;7.2402799;49.72200393676758;1673429031.9787648;-46.54563522338867;9.428732872009277;-103.7432861328125
209;1673429032.1426227;47.130331899999995;7.240256;49.75800323486328;1673429032.1805208;-42.48508071899414;8.613914489746094;-94.40619659423828
210;1673429032.3628368;47.130315499999995;7.2402321;49.78300094604492;1673429032.403401;-38.21822738647461;12.788763999938965;-85.09585571289062
211;1673429032.5567105;47.1303007;7.2402089;49.803001403808594;1673429032.5912395;-34.17649459838867;21.124608993530273;-76.83446502685547
212;1673429032.7475078;47.1302881;7.240187499999999;49.83000183105469;1673429032.7882159;-26.28650665283203;28.165246963500977;-63.804100036621094
213;1673429032.9302511;47.1302782;7.2401693;49.83700180053711;1673429032.9701998;-20.8780574798584;27.29993438720703;-56.301422119140625
214;1673429033.1161299;47.1302701;7.2401542999999995;49.83100128173828;1673429033.1583068;-9.657519340515137;24.70270538330078;-67.59066772460938
215;1673429033.309184;47.130263299999996;7.2401427;49.86000061035156;1673429033.3502963;0.9912182092666626;30.94489097595215;-88.74510955810547
216;1673429033.507495;47.1302581;7.240134599999999;49.95500183105469;1673429033.553555;8.451249122619629;41.86112594604492;-102.58845520019531
217;1673429033.7372503;47.130254799999996;7.2401294;50.09700393676758;1673429033.7962213;-2.768832206726074;43.06153106689453;-114.89966583251953
218;1673429033.9617734;47.130252899999995;7.240125;50.22300338745117;1673429034.0207636;-38.56021499633789;33.39688491821289;-127.42322540283203
219;1673429034.1895714;47.1302509;7.240119;50.29900360107422;1673429034.2348974;-58.579498291015625;15.9522066116333;-132.91844177246094
220;1673429034.4092557;47.1302461;7.2401097;50.31500244140625;1673429034.4473255;-53.89910888671875;9.665813446044922;-139.33518981933594
221;1673429034.5822935;47.1302385;7.2400987;50.301002502441406;1673429034.6215198;-48.12742614746094;8.751705169677734;-144.17599487304688
222;1673429034.76004;47.1302282;7.240086799999999;50.281002044677734;1673429034.8000488;-49.3992805480957;11.642478942871094;-138.81333923339844
223;1673429034.9446626;47.1302154;7.240073799999999;50.28200149536133;1673429034.986775;-51.818607330322266;12.189286231994629;-134.07373046875
224;1673429035.1287026;47.1302008;7.2400591;50.30400085449219;1673429035.173292;-53.98301696777344;15.575143814086914;-132.00540161132812
225;1673429035.3175752;47.130184799999995;7.2400423;50.327003479003906;1673429035.3577354;-55.807838439941406;17.69198226928711;-131.63267517089844
226;1673429035.5085223;47.1301679;7.2400234;50.32400131225586;1673429035.5495172;-52.28142166137695;17.792137145996094;-131.61085510253906
227;1673429035.6976037;47.1301503;7.2400028999999995;50.316001892089844;1673429035.7405505;-51.1864128112793;20.866683959960938;-126.65220642089844
228;1673429035.8951309;47.1301328;7.2399809;50.29600143432617;1673429035.938118;-51.603668212890625;14.83939266204834;-115.32880401611328
229;1673429036.1130934;47.130115499999995;7.2399577;50.27000427246094;1673429036.1624367;-49.71724319458008;7.7899394035339355;-106.39451599121094
230;1673429036.3639424;47.1300987;7.2399336;50.24100112915039;1673429036.407113;-47.95283126831055;0.8409742712974548;-97.89281463623047
231;1673429036.5717185;47.1300822;7.239909099999999;50.20600128173828;1673429036.6231701;-45.97435760498047;-3.601045846939087;-89.6406478881836
232;1673429036.777712;47.1300661;7.239884399999999;50.16400146484375;1673429036.818717;-41.09172821044922;-8.476107597351074;-80.13580322265625
233;1673429037.0064785;47.1300506;7.239859999999999;50.1150016784668;1673429037.0444598;-37.59922790527344;-13.140565872192383;-71.31661987304688
234;1673429037.1758208;47.1300354;7.2398359;50.0890007019043;1673429037.2148602;-43.31903839111328;-24.590660095214844;-71.58296966552734
235;1673429037.3569431;47.130019999999995;7.2398115;50.09100341796875;1673429037.4079297;-46.081214904785156;-23.98407554626465;-89.5649642944336
236;1673429037.5599215;47.130003599999995;7.2397871;50.09400177001953;1673429037.6009147;-46.75029373168945;-21.47951316833496;-101.03939056396484
237;1673429037.746028;47.1299859;7.239763399999999;50.077003479003906;1673429037.787558;-43.94636535644531;-14.689528465270996;-112.31588745117188
238;1673429037.9453247;47.129967;7.239740599999999;50.05500411987305;1673429037.9987803;-42.0157585144043;-5.805530071258545;-120.3787612915039
239;1673429038.1633554;47.129947099999995;7.239719;50.035003662109375;1673429038.1975753;-44.05565643310547;0.8499500751495361;-127.4611587524414
240;1673429038.3508294;47.129926499999996;7.2396978999999995;50.02700424194336;1673429038.399411;-46.70832443237305;14.671355247497559;-133.61471557617188
241;1673429038.545;47.1299055;7.239676599999999;50.02900314331055;1673429038.5855558;-46.83033752441406;15.97719669342041;-118.48872375488281
242;1673429038.7440047;47.1298852;7.2396547;50.01900100708008;1673429038.789056;-44.84357833862305;13.852606773376465;-105.43537139892578
243;1673429038.9653828;47.129866;7.2396324;50.00200271606445;1673429039.0044086;-40.85483932495117;10.949996948242188;-94.742431640625
244;1673429039.1521752;47.1298483;7.2396101999999996;49.983001708984375;1673429039.1949267;-40.08792495727539;10.28742790222168;-86.27603149414062
245;1673429039.350144;47.1298323;7.2395884;49.95500183105469;1673429039.3908887;-39.763427734375;13.531545639038086;-78.36094665527344
246;1673429039.5397391;47.1298183;7.2395673;49.93400192260742;1673429039.5803032;-39.538455963134766;12.14003849029541;-67.7283935546875
247;1673429039.7363694;47.1298064;7.2395473;49.927001953125;1673429039.775173;-43.0648078918457;16.476818084716797;-61.20903015136719
248;1673429039.9253774;47.129796899999995;7.2395286;49.93100357055664;1673429039.9678879;-42.282325744628906;8.995535850524902;-48.70392990112305
249;1673429040.1270108;47.129789699999996;7.239511299999999;49.94200134277344;1673429040.1714933;-45.94783020019531;-0.7061501741409302;-41.2627067565918
250;1673429040.3321252;47.1297846;7.2394948999999995;49.957000732421875;1673429040.395211;-47.2890739440918;-2.601716995239258;-41.4659309387207
251;1673429040.5679946;47.1297812;7.2394788;49.99500274658203;1673429040.605084;-49.91558837890625;-3.6385180950164795;-48.51667785644531
252;1673429040.7520738;47.129779299999996;7.239462199999999;50.05000305175781;1673429040.7966092;-54.77477264404297;5.006465435028076;-61.69313430786133
253;1673429040.9530153;47.129778599999995;7.2394446;50.108001708984375;1673429040.9912796;-53.150569915771484;11.846172332763672;-72.1689682006836
254;1673429041.1361177;47.1297788;7.2394263;50.14400100708008;1673429041.1837263;-33.91105651855469;9.175450325012207;-80.95252990722656
255;1673429041.3725965;47.129778699999996;7.239408399999999;50.15200424194336;1673429041.4137285;-3.9141042232513428;-16.64971923828125;-92.07731628417969
256;1673429041.5620983;47.1297771;7.239393;50.10700225830078;1673429041.6036232;-1.534593939781189;-32.22062301635742;-103.34812927246094
257;1673429041.7515392;47.1297733;7.2393811999999995;49.965003967285156;1673429041.79503;-5.152635097503662;-26.26375389099121;-110.98178100585938
258;1673429041.9521687;47.129767;7.239373199999999;49.82500076293945;1673429041.9937215;-9.382146835327148;-22.406858444213867;-119.08438110351562
259;1673429042.148507;47.129757999999995;7.2393687;49.746002197265625;1673429042.1868703;-19.406497955322266;-21.979883193969727;-127.58516693115234
260;1673429042.3662634;47.1297469;7.2393665;49.70600128173828;1673429042.410398;-30.920753479003906;-20.805959701538086;-138.72190856933594
261;1673429042.556825;47.1297332;7.2393662999999995;49.69700241088867;1673429042.5993726;-34.89590072631836;-13.265203475952148;-147.4548797607422
262;1673429042.7513502;47.1297175;7.2393673;49.68600082397461;1673429042.7939517;-26.247482299804688;-7.263321876525879;-145.99388122558594
263;1673429042.9447067;47.129700199999995;7.239368799999999;49.71800231933594;1673429042.9862628;-41.60791015625;-7.4865288734436035;-139.05160522460938
264;1673429043.1379156;47.1296811;7.239369699999999;49.797000885009766;1673429043.174808;-59.03203201293945;-5.181173801422119;-135.04495239257812
265;1673429043.3346915;47.1296596;7.2393681;49.87800216674805;1673429043.381369;-58.09689712524414;-4.676338195800781;-127.51496887207031
266;1673429043.563253;47.129636399999995;7.239363699999999;49.94200134277344;1673429043.6031485;-53.81396484375;-8.022340774536133;-117.4402847290039
267;1673429043.7699084;47.1296123;7.2393567999999995;49.98800277709961;1673429043.8110147;-52.32788848876953;-12.914887428283691;-107.08990478515625
268;1673429043.9838285;47.1295875;7.2393474;50.01900100708008;1673429044.024824;-51.53114318847656;-17.881908416748047;-96.99928283691406
269;1673429044.1684735;47.1295627;7.2393355999999995;50.03200149536133;1673429044.2055624;-47.6206169128418;-16.713590621948242;-88.20779418945312
270;1673429044.3612945;47.1295383;7.239321899999999;50.0410041809082;1673429044.3995187;-46.9782829284668;-12.430081367492676;-78.84146881103516
271;1673429044.565674;47.1295151;7.239306399999999;50.03700256347656;1673429044.6081774;-47.98000717163086;-3.8018205165863037;-69.31189727783203
272;1673429044.8167176;47.1294944;7.2392897;50.02100372314453;1673429044.8471293;-45.604705810546875;7.139980792999268;-58.09035873413086
273;1673429045.0183277;47.1294766;7.2392727;49.99500274658203;1673429045.0600717;-43.46843719482422;8.23021125793457;-48.479862213134766
274;1673429045.1878157;47.1294624;7.2392568;49.97500228881836;1673429045.2250183;-41.59305191040039;15.033670425415039;-43.61894226074219
275;1673429045.3717027;47.129451499999995;7.239242699999999;49.97100067138672;1673429045.4146848;-43.410179138183594;13.368642807006836;-43.70296859741211
276;1673429045.586634;47.1294434;7.2392303;49.9630012512207;1673429045.6281788;-41.396568298339844;16.316118240356445;-45.20912170410156
277;1673429045.789195;47.1294378;7.2392195;49.958003997802734;1673429045.8321693;-37.08754348754883;13.181231498718262;-43.942989349365234
278;1673429045.9931781;47.1294342;7.2392102;49.97600173950195;1673429046.027387;-43.21918869018555;11.95720100402832;-43.58421325683594
279;1673429046.1715279;47.1294326;7.239201899999999;50.01400375366211;1673429046.211808;-50.91911697387695;13.743371963500977;-44.101322174072266
280;1673429046.3639276;47.1294332;7.2391942;50.06200408935547;1673429046.40722;-52.11051559448242;12.486257553100586;-41.863033294677734
281;1673429046.5678089;47.1294359;7.239186699999999;50.11300277709961;1673429046.6136532;-54.45819854736328;8.83360481262207;-40.78542709350586
282;1673429046.7629063;47.1294404;7.239179099999999;50.156002044677734;1673429046.8011222;-57.74100112915039;6.392515182495117;-41.748329162597656
283;1673429046.9572303;47.1294466;7.239170799999999;50.18400192260742;1673429046.9955246;-54.790061950683594;4.157542705535889;-42.32939147949219
284;1673429047.156203;47.129453899999994;7.2391616999999995;50.20600128173828;1673429047.204535;-51.699893951416016;5.039280891418457;-43.4501838684082
285;1673429047.367562;47.1294617;7.239151799999999;50.21800231933594;1673429047.4154005;-46.56182861328125;5.1651225090026855;-44.851566314697266
286;1673429047.5677953;47.12947;7.2391418;50.21800231933594;1673429047.6241806;-38.10315704345703;-0.3727710247039795;-45.80598068237305
287;1673429047.7738268;47.1294778;7.2391318;50.20900344848633;1673429047.8148198;-32.19267272949219;-4.8089470863342285;-46.625606536865234
288;1673429047.9761517;47.1294848;7.2391217999999995;50.20900344848633;1673429048.0132294;-43.59623336791992;-2.701739549636841;-46.63212203979492
289;1673429048.190131;47.1294912;7.2391114;50.207000732421875;1673429048.2312355;-40.39540100097656;-5.892357349395752;-46.78141784667969
290;1673429048.394326;47.129497;7.2391005999999996;50.20100402832031;1673429048.447429;-40.286048889160156;-8.716033935546875;-46.54985809326172
291;1673429048.597601;47.1295019;7.239089099999999;50.19700241088867;1673429048.6386802;-34.66993713378906;-14.286222457885742;-52.292842864990234
292;1673429048.815118;47.129505599999995;7.239077099999999;50.18700408935547;1673429048.8496974;-26.31703758239746;-24.955886840820312;-63.96897506713867
293;1673429049.0062146;47.129507;7.239065;50.17500305175781;1673429049.0426176;-22.633636474609375;-34.660518646240234;-74.54469299316406
294;1673429049.1977377;47.1295052;7.239053299999999;50.15900421142578;1673429049.2438433;-23.47984504699707;-29.268178939819336;-84.73126220703125
295;1673429049.383654;47.1295004;7.2390422999999995;50.13100051879883;1673429049.4256775;-33.18327331542969;-38.62420654296875;-91.42291259765625
296;1673429049.5769637;47.1294922;7.2390317;50.06900405883789;1673429049.620232;-36.03675842285156;-23.831235885620117;-104.6424331665039
297;1673429049.7670426;47.1294812;7.2390216;49.99700164794922;1673429049.8170624;-34.1702995300293;-18.35887908935547;-110.54150390625
298;1673429049.9607527;47.129467899999995;7.2390121;49.95100402832031;1673429050.0003417;-38.0965461730957;-9.971184730529785;-119.3198471069336
299;1673429050.153326;47.1294529;7.2390023999999995;49.93600082397461;1673429050.2049165;-46.64545440673828;3.622103214263916;-130.05679321289062
300;1673429050.361591;47.1294362;7.238991899999999;49.94700241088867;1673429050.4031594;-50.6834831237793;13.056735038757324;-138.2130126953125
301;1673429050.57305;47.129418;7.2389797;49.98100280761719;1673429050.6312854;-53.36956787109375;23.958654403686523;-141.20468139648438
302;1673429050.7906575;47.129399;7.2389648;50.0260009765625;1673429050.833878;-54.35411834716797;23.84737777709961;-134.30325317382812
303;1673429050.987149;47.1293797;7.2389472999999995;50.05000305175781;1673429051.0400138;-51.66554641723633;21.559619903564453;-129.03097534179688
304;1673429051.1884928;47.1293606;7.2389278;50.05600357055664;1673429051.2275233;-51.07906723022461;17.69575309753418;-119.47978210449219
305;1673429051.3897135;47.129342;7.2389066;50.048004150390625;1673429051.4307563;-48.18827438354492;10.121899604797363;-108.78939819335938
306;1673429051.568935;47.129323899999996;7.2388843;50.02700424194336;1673429051.6095226;-48.54060745239258;5.3790130615234375;-100.9015121459961
307;1673429051.7466967;47.1293064;7.238861399999999;49.99800109863281;1673429051.7853107;-45.775386810302734;0.6086954474449158;-91.67230224609375
308;1673429051.9353876;47.129289799999995;7.238837999999999;49.97300338745117;1673429051.9814143;-43.42887496948242;-3.1467955112457275;-82.37000274658203
309;1673429052.1549375;47.1292739;7.2388145999999995;49.94300079345703;1673429052.1960611;-42.11433029174805;-5.076662063598633;-73.50374603271484
310;1673429052.3775766;47.1292591;7.238791399999999;49.90700149536133;1673429052.4378855;-39.18910217285156;-6.816982269287109;-63.37291717529297
311;1673429052.5821707;47.129245499999996;7.2387688;49.88200378417969;1673429052.62122;-39.088191986083984;-13.559357643127441;-53.723575592041016
312;1673429052.7692626;47.129233;7.238746399999999;49.87800216674805;1673429052.8069263;-42.56922912597656;-16.433467864990234;-45.74846649169922
313;1673429052.9434996;47.129221799999996;7.2387241;49.90700149536133;1673429052.982118;-35.24455261230469;-4.418675899505615;-42.15864562988281
314;1673429053.1281817;47.129211999999995;7.2387032;49.94900131225586;1673429053.1718068;-21.304956436157227;12.68459415435791;-44.59114074707031
315;1673429053.327733;47.129203499999996;7.2386852;49.987003326416016;1673429053.3678305;0.9140499234199524;14.075218200683594;-57.89567184448242
316;1673429053.5211978;47.1291954;7.238671;50.000003814697266;1673429053.5632825;9.89784049987793;15.172698974609375;-76.28438568115234
317;1673429053.7950191;47.1291875;7.238661199999999;49.999000549316406;1673429053.839219;-2.924013614654541;11.627178192138672;-83.6495361328125
318;1673429053.9843879;47.1291799;7.238654299999999;50.02400207519531;1673429054.0273316;-16.537212371826172;20.840534210205078;-94.29277801513672
319;1673429054.176608;47.129172999999994;7.2386484;50.064002990722656;1673429054.2191312;-35.817813873291016;28.113611221313477;-104.12945556640625
320;1673429054.3596106;47.1291667;7.2386418;50.10000228881836;1673429054.395171;-33.613948822021484;32.478755950927734;-111.32804107666016
321;1673429054.5547156;47.1291612;7.2386339;50.13500213623047;1673429054.598222;-28.705097198486328;36.35801696777344;-119.2425308227539
322;1673429054.758775;47.1291562;7.2386249;50.15800094604492;1673429054.800543;-21.719573974609375;37.055519104003906;-115.35992431640625
323;1673429054.9608283;47.1291521;7.2386154;50.172000885009766;1673429055.0005696;-14.156810760498047;34.22036361694336;-109.30608367919922
324;1673429055.1611338;47.1291489;7.2386061999999995;50.169002532958984;1673429055.2026157;-7.722938060760498;30.906673431396484;-107.92671203613281
325;1673429055.3625107;47.1291465;7.238598;50.163002014160156;1673429055.4055421;-9.456440925598145;30.20308494567871;-106.69721221923828
326;1673429055.560726;47.1291447;7.2385908;50.163002014160156;1673429055.6009016;-8.7555570602417;29.876741409301758;-105.19745635986328
327;1673429055.7577965;47.1291435;7.2385844;50.176002502441406;1673429055.8112087;-24.54471206665039;16.43846893310547;-112.42121887207031
328;1673429055.96611;47.1291418;7.2385777;50.27100372314453;1673429056.0089612;-40.62980651855469;9.089523315429688;-126.16255187988281
329;1673429056.1780248;47.129138;7.2385696;50.43600082397461;1673429056.2219791;-32.84587860107422;7.623931884765625;-137.704345703125
330;1673429056.376762;47.129131699999995;7.2385607;50.65800094604492;1673429056.4190679;-21.956632614135742;9.31962776184082;-142.33921813964844
331;1673429056.5793903;47.129124;7.2385524;50.957000732421875;1673429056.6166043;-24.834583282470703;20.55055809020996;-140.642333984375
332;1673429056.775564;47.129115399999996;7.2385435;51.32600402832031;1673429056.8154836;-32.15140914916992;35.421470642089844;-137.68141174316406
333;1673429056.9789;47.1291066;7.2385325;51.7130012512207;1673429057.0189567;-31.182619094848633;32.72455978393555;-136.32772827148438
334;1673429057.166074;47.1290978;7.2385198;52.10100173950195;1673429057.204708;-29.435081481933594;30.913793563842773;-135.756103515625
335;1673429057.356616;47.1290889;7.238505699999999;52.49100112915039;1673429057.3992405;-27.301315307617188;28.747642517089844;-135.79266357421875
336;1673429057.598755;47.129079999999995;7.2384908;52.87700271606445;1673429057.6350217;-25.55948257446289;26.482614517211914;-136.17526245117188
337;1673429057.7883344;47.129070899999995;7.2384755;53.26400375366211;1673429057.8274171;-23.670978546142578;24.700986862182617;-136.42974853515625
338;1673429057.9924664;47.1290616;7.238460099999999;53.6510009765625;1673429058.0455356;-22.19472312927246;23.26832389831543;-136.6593017578125
339;1673429058.1982074;47.129052099999996;7.238444899999999;54.0420036315918;1673429058.2374036;-21.0335636138916;22.50780487060547;-136.84295654296875
340;1673429058.3963192;47.1290426;7.238429999999999;54.432003021240234;1673429058.4452126;-20.420137405395508;22.369287490844727;-136.9569091796875
341;1673429058.582735;47.1290329;7.2384156;54.820003509521484;1673429058.6531937;-20.0599422454834;22.553447723388672;-137.0106201171875
342;1673429058.7873504;47.1290231;7.2384015999999995;55.21000289916992;1673429058.8271456;-20.2944278717041;23.204593658447266;-137.0527801513672
343;1673429058.9940536;47.1290133;7.238388;55.603004455566406;1673429059.0511932;-20.953571319580078;23.825801849365234;-137.034423828125
344;1673429059.2240496;47.129003499999996;7.238374599999999;56.00100326538086;1673429059.272025;-21.163908004760742;24.33516502380371;-136.9464111328125
345;1673429059.4084604;47.1289936;7.2383612;56.39600372314453;1673429059.451537;-21.628997802734375;24.67673683166504;-136.94944763183594
346;1673429059.6039224;47.1289838;7.2383478;56.7910041809082;1673429059.642091;-22.103370666503906;24.881675720214844;-136.89027404785156
347;1673429059.7843552;47.128974;7.238334399999999;57.185001373291016;1673429059.8280752;-22.158763885498047;24.842960357666016;-136.81192016601562
348;1673429059.9845724;47.1289641;7.238321;57.58000183105469;1673429060.0275786;-22.434213638305664;24.81581687927246;-136.79110717773438
349;1673429060.173593;47.1289543;7.2383074999999995;57.97300338745117;1673429060.2190478;-22.503278732299805;24.817493438720703;-136.78347778320312
350;1673429060.3805451;47.128944399999995;7.238294;58.36900329589844;1673429060.453987;-22.71873664855957;24.831872940063477;-136.8020782470703
351;1673429060.6272225;47.1289346;7.2382804;58.76400375366211;1673429060.6654208;-22.685726165771484;24.767940521240234;-136.80418395996094
352;1673429060.8204958;47.1289248;7.2382668;59.160003662109375;1673429060.8559413;-22.716428756713867;24.809598922729492;-136.80564880371094
353;1673429061.0435905;47.128915;7.2382531;59.56300354003906;1673429061.0759506;-22.49195671081543;24.894315719604492;-136.7891082763672
354;1673429061.260551;47.1289051;7.238239399999999;59.96400451660156;1673429061.2911036;-22.563655853271484;24.736595153808594;-136.82479858398438
355;1673429061.4322717;47.128895199999995;7.2382256;60.36000442504883;1673429061.4654274;-22.21816062927246;24.789230346679688;-136.8480987548828
356;1673429061.6127775;47.128885399999994;7.2382119;60.75700378417969;1673429061.650838;-22.299793243408203;24.91887664794922;-136.83714294433594
357;1673429061.80395;47.1288755;7.238198199999999;61.15300369262695;1673429061.8421533;-22.295774459838867;24.940061569213867;-136.87538146972656
358;1673429062.0324242;47.1288656;7.2381845;61.551002502441406;1673429062.0686548;-22.24268341064453;24.84052085876465;-136.8479461669922
359;1673429062.21138;47.128855699999995;7.2381706999999995;61.94700241088867;1673429062.2527242;-22.15503692626953;24.945762634277344;-136.8695526123047
360;1673429062.4566214;47.1288458;7.238156999999999;62.345001220703125;1673429062.4850812;-22.200042724609375;24.974695205688477;-136.88636779785156
361;1673429062.6138117;47.1288359;7.2381433;62.74200439453125;1673429062.6547909;-22.047395706176758;24.854902267456055;-136.8209991455078
362;1673429062.8056164;47.128826;7.2381296;63.1410026550293;1673429062.8438604;-22.3051815032959;24.82766342163086;-136.89112854003906
363;1673429062.9828372;47.128816199999996;7.238116;63.54000473022461;1673429063.024534;-22.308809280395508;24.903718948364258;-136.88140869140625
364;1673429063.1716194;47.1288063;7.2381022999999995;63.93700408935547;1673429063.2138;-22.39579200744629;24.812082290649414;-136.87493896484375
365;1673429063.3599164;47.1287965;7.238088599999999;64.33300018310547;1673429063.3985965;-22.3127384185791;24.86691665649414;-136.8756103515625
366;1673429063.5545652;47.1287866;7.2380749;64.72900390625;1673429063.599647;-22.525482177734375;24.73640251159668;-136.868408203125
367;1673429063.7710152;47.128776699999996;7.2380612;65.1259994506836;1673429063.8166287;-22.559783935546875;24.868179321289062;-136.87469482421875
368;1673429063.9666777;47.1287668;7.2380476;65.52100372314453;1673429064.0195808;-22.344188690185547;24.84684944152832;-136.83969116210938
369;1673429064.161971;47.1287569;7.2380339;65.91699981689453;1673429064.2074163;-22.458297729492188;24.894140243530273;-136.86773681640625
370;1673429064.3774993;47.128747;7.238020199999999;66.31300354003906;1673429064.4137516;-22.374467849731445;24.868175506591797;-136.8297119140625
371;1673429064.5599396;47.128737099999995;7.2380065;66.70500183105469;1673429064.6068556;-22.285926818847656;24.8727970123291;-136.85931396484375
372;1673429064.7717414;47.1287272;7.2379928;67.09900665283203;1673429064.8168404;-22.284353256225586;24.823627471923828;-136.8816375732422
373;1673429064.9857016;47.1287173;7.237978999999999;67.49400329589844;1673429065.0309088;-22.3447208404541;24.770153045654297;-136.88409423828125
374;1673429065.179926;47.128707399999996;7.2379653;67.88500213623047;1673429065.2195165;-22.233701705932617;24.826196670532227;-136.88552856445312
375;1673429065.372324;47.1286974;7.2379516;68.2800064086914;1673429065.4171336;-22.2818546295166;24.812759399414062;-136.89425659179688
376;1673429065.5848963;47.1286875;7.2379378999999995;68.6780014038086;1673429065.6571553;-22.33087158203125;24.8637752532959;-136.91004943847656
377;1673429065.8087027;47.128677599999996;7.2379242999999995;69.07400512695312;1673429065.8460796;-22.254457473754883;24.868894577026367;-136.88876342773438
378;1673429066.0025227;47.1286677;7.237910599999999;69.46600341796875;1673429066.0457687;-22.252735137939453;24.849023818969727;-136.8878173828125
379;1673429066.1883485;47.1286578;7.2378969;69.8550033569336;1673429066.2318318;-22.13557243347168;24.890605926513672;-136.89227294921875
380;1673429066.37984;47.128647799999996;7.2378832;70.24800109863281;1673429066.4162507;-22.147932052612305;24.867521286010742;-136.88943481445312
381;1673429066.571908;47.1286379;7.2378694999999995;70.63600158691406;1673429066.6118004;-22.293642044067383;24.924789428710938;-136.9308624267578
382;1673429066.7824285;47.128628;7.2378559;71.02799987792969;1673429066.823;-22.300718307495117;24.92742919921875;-136.90032958984375
383;1673429066.9833212;47.128617999999996;7.237842199999999;71.41900634765625;1673429067.0323477;-22.216588973999023;24.970895767211914;-136.8699951171875
384;1673429067.1843245;47.1286081;7.237828599999999;71.8080062866211;1673429067.2258635;-22.28009033203125;24.891515731811523;-136.89210510253906
385;1673429067.368431;47.1285981;7.2378149;72.19600677490234;1673429067.4093165;-22.279502868652344;24.912199020385742;-136.8935089111328
386;1673429067.5590186;47.1285883;7.2378013;72.58600616455078;1673429067.60304;-22.357744216918945;24.822172164916992;-136.89239501953125
387;1673429067.767308;47.128578399999995;7.237787699999999;72.97600555419922;1673429067.8129265;-22.347932815551758;24.823904037475586;-136.8767547607422
388;1673429067.9729023;47.1285685;7.237774099999999;73.36500549316406;1673429068.01013;-22.47266387939453;24.816516876220703;-136.86106872558594
389;1673429068.1728861;47.1285585;7.237760499999999;73.76100158691406;1673429068.218155;-22.47820281982422;24.788972854614258;-136.90345764160156
390;1673429068.360474;47.128548599999995;7.237746899999999;74.156005859375;1673429068.403155;-22.509794235229492;24.79133415222168;-136.8877410888672
391;1673429068.5650837;47.1285387;7.2377332999999995;74.54800415039062;1673429068.6077573;-22.414087295532227;24.818445205688477;-136.8637237548828
392;1673429068.7722116;47.1285287;7.237719599999999;74.93800354003906;1673429068.8162835;-22.17287826538086;24.962093353271484;-136.84532165527344
393;1673429068.979876;47.1285187;7.237705999999999;75.33000183105469;1673429069.0194414;-22.42574691772461;24.825960159301758;-136.8808135986328
394;1673429069.1681964;47.1285088;7.237692399999999;75.72200012207031;1673429069.2108972;-22.46221351623535;24.920984268188477;-136.88755798339844
395;1673429069.3661804;47.128498799999996;7.237678799999999;76.11800384521484;1673429069.407233;-22.282583236694336;24.837013244628906;-136.8442840576172
396;1673429069.5560133;47.1284889;7.2376651999999995;76.51300048828125;1673429069.601245;-22.29727554321289;24.89406967163086;-136.8505859375
397;1673429069.7674525;47.1284789;7.237651499999999;76.91000366210938;1673429069.8101478;-22.372087478637695;24.825328826904297;-136.86814880371094
398;1673429069.963926;47.128468999999996;7.237637899999999;77.3080062866211;1673429070.0201106;-22.225830078125;24.885976791381836;-136.85740661621094
399;1673429070.1623826;47.1284591;7.2376242;77.70600128173828;1673429070.2066426;-22.27353858947754;24.784351348876953;-136.86744689941406
400;1673429070.3607998;47.1284491;7.2376105;78.1050033569336;1673429070.4081056;-22.23211669921875;24.85336685180664;-136.86570739746094
401;1673429070.5679588;47.128439199999995;7.2375969;78.5060043334961;1673429070.6115038;-22.293546676635742;24.817638397216797;-136.861572265625
402;1673429070.7645187;47.1284293;7.2375831999999996;78.906005859375;1673429070.8095765;-22.180601119995117;24.79374885559082;-136.85630798339844
403;1673429070.9612272;47.1284193;7.2375696;79.30500030517578;1673429071.0033655;-22.283430099487305;24.847824096679688;-136.89100646972656
404;1673429071.157511;47.1284093;7.237556;79.7040023803711;1673429071.197557;-22.26826286315918;24.879169464111328;-136.8672637939453
405;1673429071.3639393;47.1283993;7.237542299999999;80.10100555419922;1673429071.4046504;-22.0810604095459;24.90291404724121;-136.82301330566406
406;1673429071.561884;47.128389299999995;7.2375286999999995;80.4990005493164;1673429071.603901;-22.164127349853516;24.957565307617188;-136.8606414794922
407;1673429071.7516065;47.1283794;7.2375150999999995;80.89800262451172;1673429071.800462;-22.05946159362793;25.0111141204834;-136.84323120117188
408;1673429071.9589684;47.1283695;7.237501399999999;81.29800415039062;1673429072.0068994;-22.093481063842773;24.83876609802246;-136.8628387451172
409;1673429072.1676433;47.128359599999996;7.237487799999999;81.69800567626953;1673429072.2086442;-22.103546142578125;24.776708602905273;-136.84889221191406
410;1673429072.3714235;47.1283497;7.237474199999999;82.09900665283203;1673429072.4137638;-22.20072364807129;24.775514602661133;-136.85809326171875
411;1673429072.586333;47.1283398;7.2374605999999995;82.50100708007812;1673429072.6288495;-22.329448699951172;24.909198760986328;-136.86463928222656
412;1673429072.7805407;47.1283299;7.237446899999999;82.9020004272461;1673429072.8216183;-22.308135986328125;24.82019805908203;-136.83583068847656
413;1673429072.983846;47.128319999999995;7.237433299999999;83.30000305175781;1673429073.028454;-22.319276809692383;24.87289810180664;-136.84007263183594
414;1673429073.1748872;47.12831;7.237419699999999;83.70000457763672;1673429073.2159193;-22.347530364990234;24.8687801361084;-136.8410186767578
415;1673429073.3651547;47.1283002;7.237406099999999;84.10100555419922;1673429073.4071648;-22.324554443359375;24.76571273803711;-136.8294677734375
416;1673429073.5755775;47.128290299999996;7.2373924;84.50200653076172;1673429073.6132772;-22.440515518188477;24.69586944580078;-136.85821533203125
417;1673429073.7738786;47.1282804;7.2373788;84.9070053100586;1673429073.8149524;-22.518667221069336;24.70525360107422;-136.84588623046875
