;pos_time;latitude;longitude;altitude;alt_time;pitch;roll;yaw
0;1673427570.349083;47.1306425;7.240619799999999;-0.013000000268220901;1673427570.4189172;-0.2056027501821518;-0.0589350126683712;91.28872680664062
1;1673427570.5486777;47.1306425;7.2406198999999996;-0.014000000432133675;1673427570.6063044;-0.13652968406677246;0.14333412051200867;91.24353790283203
2;1673427570.7494097;47.1306425;7.2406198999999996;-0.017000000923871994;1673427570.8101952;-0.23008032143115997;0.24217002093791962;91.30557250976562
3;1673427570.9592621;47.1306425;7.24062;-0.017000000923871994;1673427571.014453;-0.3043004274368286;0.06329833716154099;91.39899444580078
4;1673427571.144797;47.1306425;7.2406201;-0.01600000075995922;1673427571.2099752;-0.36253610253334045;0.2751312553882599;91.17395782470703
5;1673427571.3662097;47.1306425;7.2406201;-0.018000001087784767;1673427571.4278536;-0.14513586461544037;0.011803170666098595;91.159423828125
6;1673427571.5672762;47.1306425;7.2406201;-0.020000001415610313;1673427571.623931;-0.4433611035346985;0.07257149368524551;91.29103088378906
7;1673427571.7668486;47.1306424;7.2406201;-0.023000001907348633;1673427571.8280385;-0.32329878211021423;0.11611082404851913;91.21250915527344
8;1673427571.9660006;47.1306424;7.2406201;-0.024000000208616257;1673427572.0197701;-0.47263967990875244;0.06205339357256889;91.2684555053711
9;1673427572.1541796;47.1306424;7.24062;0.0;1673427572.2103603;-0.31912392377853394;-1.5488150119781494;91.35289764404297
10;1673427572.350004;47.1306424;7.2406198999999996;0.0010000000474974513;1673427572.4108632;-0.3109845817089081;-1.0668294429779053;91.41117858886719
11;1673427572.5468626;47.1306424;7.2406198999999996;0.0020000000949949026;1673427572.6025355;-0.34766119718551636;-1.0206996202468872;91.31475067138672
12;1673427572.758642;47.1306423;7.24062;0.003000000026077032;1673427572.8228428;-0.4150906801223755;-0.8975377082824707;91.35856628417969
13;1673427572.9646692;47.1306423;7.24062;0.0010000000474974513;1673427573.0270884;-0.4164961576461792;-0.9733284711837769;91.22029113769531
14;1673427573.1671133;47.1306422;7.24062;0.0020000000949949026;1673427573.2159135;-0.3155457675457001;-1.595776081085205;91.24262237548828
15;1673427573.3404672;47.1306423;7.2406198999999996;-0.0010000000474974513;1673427573.3977566;-0.3784870505332947;-1.8530552387237549;91.20494842529297
16;1673427573.5322826;47.1306423;7.2406198999999996;-0.0010000000474974513;1673427573.5965867;-0.17132070660591125;-1.8782893419265747;90.9793472290039
17;1673427573.7570865;47.1306423;7.2406198999999996;0.0;1673427573.820146;-0.13876160979270935;-2.415832757949829;90.9122543334961
18;1673427573.9523296;47.1306424;7.2406198999999996;0.0;1673427574.0057244;-0.23294006288051605;-1.7450565099716187;90.75525665283203
19;1673427574.144903;47.1306424;7.2406198999999996;0.0020000000949949026;1673427574.1991653;-0.21492259204387665;-0.8456888198852539;90.43099975585938
20;1673427574.36817;47.1306425;7.2406198999999996;0.00800000037997961;1673427574.4431543;0.23127825558185577;-0.4455863833427429;90.45476531982422
21;1673427574.609689;47.130642699999996;7.2406198999999996;0.005000000353902578;1673427574.672388;0.781761646270752;-0.6622488498687744;88.75562286376953
22;1673427574.7941837;47.1306429;7.2406198999999996;0.015000000596046448;1673427574.844974;0.8103016018867493;-0.5254726409912109;86.8628158569336
23;1673427574.9839673;47.1306431;7.2406198999999996;0.018000001087784767;1673427575.0425582;0.4086560904979706;-0.1963951587677002;83.80218505859375
24;1673427575.2009535;47.1306436;7.2406196;0.023000001907348633;1673427575.2585926;0.4127863347530365;-0.02070593647658825;78.35321807861328
25;1673427575.3865983;47.1306444;7.2406191;0.021000001579523087;1673427575.4416034;0.12312225252389908;1.6007168292999268;62.64569854736328
26;1673427575.5799801;47.130645699999995;7.2406182;0.017000000923871994;1673427575.646603;0.9523813724517822;0.9663406610488892;46.816593170166016
27;1673427575.7823765;47.1306474;7.2406169;0.02500000037252903;1673427575.8399093;1.6406747102737427;0.8813905715942383;37.8441276550293
28;1673427575.9719765;47.130649899999995;7.2406147999999995;0.036000002175569534;1673427576.0246868;2.8394715785980225;6.924574851989746;36.296207427978516
29;1673427576.1713457;47.130653099999996;7.240611899999999;0.058000002056360245;1673427576.2289202;4.06580924987793;12.382499694824219;39.559608459472656
30;1673427576.4136248;47.130656699999996;7.240608399999999;0.09000000357627869;1673427576.466812;4.534717082977295;15.77238941192627;42.28254699707031
31;1673427576.5942974;47.1306606;7.2406045;0.13500000536441803;1673427576.6391935;4.524421215057373;17.665863037109375;44.52803039550781
32;1673427576.7629988;47.130664599999996;7.2406003;0.19100001454353333;1673427576.8158858;4.19287633895874;19.78830909729004;46.32928466796875
33;1673427576.9591281;47.1306687;7.240596;0.2580000162124634;1673427577.0199082;3.8398776054382324;22.063106536865234;47.71736526489258
34;1673427577.156854;47.1306727;7.2405916999999995;0.25200000405311584;1673427577.212059;3.55204176902771;24.241744995117188;48.8712043762207
35;1673427577.3581002;47.130676699999995;7.2405873;0.2110000103712082;1673427577.417208;3.2581918239593506;26.19056510925293;49.8415641784668
36;1673427577.5520985;47.1306802;7.2405835;0.1680000126361847;1673427577.614938;3.0804970264434814;28.367115020751953;50.589385986328125
37;1673427577.7548556;47.130683499999996;7.2405801;0.12800000607967377;1673427577.816737;2.92545485496521;30.431499481201172;51.101036071777344
38;1673427577.9555538;47.1306863;7.240577099999999;0.0950000062584877;1673427578.0108025;2.8845269680023193;32.35490036010742;51.50062942504883
39;1673427578.1537678;47.1306887;7.2405747;0.07800000160932541;1673427578.2089844;4.351471424102783;23.38141441345215;39.81311798095703
40;1673427578.3495362;47.1306904;7.2405731;0.08500000089406967;1673427578.4069593;13.178685188293457;22.364349365234375;22.37976837158203
41;1673427578.5484283;47.1306918;7.240572299999999;0.09700000286102295;1673427578.607031;20.425228118896484;23.167396545410156;18.58452033996582
42;1673427578.7407134;47.130692599999996;7.240571999999999;0.10500000417232513;1673427578.7947433;22.912349700927734;24.558853149414062;18.411508560180664
43;1673427578.9339788;47.1306928;7.240571999999999;0.11300000548362732;1673427578.9957235;23.539512634277344;28.077455520629883;21.290332794189453
44;1673427579.143774;47.1306927;7.240572299999999;0.13199999928474426;1673427579.2078812;26.784780502319336;33.34598159790039;25.29193878173828
45;1673427579.3476508;47.130692499999995;7.240572599999999;0.15300001204013824;1673427579.4111388;30.167455673217773;40.272586822509766;28.400100708007812
46;1673427579.548099;47.1306921;7.2405729999999995;0.17000000178813934;1673427579.6076772;33.690826416015625;48.19218063354492;32.25535202026367
47;1673427579.7461019;47.1306915;7.240573599999999;0.18400001525878906;1673427579.8065126;36.542850494384766;58.31389236450195;38.136962890625
48;1673427579.9488325;47.1306905;7.2405748999999995;0.1730000078678131;1673427580.0071628;25.93886375427246;50.56230926513672;36.95539093017578
49;1673427580.1529114;47.130688199999994;7.2405773;0.16100001335144043;1673427580.214699;23.806671142578125;49.86846923828125;38.42123031616211
50;1673427580.3597767;47.1306842;7.240581199999999;0.15400001406669617;1673427580.4214482;21.666584014892578;46.506099700927734;38.69222640991211
51;1673427580.5567884;47.1306799;7.2405857;0.15600000321865082;1673427580.6159286;18.931026458740234;42.52353286743164;39.02433395385742
52;1673427580.7611325;47.130675499999995;7.2405905;0.16300000250339508;1673427580.8219817;16.613584518432617;36.479400634765625;39.15705871582031
53;1673427580.9665017;47.130671199999995;7.2405952;0.18200001120567322;1673427581.0246158;14.071528434753418;31.410003662109375;39.624515533447266
54;1673427581.169821;47.1306673;7.2405992999999995;0.18800000846385956;1673427581.220384;12.416191101074219;27.32676124572754;40.20993423461914
55;1673427581.353707;47.1306638;7.2406028;0.18800000846385956;1673427581.406841;10.880898475646973;24.483108520507812;40.92571258544922
56;1673427581.552718;47.1306604;7.240606;0.20600001513957977;1673427581.6186676;9.32083797454834;21.76712989807129;41.56149673461914
57;1673427581.7638202;47.130658;7.240608;0.23500001430511475;1673427581.8242438;9.007230758666992;21.402677536010742;42.3104133605957
58;1673427581.968779;47.1306565;7.2406090999999995;0.2710000276565552;1673427582.02593;8.987451553344727;24.37641143798828;43.0203857421875
59;1673427582.1812305;47.1306556;7.2406095;0.3100000023841858;1673427582.238087;9.41399097442627;26.00933265686035;43.42342758178711
60;1673427582.36156;47.1306553;7.240609399999999;0.3460000157356262;1673427582.4252987;9.462311744689941;26.904172897338867;43.62366485595703
61;1673427582.576927;47.1306553;7.2406089;0.3850000202655792;1673427582.6311436;9.395294189453125;30.625381469726562;43.77980041503906
62;1673427582.761878;47.130655399999995;7.2406085;0.4240000247955322;1673427582.8235714;9.999127388000488;32.33378982543945;43.979713439941406
63;1673427582.961594;47.1306547;7.2406087999999995;0.4660000205039978;1673427583.020769;9.59801197052002;30.22711944580078;43.89658737182617
64;1673427583.1654723;47.1306544;7.240608699999999;0.5120000243186951;1673427583.225959;9.503478050231934;31.888511657714844;43.86017990112305
65;1673427583.3609748;47.1306544;7.240608399999999;0.5600000023841858;1673427583.4183745;9.838661193847656;33.17243576049805;43.94766616821289
66;1673427583.5655205;47.1306544;7.2406082;0.612000048160553;1673427583.6377418;9.747743606567383;32.53580856323242;43.91684341430664
67;1673427583.8112168;47.1306544;7.240608;0.6710000038146973;1673427583.8854802;9.568695068359375;33.2967529296875;43.93364715576172
68;1673427584.005222;47.130654299999996;7.240608;0.7300000190734863;1673427584.0590086;9.778082847595215;33.7226448059082;44.08357238769531
69;1673427584.1880608;47.1306534;7.2406089;0.7910000085830688;1673427584.239216;9.079631805419922;30.41126823425293;43.911888122558594
70;1673427584.3636677;47.1306528;7.2406095;0.8550000190734863;1673427584.4184234;9.03501033782959;30.657224655151367;43.80309295654297
71;1673427584.561464;47.1306525;7.2406099;0.9250000715255737;1673427584.623392;9.17516040802002;31.202436447143555;43.779212951660156
72;1673427584.769723;47.1306522;7.240609999999999;0.999000072479248;1673427584.8233962;9.041130065917969;30.417999267578125;43.67085647583008
73;1673427584.9976304;47.130652;7.2406102;1.0789999961853027;1673427585.046429;8.907425880432129;31.384294509887695;43.58563232421875
74;1673427585.2033532;47.130651799999995;7.2406104;1.1610000133514404;1673427585.2553189;9.019086837768555;31.59271812438965;43.6107292175293
75;1673427585.3878202;47.1306515;7.240610599999999;1.2450000047683716;1673427585.4632978;8.884202003479004;30.634471893310547;43.48472213745117
76;1673427585.6220284;47.130650599999996;7.2406115;1.340000033378601;1673427585.6758986;8.451778411865234;29.620988845825195;43.44557571411133
77;1673427585.8023994;47.130649999999996;7.2406121;1.4380000829696655;1673427585.8821545;8.428361892700195;30.35492706298828;43.51615905761719
78;1673427585.9938123;47.1306495;7.2406124;1.5450000762939453;1673427586.044133;8.37601375579834;29.137022018432617;44.47357940673828
79;1673427586.1769032;47.1306491;7.2406127;1.662000060081482;1673427586.2406373;7.646873474121094;29.990692138671875;44.658203125
80;1673427586.393228;47.130648699999995;7.240613;1.7850000858306885;1673427586.443982;7.901185512542725;30.34270477294922;44.819217681884766
81;1673427586.5813224;47.130648199999996;7.2406134;1.9200000762939453;1673427586.639444;7.655104637145996;29.119293212890625;44.888671875
82;1673427586.7712245;47.1306474;7.240614099999999;2.061000108718872;1673427586.8302832;7.483811378479004;28.829212188720703;44.97309494018555
83;1673427586.974914;47.130646899999995;7.2406147;2.2139999866485596;1673427587.0328696;7.707172393798828;29.852331161499023;45.07123947143555
84;1673427587.1688273;47.130646399999996;7.240615099999999;2.372000217437744;1673427587.22559;7.546231746673584;28.632509231567383;44.96690368652344
85;1673427587.355006;47.1306459;7.2406156;2.5450000762939453;1673427587.4113326;7.5611724853515625;29.174667358398438;44.950199127197266
86;1673427587.5644612;47.1306454;7.2406160999999996;2.7280001640319824;1673427587.633377;7.714238166809082;29.554439544677734;44.97462844848633
87;1673427587.765692;47.1306449;7.2406165;2.9090001583099365;1673427587.823002;7.590648174285889;28.21857261657715;44.98368835449219
88;1673427587.966201;47.130644499999995;7.240616999999999;3.1030001640319824;1673427588.0204797;7.454216003417969;28.71965217590332;44.98521041870117
89;1673427588.1644032;47.130644;7.240617599999999;3.2790000438690186;1673427588.224699;7.6150336265563965;28.632251739501953;45.010929107666016
90;1673427588.3739867;47.1306435;7.2406181;3.4640002250671387;1673427588.4288766;7.323441982269287;27.325456619262695;44.935218811035156
91;1673427588.577582;47.130643;7.2406185;3.6490001678466797;1673427588.6351426;7.204212665557861;27.94586753845215;44.95858383178711
92;1673427588.7703207;47.130642599999995;7.240618899999999;3.8310000896453857;1673427588.8281217;7.42459774017334;27.890668869018555;44.99960708618164
93;1673427588.9645169;47.1306422;7.240619199999999;4.019000053405762;1673427589.0266364;7.12929630279541;26.6517276763916;44.929046630859375
94;1673427589.158225;47.1306419;7.240619499999999;4.205000400543213;1673427589.2194064;6.917433261871338;27.624492645263672;44.98047637939453
95;1673427589.3611746;47.1306417;7.240619799999999;4.38700008392334;1673427589.4215481;7.424639701843262;28.163558959960938;45.07722091674805
96;1673427589.5697453;47.130641399999995;7.24062;4.570000171661377;1673427589.6309915;6.966142654418945;26.977764129638672;44.89877700805664
97;1673427589.773792;47.1306411;7.2406201999999995;4.76200008392334;1673427589.8238976;6.862766742706299;27.444643020629883;44.93385314941406
98;1673427589.956539;47.130640799999995;7.2406204;4.942000389099121;1673427590.0139642;6.820838928222656;27.917207717895508;45.00642776489258
99;1673427590.153156;47.1306405;7.2406206;5.133000373840332;1673427590.2109294;6.780792236328125;26.4685115814209;44.945526123046875
100;1673427590.3530438;47.130640299999996;7.240620799999999;5.328000068664551;1673427590.4082546;6.5214667320251465;27.112220764160156;45.016326904296875
101;1673427590.564055;47.1306401;7.240621;5.521000385284424;1673427590.6221967;6.675114154815674;27.6563777923584;45.100345611572266
102;1673427590.7563465;47.1306401;7.240621099999999;5.720000267028809;1673427590.8153584;7.12315034866333;26.84455680847168;45.06623458862305
103;1673427590.9906116;47.13064;7.2406213;5.906000137329102;1673427591.0492475;7.06195592880249;27.28553581237793;44.99172592163086
104;1673427591.1810486;47.1306399;7.2406215;6.100000381469727;1673427591.2398028;7.365124225616455;27.692033767700195;45.06718063354492
105;1673427591.3756142;47.130639699999996;7.2406216;6.295000076293945;1673427591.432856;6.931735992431641;26.225921630859375;44.91252517700195
106;1673427591.5685117;47.1306395;7.240621699999999;6.503000259399414;1673427591.6234798;6.7714362144470215;26.790225982666016;44.84840393066406
107;1673427591.7648988;47.1306393;7.2406217999999996;6.701000213623047;1673427591.8195846;6.890766143798828;27.529983520507812;45.00215530395508
108;1673427591.9728408;47.1306394;7.2406217999999996;6.890000343322754;1673427592.0296168;7.343296527862549;26.766124725341797;45.05575942993164
109;1673427592.1694307;47.1306394;7.2406217999999996;7.094000339508057;1673427592.2268813;6.864078044891357;27.014362335205078;44.9980354309082
110;1673427592.3670774;47.1306392;7.2406219;7.299000263214111;1673427592.421043;7.112664699554443;27.63273811340332;45.00239562988281
111;1673427592.5643115;47.130639099999996;7.2406219;7.506000518798828;1673427592.6239452;6.944967746734619;26.189987182617188;44.93424606323242
112;1673427592.7643762;47.130638999999995;7.240622;7.715000152587891;1673427592.821901;6.72876501083374;26.835691452026367;44.95662307739258
113;1673427592.965718;47.1306388;7.2406220999999995;7.927000522613525;1673427593.0151708;6.795591354370117;27.254751205444336;45.02134323120117
114;1673427593.1682284;47.1306387;7.2406220999999995;8.142000198364258;1673427593.2234602;6.828266620635986;25.991127014160156;45.0133056640625
115;1673427593.365738;47.1306389;7.2406219;8.348999977111816;1673427593.4229825;7.112009048461914;27.328649520874023;44.98550796508789
116;1673427593.5733364;47.130638999999995;7.2406219;8.56100082397461;1673427593.6344018;7.300863265991211;27.86888885498047;45.0362548828125
117;1673427593.7788343;47.130638999999995;7.2406219;8.771000862121582;1673427593.834093;7.184265613555908;26.519153594970703;44.958805084228516
118;1673427593.9731238;47.1306389;7.2406219;8.986000061035156;1673427594.0293813;7.121283531188965;27.218067169189453;45.00028610229492
119;1673427594.1757863;47.1306387;7.2406219;9.19800090789795;1673427594.2382054;6.9927897453308105;27.462614059448242;45.007301330566406
120;1673427594.3736138;47.130638499999996;7.2406219;9.41100025177002;1673427594.4285877;6.7691216468811035;25.873842239379883;44.871524810791016
121;1673427594.5661016;47.1306387;7.2406217999999996;9.618000030517578;1673427594.622946;7.071413993835449;27.455398559570312;44.97346878051758
122;1673427594.7698586;47.1306387;7.240621699999999;9.833000183105469;1673427594.828444;7.123878479003906;27.654096603393555;44.98767852783203
123;1673427594.9771194;47.1306386;7.2406216;10.047000885009766;1673427595.0329473;6.816381454467773;26.37611198425293;44.92368698120117
124;1673427595.1709366;47.130638399999995;7.2406216;10.291000366210938;1673427595.2304306;6.438776016235352;25.620838165283203;44.77033615112305
125;1673427595.3723056;47.1306381;7.2406217999999996;10.60200023651123;1673427595.4310188;6.436366558074951;26.8580379486084;44.91493225097656
126;1673427595.6011798;47.130637799999995;7.240622;10.976000785827637;1673427595.6520061;6.735676288604736;26.65818214416504;45.16796875
127;1673427595.7746122;47.1306375;7.2406222;11.344000816345215;1673427595.8315876;6.3718953132629395;25.80525016784668;45.08705139160156
128;1673427595.9699843;47.1306376;7.2406223;11.694000244140625;1673427596.0290377;6.943668365478516;26.405643463134766;45.171730041503906
129;1673427596.1653705;47.1306376;7.2406223;12.042000770568848;1673427596.2147133;6.7736897468566895;25.537315368652344;45.02518081665039
130;1673427596.3609638;47.1306376;7.2406223;12.397000312805176;1673427596.4191074;6.697637557983398;25.80792999267578;45.0545654296875
131;1673427596.5637887;47.1306375;7.2406222;12.711000442504883;1673427596.619895;6.749471664428711;26.210643768310547;45.11864471435547
132;1673427596.75581;47.1306375;7.2406222;13.029000282287598;1673427596.8142745;6.6502299308776855;25.5714168548584;45.023197174072266
133;1673427596.9564867;47.1306376;7.2406220999999995;13.344000816345215;1673427597.013647;6.558443069458008;26.294450759887695;44.979339599609375
134;1673427597.1757805;47.130638;7.2406219;13.644001007080078;1673427597.234928;7.380162239074707;27.63041114807129;45.0535888671875
135;1673427597.3796399;47.1306382;7.240621699999999;13.945000648498535;1673427597.4408102;7.2086052894592285;26.616153717041016;44.92422866821289
136;1673427597.6048946;47.1306382;7.2406216;14.25100040435791;1673427597.661531;6.864133834838867;26.67479705810547;44.98262405395508
137;1673427597.8093429;47.1306382;7.2406216;14.556000709533691;1673427597.8816822;7.1225266456604;27.172136306762695;44.97711944580078
138;1673427598.0243647;47.1306381;7.2406216;14.860000610351562;1673427598.0753248;6.861140727996826;26.028913497924805;44.96772384643555
139;1673427598.210716;47.1306381;7.2406216;15.16200065612793;1673427598.268457;6.568581581115723;26.144092559814453;44.9563102722168
140;1673427598.403686;47.1306382;7.2406216;15.463000297546387;1673427598.4582071;6.876806259155273;27.139690399169922;45.06487274169922
141;1673427598.5963075;47.130638499999996;7.240621399999999;15.757000923156738;1673427598.6554096;7.39092493057251;26.698240280151367;45.02335739135742
142;1673427598.7976203;47.1306387;7.240621399999999;16.05500030517578;1673427598.8523421;7.145875453948975;26.54116439819336;44.917015075683594
143;1673427598.9921644;47.1306388;7.2406213;16.360000610351562;1673427599.0470395;7.149816513061523;27.601503372192383;44.98741912841797
144;1673427599.1983426;47.1306388;7.2406213;16.666000366210938;1673427599.2593472;7.255791664123535;26.69976043701172;44.97770690917969
145;1673427599.3904893;47.1306388;7.2406213;16.975000381469727;1673427599.4481444;6.8996686935424805;26.23128890991211;44.91220474243164
146;1673427599.5846877;47.1306389;7.2406213;17.288000106811523;1673427599.643347;7.131015300750732;27.49114990234375;45.09416961669922
147;1673427599.7827747;47.1306392;7.2406213;17.59400177001953;1673427599.849594;7.644863128662109;27.029094696044922;44.954280853271484
148;1673427599.9979293;47.1306393;7.2406213;17.90300178527832;1673427600.0557091;7.36573600769043;26.359254837036133;44.943336486816406
149;1673427600.2189171;47.1306394;7.2406213;18.214000701904297;1673427600.3191955;7.357695579528809;27.52597427368164;44.94260787963867
150;1673427600.4458144;47.1306394;7.2406213;18.530000686645508;1673427600.5026696;7.4789533615112305;26.636337280273438;45.058998107910156
151;1673427600.6338425;47.1306394;7.2406213;18.851001739501953;1673427600.6924028;7.17619514465332;26.03721809387207;44.95638656616211
152;1673427600.8256269;47.1306394;7.2406213;19.176000595092773;1673427600.8793375;7.134188175201416;27.364938735961914;45.00050735473633
153;1673427601.0064926;47.1306394;7.2406213;19.505001068115234;1673427601.0609047;7.245263576507568;26.32551383972168;44.95100402832031
154;1673427601.1896045;47.130639699999996;7.2406212;19.828001022338867;1673427601.2488298;7.25194787979126;26.374122619628906;44.96572494506836
155;1673427601.396615;47.1306398;7.2406212;20.158000946044922;1673427601.4596143;7.441478729248047;27.564491271972656;44.998233795166016
156;1673427601.611064;47.1306399;7.240621099999999;20.49100112915039;1673427601.660855;7.451905250549316;26.877273559570312;44.99052429199219
157;1673427601.805008;47.13064;7.240621099999999;20.82400131225586;1673427601.8602774;7.2080793380737305;26.478899002075195;44.909515380859375
158;1673427601.9921331;47.13064;7.240621;21.158000946044922;1673427602.0517528;7.268133640289307;27.615039825439453;45.05021667480469
159;1673427602.1828706;47.13064;7.240621;21.494001388549805;1673427602.2371123;7.318591594696045;26.94789695739746;44.997772216796875
160;1673427602.371391;47.130640299999996;7.2406209;21.826000213623047;1673427602.4287734;7.499905109405518;26.63238525390625;44.999210357666016
161;1673427602.5643847;47.130640299999996;7.2406209;22.165000915527344;1673427602.6196053;7.446719169616699;27.661237716674805;45.07219696044922
162;1673427602.7647293;47.1306404;7.2406209;22.506000518798828;1673427602.8282733;7.516202926635742;27.37285804748535;45.02988815307617
163;1673427602.9768803;47.1306404;7.2406209;22.849000930786133;1673427603.0354977;7.22661828994751;26.235570907592773;44.89228057861328
164;1673427603.188622;47.1306404;7.2406209;23.19900131225586;1673427603.247276;7.142723083496094;27.330347061157227;44.97921371459961
165;1673427603.3854208;47.130640299999996;7.2406209;23.54800033569336;1673427603.447557;7.47266960144043;26.90437126159668;45.08578109741211
166;1673427603.6017494;47.130640299999996;7.2406209;23.899002075195312;1673427603.66754;7.175020217895508;25.967754364013672;44.98797607421875
167;1673427603.8120372;47.1306405;7.240620799999999;24.244001388549805;1673427603.8708136;7.495614051818848;27.530590057373047;44.99800491333008
168;1673427603.9998744;47.1306406;7.240620799999999;24.610000610351562;1673427604.053367;7.57314920425415;27.2142391204834;45.01167678833008
169;1673427604.1942475;47.1306407;7.2406207;24.948001861572266;1673427604.2506235;7.393162727355957;26.528724670410156;44.919151306152344
170;1673427604.3820276;47.1306407;7.2406207;25.29800033569336;1673427604.4436014;7.421207427978516;27.568912506103516;44.99076461791992
171;1673427604.5945547;47.1306407;7.2406207;25.6510009765625;1673427604.6605034;7.474670886993408;27.202909469604492;44.96476745605469
172;1673427604.7962189;47.1306407;7.2406207;26.00800132751465;1673427604.852547;7.277525901794434;26.525400161743164;44.95893478393555
173;1673427605.0007997;47.130640899999996;7.2406206;26.36100196838379;1673427605.0577188;7.476943016052246;27.773679733276367;45.033287048339844
174;1673427605.2004638;47.130640899999996;7.2406204999999995;26.720001220703125;1673427605.253819;7.6232709884643555;27.382022857666016;45.00079345703125
175;1673427605.3926916;47.130640899999996;7.2406204999999995;27.08100128173828;1673427605.448109;7.293296813964844;26.578256607055664;44.93210983276367
176;1673427605.6011693;47.130640899999996;7.2406206;27.441001892089844;1673427605.6584513;7.3412370681762695;27.515262603759766;45.0002326965332
177;1673427605.8076868;47.130640799999995;7.2406206;27.802001953125;1673427605.8645754;7.280901908874512;26.940475463867188;45.004241943359375
178;1673427606.0077372;47.130640799999995;7.2406204999999995;28.159000396728516;1673427606.062473;6.968479156494141;26.380538940429688;44.974021911621094
179;1673427606.204827;47.130640799999995;7.2406204999999995;28.520000457763672;1673427606.2665513;7.153858661651611;27.411041259765625;45.03413772583008
180;1673427606.4106646;47.130640899999996;7.2406204999999995;28.89000129699707;1673427606.4700792;7.601070404052734;27.21940803527832;45.02671813964844
181;1673427606.6011782;47.130640899999996;7.2406204999999995;29.238000869750977;1673427606.6645076;7.1763596534729;26.4521484375;44.93882369995117
182;1673427606.7974865;47.130641;7.2406204999999995;29.606000900268555;1673427606.855249;7.316699504852295;27.65464973449707;45.075233459472656
183;1673427606.9976492;47.130640899999996;7.2406204999999995;29.970001220703125;1673427607.0544307;7.340071678161621;27.260208129882812;45.04488754272461
184;1673427607.1994808;47.130641;7.2406204;30.334001541137695;1673427607.2585008;7.204885959625244;26.354694366455078;44.9502067565918
185;1673427607.4011202;47.130641;7.2406204;30.71200180053711;1673427607.4589255;7.169405937194824;27.67641258239746;44.98207473754883
186;1673427607.6012366;47.1306411;7.2406203;31.0570011138916;1673427607.6634963;7.554966449737549;27.549007415771484;45.08502960205078
187;1673427607.8135989;47.1306412;7.2406204;31.43600082397461;1673427607.8780591;7.459545612335205;26.614173889160156;45.015907287597656
188;1673427608.0167186;47.1306412;7.2406204;31.78400230407715;1673427608.0715063;7.3393168449401855;27.644420623779297;44.95186233520508
189;1673427608.2153046;47.1306411;7.2406204;32.14900207519531;1673427608.2679124;7.507969856262207;27.10616111755371;45.03805923461914
190;1673427608.411997;47.1306411;7.2406204;32.520999908447266;1673427608.467429;7.154829502105713;26.5302734375;44.93927764892578
191;1673427608.6066604;47.1306411;7.2406204;32.89500045776367;1673427608.665371;7.2586259841918945;27.542381286621094;45.03470993041992
192;1673427608.7984018;47.1306411;7.2406204;33.2650032043457;1673427608.8547916;7.265919208526611;27.09407615661621;45.03605270385742
193;1673427608.995868;47.1306412;7.2406204;33.630001068115234;1673427609.0549812;7.3159894943237305;26.699979782104492;45.01030731201172
194;1673427609.1972558;47.1306412;7.2406204;33.999000549316406;1673427609.2597995;7.310390472412109;27.553722381591797;45.047672271728516
195;1673427609.3991675;47.1306412;7.2406203;34.3640022277832;1673427609.4595137;7.394201755523682;27.22525978088379;45.02618408203125
196;1673427609.6094248;47.1306412;7.2406203;34.730003356933594;1673427609.6623588;7.165242671966553;26.573169708251953;44.93255615234375
197;1673427609.8053713;47.1306412;7.2406203;35.10300064086914;1673427609.8622346;7.221776962280273;27.598613739013672;45.00559616088867
198;1673427610.0035076;47.1306412;7.2406203;35.474002838134766;1673427610.0620828;7.459838390350342;27.319677352905273;45.0546875
199;1673427610.2159598;47.1306413;7.2406203;35.84100341796875;1673427610.271754;7.427919864654541;26.661745071411133;45.019126892089844
200;1673427610.392404;47.1306413;7.2406203;36.21200180053711;1673427610.4506338;7.405545234680176;27.48822593688965;44.9772834777832
201;1673427610.6228204;47.1306413;7.2406203;36.58400344848633;1673427610.6875386;7.489233016967773;27.560670852661133;45.0282096862793
202;1673427610.8260493;47.1306413;7.2406203;36.97200012207031;1673427610.884761;7.122134208679199;26.52271842956543;44.92266845703125
203;1673427611.0245314;47.1306413;7.2406203;37.329002380371094;1673427611.0850294;7.2406463623046875;27.650827407836914;45.016170501708984
204;1673427611.2287488;47.1306413;7.2406203;37.70100021362305;1673427611.280796;7.341516494750977;27.249284744262695;45.01676559448242
205;1673427611.5067792;47.1306413;7.2406203;38.07200241088867;1673427611.5449357;7.190826416015625;26.35318374633789;45.00347900390625
206;1673427611.6724422;47.1306413;7.2406203;38.441001892089844;1673427611.7206051;7.2959160804748535;27.58509063720703;44.95703887939453
207;1673427611.8462408;47.130641399999995;7.2406201999999995;38.81500244140625;1673427611.897178;7.398718357086182;27.59033966064453;44.97554016113281
208;1673427612.037451;47.130641399999995;7.2406201999999995;39.19000244140625;1673427612.0941372;7.151449680328369;26.8459415435791;45.032264709472656
209;1673427612.2308068;47.1306413;7.2406203;39.56500244140625;1673427612.28875;7.1451826095581055;27.66086196899414;45.052574157714844
210;1673427612.4249346;47.1306413;7.2406203;39.93800354003906;1673427612.4766777;7.323836326599121;27.458965301513672;45.066856384277344
211;1673427612.635893;47.1306413;7.2406203;40.316001892089844;1673427612.7488732;7.165036201477051;26.56125259399414;44.91682434082031
212;1673427612.8733013;47.1306413;7.2406203;40.68800354003906;1673427612.9213078;7.382993698120117;27.674623489379883;45.001407623291016
213;1673427613.0416052;47.1306413;7.2406203;41.06100082397461;1673427613.0952854;7.368252277374268;27.540124893188477;44.99414825439453
214;1673427613.2261655;47.1306413;7.2406203;41.435001373291016;1673427613.2798488;7.289786338806152;26.67486572265625;45.0104866027832
215;1673427613.4150763;47.1306413;7.2406204;41.80600357055664;1673427613.4673421;7.286060333251953;27.704742431640625;45.02031707763672
216;1673427613.5987525;47.1306413;7.2406204999999995;42.177001953125;1673427613.6549194;7.381921291351318;27.297346115112305;44.98812484741211
217;1673427613.8358405;47.1306412;7.2406204999999995;42.55000305175781;1673427613.8905756;7.31895112991333;26.594884872436523;44.962039947509766
218;1673427614.0247927;47.1306412;7.2406206;42.926002502441406;1673427614.0758135;7.332058429718018;27.497631072998047;45.00752639770508
219;1673427614.2165205;47.1306413;7.2406206;43.29600143432617;1673427614.2746582;7.542696952819824;27.6331787109375;44.98634338378906
220;1673427614.4040654;47.1306413;7.2406206;43.66400146484375;1673427614.4640079;7.386265277862549;26.537050247192383;45.00885772705078
221;1673427614.6051204;47.1306413;7.2406207;44.03700256347656;1673427614.6691248;7.252120494842529;27.583833694458008;45.01149368286133
222;1673427614.8095946;47.1306412;7.2406207;44.413002014160156;1673427614.8673058;7.464859485626221;27.342632293701172;45.009918212890625
223;1673427615.0082278;47.1306412;7.240620799999999;44.788002014160156;1673427615.0762115;7.30119514465332;26.516206741333008;44.92498779296875
224;1673427615.2100995;47.1306412;7.240620799999999;45.16100311279297;1673427615.2743957;7.148152828216553;27.383359909057617;44.97874069213867
225;1673427615.4335709;47.1306413;7.240620799999999;45.531002044677734;1673427615.4823704;7.573639392852783;27.570690155029297;45.07093048095703
226;1673427615.6530373;47.1306413;7.240620799999999;45.900001525878906;1673427615.7029269;7.242570877075195;26.562211990356445;44.97761535644531
227;1673427615.838737;47.1306413;7.240620799999999;46.268001556396484;1673427615.8896224;7.310721397399902;27.48284149169922;45.008323669433594
228;1673427616.0241482;47.1306413;7.240620799999999;46.637001037597656;1673427616.082279;7.561178684234619;27.519611358642578;45.00385284423828
229;1673427616.2186544;47.1306413;7.240620799999999;47.01300048828125;1673427616.2865467;7.302737236022949;26.50269889831543;44.978248596191406
230;1673427616.4283822;47.1306413;7.2406209;47.409000396728516;1673427616.486004;7.0915350914001465;27.396209716796875;44.95899963378906
231;1673427616.6189787;47.1306413;7.2406209;47.77900314331055;1673427616.6711698;7.368141174316406;27.49445152282715;45.05517578125
232;1673427616.8142571;47.1306413;7.240620799999999;48.14800262451172;1673427616.87013;7.396636009216309;27.0194149017334;44.98673629760742
233;1673427617.0062702;47.130641399999995;7.240620799999999;48.47200393676758;1673427617.06442;7.5590596199035645;27.61709976196289;45.13542938232422
234;1673427617.1880882;47.1306416;7.2406206;48.74100112915039;1673427617.2520926;7.58603048324585;27.695402145385742;45.04638671875
235;1673427617.4098868;47.1306418;7.2406204;48.9630012512207;1673427617.4741135;7.700986862182617;28.166786193847656;45.007015228271484
236;1673427617.619289;47.130642099999996;7.2406201;49.147003173828125;1673427617.6800008;7.7865681648254395;28.92693519592285;45.00994110107422
237;1673427617.8232818;47.1306423;7.240619799999999;49.297000885009766;1673427617.882119;15.000300407409668;28.746389389038086;46.22414779663086
238;1673427618.0134635;47.1306425;7.240619199999999;49.43300247192383;1673427618.0747652;36.91151428222656;28.92986297607422;56.579307556152344
239;1673427618.2074695;47.130641499999996;7.2406168;49.55800247192383;1673427618.269012;49.31695556640625;33.36370086669922;67.55432891845703
240;1673427618.409647;47.1306387;7.240610599999999;49.665000915527344;1673427618.4658308;54.13645935058594;37.03327560424805;74.08453369140625
241;1673427618.6120439;47.1306343;7.240601;49.711002349853516;1673427618.678904;40.981407165527344;38.77776336669922;81.751708984375
242;1673427618.8435955;47.130628599999994;7.2405881;49.73500061035156;1673427618.895753;33.63554763793945;44.548484802246094;92.23490905761719
243;1673427619.029723;47.1306218;7.2405724;49.75600051879883;1673427619.0830057;23.85165023803711;49.58535385131836;102.5709228515625
244;1673427619.2500942;47.1306142;7.2405544;49.75100326538086;1673427619.3001714;7.7556376457214355;47.74454879760742;112.11287689208984
245;1673427619.44331;47.1306061;7.2405348;49.72900390625;1673427619.4991016;-4.93166446685791;48.41131591796875;122.27684020996094
246;1673427619.6679935;47.130597699999996;7.2405140999999995;49.70500183105469;1673427619.7438955;-16.964176177978516;46.963905334472656;132.53147888183594
247;1673427619.862498;47.1305883;7.2404912999999995;49.678001403808594;1673427619.912009;-29.984249114990234;42.428165435791016;143.79803466796875
248;1673427620.037878;47.1305791;7.240469399999999;49.660003662109375;1673427620.0935082;-38.26831817626953;38.63445281982422;151.2106475830078
249;1673427620.2220373;47.130569099999995;7.2404459999999995;49.62000274658203;1673427620.2712278;-28.697418212890625;30.390710830688477;148.7064971923828
250;1673427620.4124136;47.130559;7.2404226;49.56200408935547;1673427620.468597;-23.670310974121094;28.627038955688477;139.83392333984375
251;1673427620.6069975;47.130548999999995;7.2404002;49.548004150390625;1673427620.6642926;-33.202484130859375;37.47014236450195;131.0172119140625
252;1673427620.8037999;47.1305388;7.240378499999999;49.57400131225586;1673427620.8640814;-34.35831832885742;40.113807678222656;130.0526885986328
253;1673427620.9991162;47.130527799999996;7.2403577;49.61000061035156;1673427621.0612013;-35.41850280761719;41.47837829589844;131.32591247558594
254;1673427621.2246823;47.130516199999995;7.2403375;49.65300369262695;1673427621.2790377;-35.55189895629883;40.74886703491211;134.7965850830078
255;1673427621.42353;47.1305038;7.240317699999999;49.702003479003906;1673427621.4813712;-37.611454010009766;42.537017822265625;137.5264129638672
256;1673427621.6178193;47.1304909;7.240297999999999;49.72100067138672;1673427621.6766746;-32.61446762084961;33.76284408569336;139.1261444091797
257;1673427621.8156025;47.1304778;7.2402788;49.7140007019043;1673427621.870913;-27.84288215637207;25.745990753173828;137.0101776123047
258;1673427622.0084105;47.1304648;7.240260699999999;49.702003479003906;1673427622.0686467;-33.2258186340332;26.212913513183594;134.20994567871094
259;1673427622.2153392;47.130451799999996;7.2402429999999995;49.73500061035156;1673427622.2767906;-43.22966003417969;28.64755630493164;132.62521362304688
260;1673427622.4826417;47.130439599999995;7.240228;49.785003662109375;1673427622.5410159;-46.212379455566406;23.123504638671875;133.40455627441406
261;1673427622.6975923;47.130426199999995;7.240213799999999;49.833003997802734;1673427622.7634728;-47.01232147216797;8.359980583190918;134.791015625
262;1673427622.9317806;47.130414099999996;7.240203299999999;49.86100387573242;1673427622.970849;-44.84611129760742;-9.229976654052734;134.16055297851562
263;1673427623.085925;47.1304026;7.2401959;49.88500213623047;1673427623.1366787;-42.45561981201172;-17.68191909790039;132.1982421875
264;1673427623.2841392;47.1303929;7.240192899999999;49.900001525878906;1673427623.338889;-39.405147552490234;-20.85507583618164;130.5919189453125
265;1673427623.454384;47.130385499999996;7.240193199999999;49.9160041809082;1673427623.5071394;-37.935550689697266;-23.107975006103516;131.9019317626953
266;1673427623.6432102;47.1303804;7.2401962;49.94700241088867;1673427623.6999996;-36.17453384399414;-25.823379516601562;131.21487426757812
267;1673427623.8437335;47.130377499999994;7.2402017999999995;49.99700164794922;1673427623.9059944;-38.13704299926758;-25.31372833251953;129.71971130371094
268;1673427624.0425446;47.1303765;7.2402098;50.052001953125;1673427624.1013942;-32.81715774536133;-17.582433700561523;136.22959899902344
269;1673427624.2535095;47.1303767;7.2402197;50.10600280761719;1673427624.287669;-21.018373489379883;-10.973934173583984;150.94253540039062
270;1673427624.4328804;47.130377599999996;7.240228999999999;50.15300369262695;1673427624.4939382;-19.5899715423584;-1.2604140043258667;161.43411254882812
271;1673427624.6372125;47.1303785;7.2402367;50.17900085449219;1673427624.6993144;-22.838298797607422;8.207931518554688;169.94224548339844
272;1673427624.8546066;47.1303797;7.2402427;50.21600341796875;1673427624.9144452;-34.017478942871094;17.35413932800293;177.1852569580078
273;1673427625.046969;47.1303804;7.240245799999999;50.25300216674805;1673427625.0988557;-46.28544235229492;14.625192642211914;-171.41436767578125
274;1673427625.2728827;47.130379999999995;7.240244799999999;50.27700424194336;1673427625.3236454;-52.0146484375;4.068180084228516;-160.93992614746094
275;1673427625.4524624;47.1303779;7.24024;50.301002502441406;1673427625.5140328;-55.1743049621582;-4.457588195800781;-152.7270965576172
276;1673427625.6729534;47.1303741;7.2402315999999995;50.32200241088867;1673427625.7467132;-52.98554611206055;-6.917792797088623;-146.78079223632812
277;1673427625.8750513;47.1303682;7.24022;50.31200408935547;1673427625.9245968;-48.96035385131836;-13.086917877197266;-138.40428161621094
278;1673427626.0691772;47.130361199999996;7.2402055999999995;50.32200241088867;1673427626.1209059;-52.45185470581055;-17.888843536376953;-133.88319396972656
279;1673427626.252881;47.1303536;7.2401900999999995;50.34300231933594;1673427626.3016803;-52.72058868408203;-17.8809757232666;-137.4154510498047
280;1673427626.4376028;47.1303445;7.240172299999999;50.362003326416016;1673427626.4915214;-52.04243087768555;-17.234323501586914;-139.80645751953125
281;1673427626.6226382;47.130334399999995;7.240153299999999;50.35900115966797;1673427626.7004652;-49.284366607666016;-15.046632766723633;-140.03077697753906
282;1673427626.8445961;47.130323499999996;7.2401335;50.35200119018555;1673427626.8960166;-47.97901153564453;-15.305203437805176;-139.31321716308594
283;1673427627.0264466;47.1303121;7.2401129;50.33500289916992;1673427627.0875945;-47.10643768310547;-15.063011169433594;-139.35963439941406
284;1673427627.2213206;47.1303;7.2400918;50.288002014160156;1673427627.2771633;-43.624759674072266;-14.854642868041992;-141.54896545410156
285;1673427627.4352863;47.1302878;7.2400704;50.27400207519531;1673427627.4883626;-46.17677307128906;-14.391684532165527;-150.48626708984375
286;1673427627.624993;47.1302752;7.2400492;50.27900314331055;1673427627.676663;-49.11891174316406;-10.79549789428711;-160.44024658203125
287;1673427627.8149924;47.130262099999996;7.2400287;50.29300308227539;1673427627.866352;-47.92618179321289;-3.6411941051483154;-169.91802978515625
288;1673427628.000816;47.130248599999994;7.240009;50.301002502441406;1673427628.0579786;-45.87923812866211;3.2840800285339355;-178.47613525390625
289;1673427628.201336;47.130235;7.239989899999999;50.30000305175781;1673427628.2602575;-42.0839958190918;9.556218147277832;172.58786010742188
290;1673427628.3979592;47.1302208;7.2399708;50.26400375366211;1673427628.4577835;-36.87578582763672;13.325142860412598;163.89146423339844
291;1673427628.6203642;47.130207999999996;7.2399537;50.2390022277832;1673427628.6791096;-32.70746612548828;16.0915584564209;154.79083251953125
292;1673427628.8355253;47.1301953;7.2399365;50.21800231933594;1673427628.894809;-28.823137283325195;18.529277801513672;144.2101593017578
293;1673427629.0361996;47.130183099999996;7.2399201;50.2130012512207;1673427629.0949857;-29.801841735839844;24.88714027404785;133.2042694091797
294;1673427629.2445302;47.130171399999995;7.2399046;50.24400329589844;1673427629.3147583;-34.64085388183594;36.443904876708984;123.80767822265625
295;1673427629.4420495;47.130159299999995;7.239890099999999;50.2910041809082;1673427629.5344913;-37.16990661621094;41.392906188964844;124.01818084716797
296;1673427629.690228;47.130146499999995;7.2398763;50.35000228881836;1673427629.768983;-40.9980583190918;29.30360984802246;132.43365478515625
297;1673427629.8825662;47.130133099999995;7.2398636;50.37900161743164;1673427629.9343;-40.67687225341797;-9.71696949005127;138.83914184570312
298;1673427630.096017;47.13012;7.2398529;50.37200164794922;1673427630.178659;-41.98511505126953;-26.39974594116211;135.5836944580078
299;1673427630.2986588;47.1301102;7.239846699999999;50.3280029296875;1673427630.374538;-27.585067749023438;-20.84274673461914;131.525634765625
300;1673427630.493452;47.1301023;7.239842899999999;50.27300262451172;1673427630.5344486;-14.433469772338867;-26.102100372314453;148.64598083496094
301;1673427630.647344;47.1300971;7.2398412;50.28700256347656;1673427630.6947265;-15.242609977722168;-25.093008041381836;164.61549377441406
302;1673427630.843981;47.1300939;7.239840999999999;50.340003967285156;1673427630.8983622;-28.57638168334961;8.205074310302734;172.6708984375
303;1673427631.036397;47.130091199999995;7.2398400999999994;50.374000549316406;1673427631.0880842;-52.12202453613281;29.631216049194336;-178.80242919921875
304;1673427631.25061;47.1300877;7.2398352;50.37700271606445;1673427631.303991;-50.886024475097656;16.960886001586914;-158.44874572753906
305;1673427631.4592538;47.1300834;7.2398256;50.33700180053711;1673427631.5269012;-38.313262939453125;15.279565811157227;-153.391845703125
306;1673427631.6719508;47.130079099999996;7.2398124;50.298004150390625;1673427631.7482805;-39.436702728271484;10.686903953552246;-151.29322814941406
307;1673427631.9007602;47.1300749;7.2397963;50.30000305175781;1673427631.96252;-42.86192321777344;-3.463811159133911;-140.74411010742188
308;1673427632.1767874;47.1300701;7.2397781;50.34300231933594;1673427632.2099915;-52.71840286254883;-18.364927291870117;-133.34234619140625
309;1673427632.3083947;47.130064;7.2397580999999995;50.38600158691406;1673427632.3543205;-56.92530059814453;-24.6964168548584;-141.14273071289062
310;1673427632.4772503;47.1300557;7.2397376;50.38800048828125;1673427632.527028;-50.067298889160156;-12.93065071105957;-158.3080291748047
311;1673427632.6574678;47.1300461;7.2397176;50.39400100708008;1673427632.7111487;-50.338623046875;-7.788586139678955;-165.9185791015625
312;1673427632.8513756;47.1300355;7.2396983;50.400001525878906;1673427632.9075985;-49.92102813720703;-1.2440593242645264;-174.7517547607422
313;1673427633.0401635;47.130024;7.239679799999999;50.40900421142578;1673427633.0985737;-49.60321807861328;6.351840972900391;176.4480438232422
314;1673427633.2397766;47.1300118;7.2396619;50.40900421142578;1673427633.295578;-47.44350051879883;12.665020942687988;167.9462890625
315;1673427633.4271355;47.1299991;7.2396446;50.40500259399414;1673427633.4831562;-42.342952728271484;17.729923248291016;159.0514373779297
316;1673427633.6231196;47.1299862;7.2396278;50.36300277709961;1673427633.6824715;-35.646728515625;20.26613998413086;150.0262908935547
317;1673427633.832178;47.1299735;7.2396116;50.32100296020508;1673427633.8933213;-28.104583740234375;20.637590408325195;139.9491424560547
318;1673427634.0345066;47.1299612;7.239596;50.28600311279297;1673427634.0905933;-24.726961135864258;25.160118103027344;128.7843017578125
319;1673427634.2365394;47.1299494;7.2395812;50.29500198364258;1673427634.2907763;-28.55597686767578;39.29500961303711;120.42205810546875
320;1673427634.4315135;47.129937399999996;7.239567;50.32400131225586;1673427634.4901102;-30.3229923248291;41.12605285644531;126.26773071289062
321;1673427634.6290033;47.1299249;7.239552799999999;50.36900329589844;1673427634.689648;-34.69501876831055;47.07377624511719;133.02049255371094
322;1673427634.8306184;47.1299116;7.2395378;50.393001556396484;1673427634.8874888;-36.28608703613281;42.57426452636719;138.5634765625
323;1673427635.0304873;47.129897799999995;7.2395219;50.342002868652344;1673427635.083961;-24.684650421142578;26.087743759155273;141.5029754638672
324;1673427635.2241411;47.1298843;7.2395058;50.2660026550293;1673427635.2834008;-19.921676635742188;19.05424690246582;136.76939392089844
325;1673427635.421941;47.1298718;7.239490099999999;50.22600173950195;1673427635.479097;-38.7191162109375;17.509782791137695;134.239501953125
326;1673427635.6380582;47.1298599;7.2394761;50.25100326538086;1673427635.6981685;-46.38970947265625;-15.758691787719727;134.53350830078125
327;1673427635.8357358;47.1298491;7.239465999999999;50.2760009765625;1673427635.893609;-45.981689453125;-27.588485717773438;126.87093353271484
328;1673427636.042835;47.1298406;7.239459999999999;50.23400115966797;1673427636.1018047;-26.182771682739258;-14.964099884033203;118.84396362304688
329;1673427636.2507675;47.1298349;7.239457;50.1670036315918;1673427636.3086782;-21.700634002685547;-22.2110595703125;133.67916870117188
330;1673427636.4546778;47.1298313;7.2394557;50.165000915527344;1673427636.5222023;-30.62369155883789;-32.06852340698242;141.40631103515625
331;1673427636.6420999;47.1298299;7.2394571999999995;50.19000244140625;1673427636.6920795;-31.40540313720703;-33.16864013671875;147.32540893554688
332;1673427636.8291879;47.1298301;7.239461599999999;50.246002197265625;1673427636.891287;-22.549659729003906;-32.118709564208984;160.79019165039062
333;1673427637.0337965;47.1298313;7.2394678;50.29600143432617;1673427637.0936708;-18.176023483276367;-25.46304702758789;172.96185302734375
334;1673427637.2231226;47.129833;7.2394747;50.3390007019043;1673427637.2804987;-18.769716262817383;-19.138879776000977;-177.6836395263672
335;1673427637.4450605;47.1298349;7.2394814;50.362003326416016;1673427637.5119314;-20.57040023803711;-18.662216186523438;-168.36309814453125
336;1673427637.6541412;47.1298367;7.239487199999999;50.368003845214844;1673427637.715214;-19.5419979095459;-22.088417053222656;-159.5814208984375
337;1673427637.8600416;47.129838199999995;7.2394925;50.380001068115234;1673427637.9242344;-16.858257293701172;-27.478933334350586;-150.55545043945312
338;1673427638.0606446;47.1298393;7.2394973;50.39200210571289;1673427638.1140497;-13.710206985473633;-32.07925033569336;-141.3056182861328
339;1673427638.2514985;47.1298399;7.2395017;50.40300369262695;1673427638.303369;-10.231094360351562;-37.56770324707031;-132.1337432861328
340;1673427638.4576995;47.1298397;7.2395058;50.4170036315918;1673427638.5076778;-12.960626602172852;-40.10554504394531;-130.36721801757812
341;1673427638.6903372;47.1298387;7.2395096;50.427001953125;1673427638.7508707;-20.396564483642578;-38.85481262207031;-133.91641235351562
342;1673427638.8947191;47.129836499999996;7.2395128;50.42000198364258;1673427638.9478233;-28.22551727294922;-32.70329666137695;-136.09530639648438
343;1673427639.0850294;47.129833399999995;7.2395152;50.42900085449219;1673427639.1361628;-37.84193801879883;-25.894800186157227;-136.69984436035156
344;1673427639.2645767;47.129829199999996;7.2395157999999995;50.43400192260742;1673427639.3185606;-47.2380485534668;-17.359920501708984;-136.87815856933594
345;1673427639.4491003;47.1298238;7.2395134;50.43800354003906;1673427639.5111725;-53.753082275390625;-11.25091552734375;-136.5518798828125
346;1673427639.65953;47.1298172;7.239507199999999;50.44200134277344;1673427639.7256706;-57.80396270751953;-10.753973007202148;-136.728271484375
347;1673427639.8639593;47.1298094;7.2394970999999995;50.428001403808594;1673427639.9265516;-53.516727447509766;-5.215270042419434;-139.5568389892578
348;1673427640.0672417;47.1298007;7.239483399999999;50.406002044677734;1673427640.1276317;-48.43471145629883;-8.386275291442871;-140.58212280273438
349;1673427640.2606843;47.129791399999995;7.239466999999999;50.37300109863281;1673427640.316023;-49.584190368652344;-6.725560665130615;-142.0499267578125
350;1673427640.4673157;47.1297816;7.2394487;50.355003356933594;1673427640.5192037;-47.45058059692383;-10.820136070251465;-140.24549865722656
351;1673427640.6726966;47.1297709;7.2394281;50.345001220703125;1673427640.7314084;-50.41548156738281;-12.19709587097168;-140.27513122558594
352;1673427640.8794258;47.129760499999996;7.2394079;50.3380012512207;1673427640.9496336;-49.886531829833984;-13.945062637329102;-140.37933349609375
353;1673427641.084961;47.129749;7.239386;50.33400344848633;1673427641.130833;-50.816104888916016;-14.47394847869873;-140.02207946777344
354;1673427641.2801092;47.1297371;7.239363399999999;50.31900405883789;1673427641.3328288;-48.067569732666016;-14.278060913085938;-139.88433837890625
355;1673427641.5115712;47.1297242;7.2393395;50.27700424194336;1673427641.597139;-44.95433807373047;-14.369706153869629;-139.89212036132812
356;1673427641.7313385;47.1297121;7.2393171999999995;50.24500274658203;1673427641.7840889;-44.420291900634766;-15.724472999572754;-139.8012237548828
357;1673427641.903103;47.1296995;7.2392939;50.22700119018555;1673427641.9512181;-45.218929290771484;-15.716559410095215;-140.51441955566406
358;1673427642.0865316;47.1296867;7.239270599999999;50.220001220703125;1673427642.1403363;-45.4548454284668;-15.36681842803955;-140.76463317871094
359;1673427642.2769935;47.1296737;7.2392474;50.2140007019043;1673427642.3336873;-45.76714324951172;-15.433825492858887;-140.86813354492188
360;1673427642.4762728;47.1296606;7.2392240999999995;50.21000289916992;1673427642.5436177;-45.0654182434082;-15.420778274536133;-141.17388916015625
361;1673427642.6811743;47.129647399999996;7.2392009999999996;50.211002349853516;1673427642.7426672;-44.91636276245117;-15.54704475402832;-141.47288513183594
362;1673427642.8637805;47.129633999999996;7.239178;50.198001861572266;1673427642.9185438;-45.927974700927734;-18.54448127746582;-142.779052734375
363;1673427643.071883;47.129620499999994;7.239155299999999;50.195003509521484;1673427643.1330616;-46.67329025268555;-16.56601905822754;-153.37863159179688
364;1673427643.2810917;47.129606599999995;7.239133499999999;50.19300079345703;1673427643.3339105;-45.953102111816406;-10.431436538696289;-163.64720153808594
365;1673427643.4745512;47.1295925;7.2391127;50.18000411987305;1673427643.5340898;-45.35531997680664;-5.472654819488525;-172.19033813476562
366;1673427643.680923;47.1295784;7.2390931;50.165000915527344;1673427643.7552466;-43.164180755615234;0.6435109376907349;179.02114868164062
367;1673427643.90961;47.1295644;7.2390745999999995;50.14900207519531;1673427643.9584105;-42.13932418823242;7.683263301849365;170.27613830566406
368;1673427644.1078303;47.129550599999995;7.239057099999999;50.12300109863281;1673427644.1557834;-39.98393249511719;14.067556381225586;161.5727996826172
369;1673427644.315465;47.129537;7.2390402;50.099002838134766;1673427644.3662288;-37.00529861450195;16.83683204650879;152.91799926757812
370;1673427644.5063405;47.1295237;7.239024;50.066001892089844;1673427644.5629513;-35.942562103271484;10.623054504394531;144.49078369140625
371;1673427644.7007086;47.129511099999995;7.239009299999999;50.02100372314453;1673427644.7505765;-34.7606086730957;-18.363285064697266;136.01254272460938
372;1673427644.890444;47.1295003;7.238997599999999;49.970001220703125;1673427644.9442418;-28.314287185668945;-23.57120132446289;125.06988525390625
373;1673427645.0797641;47.1294921;7.2389890999999995;49.92100143432617;1673427645.135412;-17.097347259521484;-16.85120964050293;123.42070770263672
374;1673427645.2750099;47.1294866;7.2389826;49.87300109863281;1673427645.3341048;-11.039094924926758;-26.446754455566406;144.4617462158203
375;1673427645.4674392;47.1294841;7.238978299999999;49.897003173828125;1673427645.5216682;-9.946619033813477;-41.15814208984375;157.622802734375
376;1673427645.6401772;47.129483799999996;7.2389769;49.932003021240234;1673427645.6954038;-6.269237518310547;-41.59141159057617;166.31436157226562
377;1673427645.8278542;47.1294853;7.2389779999999995;49.96600341796875;1673427645.8870175;-5.3880839347839355;-42.49364471435547;178.2568817138672
378;1673427646.0236678;47.1294882;7.2389817999999995;50.02900314331055;1673427646.0842333;-6.958098888397217;-39.880741119384766;-170.23634338378906
379;1673427646.2195623;47.129491599999994;7.2389876;50.092002868652344;1673427646.2786572;-7.731125831604004;-35.229942321777344;-159.42665100097656
380;1673427646.4158754;47.1294951;7.2389943;50.12700271606445;1673427646.4737592;-9.670428276062012;-31.728239059448242;-150.24685668945312
381;1673427646.6294966;47.1294982;7.239001099999999;50.156002044677734;1673427646.6983716;-9.82243537902832;-30.4827938079834;-141.76406860351562
382;1673427646.8426685;47.1295006;7.239007699999999;50.17900085449219;1673427646.9126563;-8.72541332244873;-32.306732177734375;-133.30294799804688
383;1673427647.0589018;47.129502599999995;7.2390137;50.176002502441406;1673427647.1199632;-8.352879524230957;-34.3625373840332;-133.39132690429688
384;1673427647.2659683;47.129503899999996;7.239019099999999;50.18100357055664;1673427647.3267949;-12.451532363891602;-34.29479217529297;-136.71890258789062
385;1673427647.4935577;47.129504399999995;7.2390241;50.18600082397461;1673427647.5672536;-16.461502075195312;-33.61585998535156;-138.34649658203125
386;1673427647.6940224;47.1295042;7.2390284;50.178001403808594;1673427647.75453;-17.61678695678711;-32.918460845947266;-138.79234313964844
387;1673427647.8815417;47.129503199999995;7.2390323;50.189002990722656;1673427647.9339771;-19.283859252929688;-30.445302963256836;-138.7733154296875
388;1673427648.0727155;47.129501499999996;7.239035299999999;50.18400192260742;1673427648.1327903;-24.338695526123047;-26.828367233276367;-138.11399841308594
389;1673427648.307714;47.1294994;7.239037199999999;50.17000198364258;1673427648.3754086;-30.990249633789062;-22.760683059692383;-137.72128295898438
390;1673427648.5110824;47.129496499999995;7.2390374;50.172000885009766;1673427648.564782;-39.47932434082031;-16.889328002929688;-137.7454376220703
391;1673427648.6965284;47.129492899999995;7.2390352;50.172000885009766;1673427648.7580636;-46.17398452758789;-14.982061386108398;-137.73016357421875
392;1673427648.9254127;47.1294882;7.23903;50.173004150390625;1673427648.9742534;-54.14253616333008;-13.299059867858887;-138.59121704101562
393;1673427649.098373;47.129481999999996;7.2390215;50.18600082397461;1673427649.1472175;-58.429500579833984;-11.243125915527344;-139.8536834716797
394;1673427649.2879875;47.1294742;7.2390092;50.177001953125;1673427649.347038;-54.083274841308594;-9.97602367401123;-141.9551239013672
395;1673427649.4752;47.1294652;7.238994399999999;50.15500259399414;1673427649.5274725;-50.12206268310547;-8.49446964263916;-142.80296325683594
396;1673427649.6646454;47.1294555;7.2389775;50.13200378417969;1673427649.7228165;-47.85422897338867;-10.538138389587402;-141.6079559326172
397;1673427649.8609746;47.1294452;7.2389589999999995;50.10300064086914;1673427649.9221833;-50.839813232421875;-9.643110275268555;-141.82089233398438
398;1673427650.0644314;47.1294344;7.2389391;50.0780029296875;1673427650.1196783;-47.88473892211914;-12.138287544250488;-141.15870666503906
399;1673427650.27111;47.1294232;7.238918099999999;50.05900192260742;1673427650.3278005;-49.468746185302734;-13.19430923461914;-141.30528259277344
400;1673427650.4736547;47.129411499999996;7.2388962;50.03000259399414;1673427650.5274367;-47.48176193237305;-13.564393043518066;-141.48269653320312
401;1673427650.6774168;47.1293994;7.2388739;50.00400161743164;1673427650.73944;-46.36404037475586;-13.767614364624023;-142.1128387451172
402;1673427650.9065595;47.129387;7.2388512;49.98500061035156;1673427650.9553664;-46.372676849365234;-14.10519790649414;-142.83694458007812
403;1673427651.093349;47.129374299999995;7.2388283;49.974002838134766;1673427651.1645954;-45.97959518432617;-14.876023292541504;-143.69435119628906
404;1673427651.2966204;47.1293614;7.2388055;49.967002868652344;1673427651.3561563;-46.60397720336914;-15.865476608276367;-145.07720947265625
405;1673427651.539771;47.1293481;7.2387828;49.965003967285156;1673427651.5866148;-47.67595672607422;-18.395280838012695;-150.98965454101562
406;1673427651.730676;47.1293345;7.238760999999999;49.961002349853516;1673427651.7795274;-44.923553466796875;-11.75930404663086;-162.6435089111328
407;1673427651.9098358;47.1293206;7.238740399999999;49.95500183105469;1673427651.9665732;-44.61842727661133;-5.692243576049805;-171.25071716308594
408;1673427652.0914886;47.1293067;7.2387209;49.94900131225586;1673427652.146218;-43.9260139465332;-0.17841432988643646;-179.87860107421875
409;1673427652.2709467;47.129292799999995;7.238702399999999;49.93600082397461;1673427652.3277586;-42.59318161010742;4.242889881134033;171.27606201171875
410;1673427652.4554245;47.1292791;7.2386849;49.91400146484375;1673427652.506256;-40.4879264831543;6.185797691345215;162.86048889160156
411;1673427652.6355221;47.1292656;7.2386687;49.88600158691406;1673427652.6916056;-37.1247444152832;-3.638427972793579;154.6564483642578
412;1673427652.82897;47.129253;7.238654599999999;49.842002868652344;1673427652.8861299;-31.664133071899414;-20.45482063293457;144.80763244628906
413;1673427653.0253901;47.1292421;7.238643499999999;49.7920036315918;1673427653.0831668;-27.615461349487305;-22.813823699951172;131.92356872558594
414;1673427653.2469287;47.1292341;7.238636;49.759002685546875;1673427653.300365;-26.347415924072266;-23.968997955322266;130.1695556640625
415;1673427653.4347253;47.129228499999996;7.2386313;49.72300338745117;1673427653.490038;-16.288976669311523;-20.871156692504883;138.8230743408203
416;1673427653.6303344;47.1292252;7.2386288;49.730003356933594;1673427653.6913803;-16.63612174987793;-38.1456413269043;160.04830932617188
417;1673427653.830758;47.129224;7.238628899999999;49.803001403808594;1673427653.8875968;-19.58000946044922;-39.35724639892578;168.90234375
418;1673427654.022874;47.129224199999996;7.238632;49.874000549316406;1673427654.0806105;-13.542340278625488;-35.95866012573242;-179.112548828125
419;1673427654.2218707;47.129225299999995;7.238637;49.93000411987305;1673427654.2806697;-10.564595222473145;-30.924888610839844;-168.50625610351562
420;1673427654.4190686;47.1292268;7.2386425;49.974002838134766;1673427654.4757273;-13.057601928710938;-26.536514282226562;-158.79933166503906
421;1673427654.630826;47.1292283;7.2386482999999995;50.00100326538086;1673427654.699602;-14.018453598022461;-25.35036277770996;-149.98049926757812
