;pos_time;latitude;longitude;altitude;alt_time;pitch;roll;yaw
0;1673422910.4242737;47.1306425;7.2406201;-0.020000001415610313;1673422910.4941103;0.012527183629572392;-0.010450671426951885;90.01390075683594
1;1673422910.6176245;47.1306425;7.2406201;-0.017000000923871994;1673422910.68746;-0.05507175624370575;0.06510629504919052;90.01219940185547
2;1673422910.8109705;47.1306425;7.24062;-0.01600000075995922;1673422910.881783;-0.0751972571015358;0.08581069111824036;90.04501342773438
3;1673422911.01115;47.1306425;7.24062;-0.015000000596046448;1673422911.084931;-0.14357063174247742;-0.13985274732112885;89.9220199584961
4;1673422911.2064936;47.1306425;7.2406201;-0.020000001415610313;1673422911.2734;-0.06336814165115356;-0.09907734394073486;90.00555419921875
5;1673422911.399841;47.1306425;7.24062;-0.023000001907348633;1673422911.4716303;-0.08328939229249954;-0.1892472356557846;90.03445434570312
6;1673422911.599047;47.1306425;7.2406201;-0.024000000208616257;1673422911.6679046;0.021795066073536873;-0.15652933716773987;90.1368179321289
7;1673422911.799229;47.1306425;7.2406201;-0.024000000208616257;1673422911.8710132;0.01836070418357849;-0.08247720450162888;90.09498596191406
8;1673422911.9955049;47.1306425;7.24062;-0.023000001907348633;1673422912.0653894;-0.03270323574542999;0.037973709404468536;89.9622573852539
9;1673422912.1957343;47.1306425;7.24062;0.0;1673422912.2655668;-0.0984640046954155;-0.2271413505077362;90.13238525390625
10;1673422912.3910336;47.1306425;7.2406198999999996;0.0;1673422912.4598901;0.25217485427856445;0.018835561349987984;90.2210693359375
11;1673422912.5873125;47.1306425;7.2406198999999996;-0.0010000000474974513;1673422912.6600718;0.06779533624649048;-0.11613579094409943;89.9966812133789
12;1673422912.7845614;47.1306425;7.240619799999999;-0.004000000189989805;1673422912.8534167;-0.13861596584320068;-0.20287005603313446;90.1195068359375
13;1673422912.9798572;47.1306425;7.240619799999999;-0.003000000026077032;1673422913.0524557;-0.12013842165470123;-0.08753948658704758;90.11505126953125
14;1673422913.1814952;47.1306425;7.240619799999999;-0.003000000026077032;1673422913.251546;-0.0343024805188179;-0.08702262490987778;90.06634521484375
15;1673422913.3803596;47.130642599999995;7.240619799999999;-0.004000000189989805;1673422913.4513516;-0.057539839297533035;0.11718959361314774;89.98474884033203
16;1673422913.578581;47.130642599999995;7.240619799999999;-0.007000000216066837;1673422913.6486638;-0.07249073684215546;0.17229098081588745;90.02985382080078
17;1673422913.7795832;47.130642599999995;7.2406198999999996;-0.010000000707805157;1673422913.8526673;-0.14299827814102173;-0.547301173210144;90.04389190673828
18;1673422913.9825916;47.130642599999995;7.2406198999999996;-0.003000000026077032;1673422914.0539284;0.06527335196733475;0.09764908999204636;90.0501480102539
19;1673422914.179536;47.130642599999995;7.2406198999999996;-0.0010000000474974513;1673422914.2505298;0.09604085236787796;0.602415919303894;90.10997772216797
20;1673422914.3815727;47.130642599999995;7.240619799999999;0.0;1673422914.451521;0.05530631169676781;0.1364840567111969;89.74639892578125
21;1673422914.5795832;47.130642599999995;7.240619799999999;0.0;1673422914.6505373;-0.08866925537586212;0.03759676590561867;89.8139877319336
22;1673422914.7786922;47.130642599999995;7.2406198999999996;0.0;1673422914.850372;0.20329773426055908;0.324554979801178;90.03707122802734
23;1673422914.979595;47.130642599999995;7.2406198999999996;0.0020000000949949026;1673422915.0515716;0.11498934030532837;0.034018002450466156;90.10531616210938
24;1673422915.1806326;47.130642599999995;7.2406198999999996;0.0020000000949949026;1673422915.2505815;0.2883720099925995;0.0765356719493866;90.30606842041016
25;1673422915.3796234;47.1306425;7.2406198999999996;0.0;1673422915.4506793;0.27632901072502136;-0.20491357147693634;90.29051971435547
26;1673422915.579541;47.1306425;7.24062;0.0;1673422915.650584;0.3583800494670868;-0.2009766697883606;90.12077331542969
27;1673422915.7796087;47.1306425;7.24062;-0.0010000000474974513;1673422915.849594;0.3090129494667053;-0.12797148525714874;89.96595001220703
28;1673422915.979609;47.1306425;7.24062;0.0010000000474974513;1673422916.0515058;0.4865824282169342;-0.05916055291891098;89.46723937988281
29;1673422916.1795595;47.1306425;7.24062;0.010000000707805157;1673422916.2506566;0.45278865098953247;-0.6389257311820984;89.47918701171875
30;1673422916.3784087;47.1306425;7.2406198999999996;0.04000000283122063;1673422916.4481716;0.5670260190963745;2.1677815914154053;89.50926208496094
31;1673422916.5846376;47.1306425;7.2406198999999996;0.08900000154972076;1673422916.6544418;0.7291637659072876;-2.8800930976867676;89.76701354980469
32;1673422916.7834182;47.130642599999995;7.2406198999999996;0.15300001204013824;1673422916.853528;0.6682866811752319;1.5362874269485474;89.49575805664062
33;1673422916.983605;47.130642599999995;7.240619799999999;0.23100000619888306;1673422917.05545;0.26411744952201843;1.0250812768936157;89.66360473632812
34;1673422917.181891;47.1306425;7.2406197;0.32200002670288086;1673422917.2526991;-0.1922026127576828;-2.906508207321167;90.04948425292969
35;1673422917.3791385;47.1306424;7.2406197;0.4300000071525574;1673422917.4519007;-0.10271403193473816;2.1098461151123047;89.75525665283203
36;1673422917.5802925;47.1306424;7.240619799999999;0.5509999990463257;1673422917.6511006;0.5489588975906372;-1.162160873413086;89.8897705078125
37;1673422917.7804663;47.1306424;7.240619799999999;0.6840000152587891;1673422917.8503;0.7468146681785583;-2.388617753982544;89.88375854492188
38;1673422917.9757664;47.1306424;7.240619799999999;0.8300000429153442;1673422918.046138;0.6090373396873474;2.662799835205078;89.65391540527344
39;1673422918.1720781;47.1306424;7.240619799999999;0.9910000562667847;1673422918.2428875;-0.1450497806072235;-2.1210992336273193;90.09004974365234
40;1673422918.369328;47.1306423;7.240619799999999;1.1640000343322754;1673422918.4391615;-0.13519373536109924;-1.3814491033554077;90.0848617553711
41;1673422918.5675552;47.1306423;7.240619799999999;1.349000096321106;1673422918.6364317;0.28763720393180847;2.2648701667785645;89.8147964477539
42;1673422918.76385;47.1306424;7.2406198999999996;1.5360000133514404;1673422918.8336825;0.9558216333389282;-2.9660630226135254;91.15924835205078
43;1673422918.9601252;47.1306424;7.2406198999999996;1.724000096321106;1673422919.031914;0.72541743516922;0.28129392862319946;90.82234191894531
44;1673422919.159363;47.1306424;7.24062;1.91100013256073;1673422919.2311485;0.24674561619758606;1.3406301736831665;90.61997985839844
45;1673422919.3614943;47.1306424;7.24062;2.0990002155303955;1673422919.4313347;-0.060245051980018616;-3.4297726154327393;90.9948959350586
46;1673422919.560704;47.1306424;7.24062;2.2910001277923584;1673422919.6315317;0.17927075922489166;1.5088707208633423;90.52560424804688
47;1673422919.758948;47.1306425;7.2406198999999996;2.4870002269744873;1673422919.827807;0.7745941281318665;0.8872990608215332;90.54734802246094
48;1673422919.9571745;47.130642699999996;7.2406198999999996;2.687000036239624;1673422920.0279992;0.6493591070175171;-2.2462337017059326;90.52192687988281
49;1673422920.1564355;47.130642699999996;7.2406198999999996;2.8930001258850098;1673422920.2272475;0.22491422295570374;2.62005877494812;90.30365753173828
50;1673422920.3566139;47.130642699999996;7.240619799999999;3.0970001220703125;1673422920.4274275;-0.23677244782447815;-0.9383521676063538;90.47056579589844
51;1673422920.5548444;47.1306428;7.240619799999999;3.2950000762939453;1673422920.6236975;-0.13878369331359863;-0.8519380688667297;90.629638671875
52;1673422920.752091;47.1306429;7.240619799999999;3.495000123977661;1673422920.8277814;0.41794124245643616;3.308964490890503;90.3378677368164
53;1673422920.9591026;47.1306429;7.240619799999999;3.700000286102295;1673422921.0299108;0.6940029859542847;-1.5136141777038574;90.50125122070312
54;1673422921.1612675;47.1306428;7.240619799999999;3.9020001888275146;1673422921.2310996;0.688468337059021;-0.49001723527908325;90.51097869873047
55;1673422921.3614435;47.130642599999995;7.240619799999999;4.105000019073486;1673422921.4312787;-0.046383392065763474;2.101259231567383;90.46802520751953
56;1673422921.5616226;47.1306425;7.2406197;4.306000232696533;1673422921.6324325;-0.1877761036157608;-2.8513338565826416;90.79074096679688
57;1673422921.7598486;47.1306425;7.2406197;4.502000331878662;1673422921.8316338;0.004960584919899702;1.0356874465942383;90.53360748291016
58;1673422921.9649093;47.1306425;7.2406197;4.700000286102295;1673422922.034753;0.46669307351112366;1.2760876417160034;90.43082427978516
59;1673422922.1632001;47.1306424;7.2406197;4.903000354766846;1673422922.2340107;0.48667314648628235;-3.3763608932495117;90.55094909667969
60;1673422922.3633773;47.1306422;7.2406197;5.111000061035156;1673422922.435165;0.3489360809326172;1.3858025074005127;90.35745239257812
61;1673422922.5645401;47.1306422;7.2406196;5.319000244140625;1673422922.634373;0.12048883736133575;-0.6335570812225342;90.41471099853516
62;1673422922.7637482;47.1306422;7.2406196;5.525000095367432;1673422922.839435;-0.28727594017982483;-2.7156753540039062;90.66925048828125
63;1673422922.9668527;47.130642099999996;7.2406196;5.729000091552734;1673422923.0376658;-0.016566729173064232;2.237088203430176;90.30000305175781
64;1673422923.1660926;47.130642099999996;7.2406196;5.928000450134277;1673422923.2369032;0.2192673683166504;-1.394964575767517;90.41117858886719
65;1673422923.364318;47.130642099999996;7.2406196;6.124000072479248;1673422923.4351282;0.5080409646034241;-1.847326636314392;90.55716705322266
66;1673422923.562546;47.130642099999996;7.2406196;6.323000431060791;1673422923.633355;0.13202393054962158;2.46429443359375;90.34087371826172
67;1673422923.7627246;47.1306422;7.2406196;6.526000499725342;1673422923.8345113;-0.19048118591308594;-2.6159870624542236;90.68513488769531
68;1673422923.9716873;47.1306422;7.2406196;6.7300004959106445;1673422924.0415277;0.007300097960978746;0.26844513416290283;90.5399398803711
69;1673422924.1758103;47.1306422;7.2406197;6.938000202178955;1673422924.2563803;0.2622341513633728;2.292768716812134;90.39299774169922
70;1673422924.3925805;47.1306423;7.2406197;7.14400053024292;1673422924.4721756;0.5122535824775696;-3.1161446571350098;90.57976531982422
71;1673422924.6132598;47.1306423;7.2406197;7.348000526428223;1673422924.6889424;0.2070377767086029;1.7625287771224976;90.44473266601562
72;1673422924.8315377;47.1306424;7.2406197;7.555000305175781;1673422924.9008315;-0.12237077206373215;1.6751039028167725;90.55935668945312
73;1673422925.0248897;47.1306423;7.240619799999999;7.762000560760498;1673422925.09227;-0.01774248294532299;-2.9118268489837646;90.76206970214844
74;1673422925.2216423;47.1306423;7.240619799999999;7.968000411987305;1673422925.2924478;0.33477890491485596;2.257807970046997;90.42499542236328
75;1673422925.430165;47.1306423;7.2406198999999996;8.171000480651855;1673422925.507268;0.44604384899139404;-0.9120073914527893;90.33655548095703
76;1673422925.637173;47.1306423;7.24062;8.373000144958496;1673422925.704517;0.700336754322052;-2.1812541484832764;90.39502716064453
77;1673422925.8334515;47.1306423;7.2406201;8.572000503540039;1673422925.9056835;0.3409171998500824;2.6346278190612793;90.23423767089844
78;1673422926.0287452;47.1306422;7.2406201;8.773000717163086;1673422926.0995548;0.11884600669145584;-2.001424789428711;90.63603210449219
79;1673422926.2240787;47.1306422;7.2406201;8.976000785827637;1673422926.2982593;0.05996960401535034;-1.3246837854385376;90.62236785888672
80;1673422926.4291422;47.130642099999996;7.2406201;9.175000190734863;1673422926.5003886;0.2676321864128113;2.168088674545288;90.36836242675781
81;1673422926.6312902;47.130642099999996;7.2406201;9.373000144958496;1673422926.6976595;0.5142449736595154;-3.151005268096924;90.63668060302734
82;1673422926.8275666;47.1306422;7.24062;9.571000099182129;1673422926.898813;0.30386990308761597;0.44458943605422974;90.43463897705078
83;1673422927.029697;47.1306422;7.24062;9.767000198364258;1673422927.0970895;-0.14874199032783508;1.4028241634368896;90.54853057861328
84;1673422927.2196188;47.130642099999996;7.24062;9.964000701904297;1673422927.293354;-0.07622887194156647;-3.4628872871398926;90.8176040649414
85;1673422927.4281464;47.130642099999996;7.24062;10.163000106811523;1673422927.4993935;-0.19257166981697083;1.1899631023406982;90.3838119506836
86;1673422927.637112;47.1306422;7.24062;10.425000190734863;1673422927.7073815;0.19850414991378784;1.4963178634643555;90.47430419921875
87;1673422927.837287;47.1306423;7.2406201;10.779000282287598;1673422927.9114666;0.28626176714897156;-2.7902109622955322;90.66490173339844
88;1673422928.0403957;47.1306423;7.2406201;11.16200065612793;1673422928.1092508;0.35804483294487;1.4520671367645264;90.4156723022461
89;1673422928.2318232;47.1306423;7.2406201;11.556000709533691;1673422928.2962408;0.33868464827537537;0.4227117598056793;90.48793029785156
90;1673422928.4197602;47.1306424;7.2406201;11.955000877380371;1673422928.489588;0.05834956839680672;-2.8426125049591064;90.60932922363281
91;1673422928.614079;47.1306424;7.2406201;12.356000900268555;1673422928.6829329;0.028762031346559525;2.226468563079834;90.33378601074219
92;1673422928.807421;47.1306425;7.2406201;12.757000923156738;1673422928.8753066;0.1478767991065979;-0.3579338490962982;90.59156799316406
93;1673422929.001752;47.1306425;7.2406201;13.159000396728516;1673422929.0716178;0.38977867364883423;-1.9444079399108887;90.6420669555664
94;1673422929.196109;47.1306425;7.2406201999999995;13.563000679016113;1673422929.2669213;0.40053802728652954;2.478461742401123;90.33149719238281
95;1673422929.396291;47.1306425;7.2406201999999995;13.965001106262207;1673422929.4651532;0.3048333525657654;-1.71798837184906;90.57108306884766
96;1673422929.5925727;47.1306425;7.2406201999999995;14.36500072479248;1673422929.6624165;0.16677610576152802;-0.9595500826835632;90.56781005859375
97;1673422929.79081;47.130642599999995;7.2406201;14.767001152038574;1673422929.8596666;0.19641399383544922;2.461477041244507;90.32560729980469
98;1673422929.9871008;47.130642599999995;7.2406201;15.171000480651855;1673422930.056486;0.2813502550125122;-2.2631452083587646;90.60994720458984
99;1673422930.182429;47.1306425;7.2406201;15.580000877380371;1673422930.2551954;0.17691107094287872;-0.1427038460969925;90.4899673461914
100;1673422930.3816392;47.1306425;7.2406201;15.985000610351562;1673422930.4505024;0.24125045537948608;1.9552702903747559;90.37753295898438
101;1673422930.5779264;47.1306425;7.2406201;16.391000747680664;1673422930.64776;0.2508442997932434;-2.619605541229248;90.7013931274414
102;1673422930.7742093;47.1306425;7.2406201;16.799001693725586;1673422930.8450236;0.26772385835647583;1.0910203456878662;90.50897979736328
103;1673422930.9792736;47.1306424;7.2406201;17.204999923706055;1673422931.0491126;0.1419597715139389;1.0376293659210205;90.38207244873047
104;1673422931.1765602;47.1306424;7.2406201;17.612001419067383;1673422931.249326;0.028911549597978592;-3.3097915649414062;90.54960632324219
105;1673422931.3757706;47.1306424;7.2406201;18.018001556396484;1673422931.4495087;0.29731374979019165;1.5633820295333862;90.373291015625
106;1673422931.5779047;47.1306424;7.2406201;18.424001693725586;1673422931.6487246;0.2032320350408554;0.2571060359477997;90.45642852783203
107;1673422931.7761497;47.1306424;7.2406201;18.834001541137695;1673422931.8459833;0.14977937936782837;-2.5621249675750732;90.5993881225586
108;1673422931.9743752;47.1306424;7.2406201;19.24700164794922;1673422932.045185;0.34246575832366943;2.174591302871704;90.31200408935547
109;1673422932.172653;47.1306424;7.24062;19.655000686645508;1673422932.246389;0.23233944177627563;-0.7529937624931335;90.51809692382812
110;1673422932.3738077;47.1306424;7.24062;20.064001083374023;1673422932.445603;0.11438962817192078;-2.170283079147339;90.61023712158203
111;1673422932.5739987;47.1306424;7.24062;20.477001190185547;1673422932.6458235;-0.16216373443603516;2.5384321212768555;90.29663848876953
112;1673422932.7732754;47.1306424;7.24062;20.894001007080078;1673422932.8431127;0.08864393085241318;-1.433353304862976;90.59081268310547
113;1673422932.970532;47.1306425;7.24062;21.310001373291016;1673422933.0413418;0.055743101984262466;-0.8623949289321899;90.5449447631836
114;1673422933.1707933;47.1306425;7.24062;21.727001190185547;1673422933.240612;0.22173376381397247;2.362354278564453;90.30503845214844
115;1673422933.3690236;47.1306425;7.24062;22.1460018157959;1673422933.4389064;0.310865193605423;-2.451777696609497;90.615966796875
116;1673422933.5692515;47.130642599999995;7.2406201;22.5570011138916;1673422933.641037;0.27835285663604736;0.3103305697441101;90.46795654296875
117;1673422933.7713833;47.130642599999995;7.2406201;22.963001251220703;1673422933.8412147;0.20891737937927246;2.1486146450042725;90.3453369140625
118;1673422933.9705882;47.130642699999996;7.2406201;23.36600112915039;1673422934.0404491;0.14860105514526367;-2.444420099258423;90.75407409667969
119;1673422934.1688995;47.130642699999996;7.24062;23.770000457763672;1673422934.2407556;0.08387530595064163;0.8945373892784119;90.57392120361328
120;1673422934.3711665;47.130642699999996;7.24062;24.176000595092773;1673422934.4429898;0.2383500635623932;1.2691209316253662;90.40939331054688
121;1673422934.5733414;47.130642699999996;7.24062;24.5830020904541;1673422934.647082;0.16296179592609406;-2.60555362701416;90.62638854980469
122;1673422934.773529;47.130642699999996;7.24062;24.98200035095215;1673422934.8453193;0.11215923726558685;2.385178327560425;90.38768005371094
123;1673422934.9717968;47.1306428;7.24062;25.382001876831055;1673422935.0445983;0.09677200019359589;0.46910685300827026;90.45748138427734
124;1673422935.1701024;47.130642699999996;7.24062;25.782001495361328;1673422935.2409108;0.27813535928726196;-2.42104172706604;90.64989471435547
125;1673422935.3694077;47.130642699999996;7.24062;26.189001083374023;1673422935.4402263;0.13882020115852356;1.784440040588379;90.4283447265625
126;1673422935.5686164;47.130642699999996;7.24062;26.584001541137695;1673422935.6394312;0.1690530627965927;0.6345478296279907;90.46347045898438
127;1673422935.7648883;47.130642699999996;7.24062;26.977001190185547;1673422935.8347204;0.13953246176242828;-2.489713191986084;90.70600128173828
128;1673422935.9650872;47.130642699999996;7.24062;27.375001907348633;1673422936.0349138;0.11317753791809082;0.9805060625076294;90.48798370361328
129;1673422936.1643186;47.130642599999995;7.24062;27.7710018157959;1673422936.2361443;0.07926297932863235;1.4957647323608398;90.38973236083984
130;1673422936.3645666;47.1306424;7.2406198999999996;28.168001174926758;1673422936.4363475;0.1389608532190323;-3.336418390274048;90.62999725341797
131;1673422936.5637698;47.1306424;7.24062;28.57200050354004;1673422936.635624;0.24739347398281097;-1.3202873468399048;90.56629180908203
132;1673422936.7640283;47.1306424;7.2406198999999996;28.974000930786133;1673422936.8348336;0.3332841396331787;2.5860118865966797;90.3369140625
133;1673422936.9651845;47.130642599999995;7.2406198999999996;29.376001358032227;1673422937.0335073;0.16378676891326904;-1.2822819948196411;90.62738037109375
134;1673422937.1644256;47.130642699999996;7.2406198999999996;29.777002334594727;1673422937.2337222;0.06922467797994614;-0.8263294696807861;90.57063293457031
135;1673422937.364602;47.130642699999996;7.2406198999999996;30.172000885009766;1673422937.4354055;-0.10122345387935638;2.45601487159729;90.22216796875
136;1673422937.5638006;47.130642699999996;7.2406198999999996;30.566001892089844;1673422937.634075;0.1316995471715927;-0.6338496208190918;90.47977447509766
137;1673422937.7698696;47.130642599999995;7.2406198999999996;30.96000099182129;1673422937.8406816;0.025107774883508682;-2.315487861633301;90.5789794921875
138;1673422937.9710572;47.130642699999996;7.24062;31.35300064086914;1673422938.0418634;0.19765004515647888;2.425847291946411;90.34149932861328
139;1673422938.1694098;47.1306428;7.24062;31.746002197265625;1673422938.2461345;0.11437281966209412;1.3317784070968628;90.3366470336914
140;1673422938.3764822;47.1306429;7.24062;32.1400032043457;1673422938.466823;0.31589120626449585;-1.9654576778411865;90.7267074584961
141;1673422938.6109064;47.1306428;7.2406198999999996;32.53900146484375;1673422938.6856189;0.10290388762950897;1.6381993293762207;90.5075912475586
142;1673422938.8140106;47.130642699999996;7.2406198999999996;32.935001373291016;1673422938.8907423;0.1535966694355011;1.3116625547409058;90.44729614257812
143;1673422939.0240712;47.130642599999995;7.240619799999999;33.33400344848633;1673422939.0973623;0.10141416639089584;-2.9075429439544678;90.67929077148438
144;1673422939.2233343;47.1306425;7.240619799999999;33.73100280761719;1673422939.294203;-0.17288677394390106;-0.04831044375896454;90.46409606933594
145;1673422939.4378312;47.130642599999995;7.240619799999999;34.12700271606445;1673422939.504215;-0.09299209713935852;2.147136688232422;90.39104461669922
146;1673422939.6296732;47.130642699999996;7.2406197;34.5260009765625;1673422939.7004771;-0.23044611513614655;-1.8423206806182861;90.64311981201172
147;1673422939.82791;47.130642699999996;7.240619799999999;34.92399978637695;1673422939.897792;0.07204239815473557;-0.34244465827941895;90.54802703857422
148;1673422940.020429;47.130642699999996;7.240619799999999;35.31800079345703;1673422940.0889304;0.12853646278381348;2.524585485458374;90.32075500488281
149;1673422940.2177956;47.130642599999995;7.240619799999999;35.71200180053711;1673422940.2896705;0.12481912225484848;-1.7052206993103027;90.52607727050781
150;1673422940.4162385;47.130642599999995;7.240619799999999;36.111000061035156;1673422940.4841936;0.34470584988594055;-1.7278366088867188;90.506103515625
151;1673422940.6096637;47.130642599999995;7.2406198999999996;36.51100158691406;1673422940.6814494;0.3726104497909546;2.5039308071136475;90.37635803222656
152;1673422940.8079054;47.130642699999996;7.2406198999999996;36.91100311279297;1673422940.8767433;0.37792688608169556;-0.16246208548545837;90.62043762207031
153;1673422941.0013454;47.130642699999996;7.24062;37.30800247192383;1673422941.0726926;0.08532541990280151;-1.9410879611968994;90.572021484375
154;1673422941.2006173;47.130642699999996;7.24062;37.704002380371094;1673422941.269476;0.06072241812944412;2.0797858238220215;90.25703430175781
155;1673422941.3979397;47.130642699999996;7.2406201;38.095001220703125;1673422941.4687846;-0.13442887365818024;0.49851056933403015;90.43067169189453
156;1673422941.5971518;47.130642599999995;7.2406201;38.49100112915039;1673422941.666067;-0.017882714048027992;-2.698560953140259;90.77761840820312
157;1673422941.798358;47.130642699999996;7.2406201;38.893001556396484;1673422941.866303;0.07399481534957886;1.4733567237854004;90.47563171386719
158;1673422942.0005705;47.1306428;7.2406201999999995;39.29500198364258;1673422942.076892;0.13552643358707428;1.550001621246338;90.43492126464844
159;1673422942.2126634;47.1306429;7.2406201;39.70000076293945;1673422942.2894971;0.24467913806438446;-2.2931931018829346;90.5943374633789
160;1673422942.423748;47.130643;7.2406201;40.10700225830078;1673422942.4965155;0.12028723955154419;1.1563084125518799;90.47349548339844
161;1673422942.625893;47.1306429;7.2406201;40.50600051879883;1673422942.694779;0.24716491997241974;2.2612152099609375;90.47401428222656
162;1673422942.819268;47.1306428;7.2406201;40.90400314331055;1673422942.8881543;0.049798913300037384;-2.380347967147827;90.6844253540039
163;1673422943.0145912;47.1306428;7.2406201;41.30400085449219;1673422943.0840542;-0.11664295196533203;-0.43855029344558716;90.5131607055664
164;1673422943.2129273;47.1306429;7.2406201;41.704002380371094;1673422943.2837694;-0.12486650794744492;2.777276039123535;90.27085876464844
165;1673422943.4102085;47.130643;7.2406201;42.10300064086914;1673422943.4800518;-0.2525765001773834;-0.4572353661060333;90.58259582519531
166;1673422943.6094806;47.130643;7.2406201;42.50100326538086;1673422943.6940148;-0.07096413522958755;-1.5976897478103638;90.68472290039062
167;1673422943.827267;47.1306429;7.2406201;42.89600372314453;1673422943.9049256;0.3220358192920685;2.6362504959106445;90.33866882324219
168;1673422944.0313537;47.1306428;7.2406201;43.28300094604492;1673422944.1046836;0.5219013690948486;-0.7255991697311401;90.47869110107422
169;1673422944.2384343;47.1306428;7.2406201;43.67500305175781;1673422944.3160746;0.44367706775665283;-2.244828224182129;90.46540832519531
170;1673422944.4459934;47.1306428;7.2406201999999995;44.07100296020508;1673422944.5211444;0.3379450738430023;2.376652479171753;90.40229797363281
171;1673422944.653978;47.1306429;7.2406201;44.46600341796875;1673422944.722311;0.08652283996343613;0.5641883611679077;90.51612091064453
172;1673422944.8419108;47.130643;7.2406201;44.85900115966797;1673422944.908828;0.01741047203540802;-2.156879425048828;90.747314453125
173;1673422945.035273;47.130643;7.2406201;45.25600051879883;1673422945.1048741;-0.007206863258033991;1.3246257305145264;90.40220642089844
174;1673422945.2298348;47.1306429;7.2406201;45.64900207519531;1673422945.2996666;0.10647619515657425;2.0387799739837646;90.40950012207031
175;1673422945.4251323;47.1306428;7.2406201;46.04300308227539;1673422945.4939926;0.18151535093784332;-2.6416726112365723;90.56293487548828
176;1673422945.6184838;47.1306428;7.24062;46.43800354003906;1673422945.6873453;0.2907879650592804;0.05487317219376564;90.55501556396484
177;1673422945.81476;47.1306429;7.24062;46.83400344848633;1673422945.8855708;0.4714221954345703;2.5484509468078613;90.50601196289062
178;1673422946.012016;47.130643;7.2406198999999996;47.22900390625;1673422946.081894;0.17741811275482178;-1.4407099485397339;90.62494659423828
179;1673422946.2112656;47.130643;7.2406198999999996;47.624000549316406;1673422946.2801206;0.17633579671382904;-0.912919819355011;90.4305419921875
180;1673422946.4055839;47.130643;7.2406198999999996;48.0160026550293;1673422946.4744432;-0.3064102530479431;1.5862512588500977;90.50552368164062
181;1673422946.602837;47.1306429;7.2406198999999996;48.3650016784668;1673422946.6726692;-0.1827487051486969;-0.8682503700256348;90.51455688476562
182;1673422946.7991138;47.1306429;7.2406198999999996;48.66800308227539;1673422946.868949;-0.06737267225980759;-1.5932055711746216;90.56396484375
183;1673422946.9952104;47.1306429;7.2406198999999996;48.923004150390625;1673422947.0663764;-0.04586077108979225;3.1473588943481445;90.31488800048828
184;1673422947.1947758;47.130643;7.2406198999999996;49.13600158691406;1673422947.26461;-0.019550001248717308;-0.8306365609169006;90.55472564697266
185;1673422947.3910694;47.130643;7.2406198999999996;49.30800247192383;1673422947.4619014;3.8202779293060303;0.9705846905708313;90.83149719238281
186;1673422947.5883403;47.1306429;7.240619799999999;49.45500183105469;1673422947.6581762;20.348722457885742;20.862489700317383;97.99531555175781
187;1673422947.7865193;47.1306419;7.2406182;49.5890007019043;1673422947.8583066;26.784587860107422;39.56932067871094;109.76890563964844
188;1673422947.9867008;47.1306394;7.240614;49.702003479003906;1673422948.0580587;26.12718391418457;52.46390151977539;118.686279296875
189;1673422948.186926;47.130634699999995;7.2406064;49.775001525878906;1673422948.2577343;10.53821086883545;52.39155578613281;127.4227294921875
190;1673422948.3871045;47.1306279;7.2405957;49.814002990722656;1673422948.4569366;-4.437488079071045;52.78907775878906;137.96949768066406
191;1673422948.5863054;47.1306194;7.2405824999999995;49.84100341796875;1673422948.657113;-19.404640197753906;49.36763000488281;148.47837829589844
192;1673422948.78746;47.1306091;7.2405672;49.85600280761719;1673422948.8582723;-33.730403900146484;44.356380462646484;160.60450744628906
193;1673422948.9866676;47.130597099999996;7.2405498999999995;49.86600112915039;1673422949.057528;-45.695960998535156;41.023189544677734;172.95443725585938
194;1673422949.1859171;47.1305834;7.2405306;49.871002197265625;1673422949.2577028;-54.37004089355469;34.91117477416992;-173.9986572265625
195;1673422949.3861005;47.1305682;7.240508999999999;49.84600067138672;1673422949.4559329;-49.926490783691406;23.978193283081055;-165.054443359375
196;1673422949.585306;47.1305519;7.2404858999999995;49.798004150390625;1673422949.6570985;-46.77491760253906;18.709501266479492;-159.94338989257812
197;1673422949.7864673;47.130534999999995;7.240461799999999;49.75200271606445;1673422949.8562999;-49.63939666748047;14.121529579162598;-153.28372192382812
198;1673422949.9856668;47.1305176;7.240437;49.71600341796875;1673422950.0555143;-47.86509704589844;8.695206642150879;-145.6291046142578
199;1673422950.1868703;47.130499799999996;7.2404116;49.68800354003906;1673422950.2576818;-47.05952453613281;4.592566967010498;-139.27908325195312
200;1673422950.3860738;47.130482;7.240385799999999;49.663002014160156;1673422950.4578636;-47.531463623046875;1.0094542503356934;-133.11920166015625
201;1673422950.584307;47.1304641;7.2403597;49.6410026550293;1673422950.6580458;-46.78094482421875;-6.091101169586182;-131.0947723388672
202;1673422950.785467;47.1304461;7.2403334;49.630001068115234;1673422950.8562768;-46.72601318359375;-5.732758522033691;-134.16175842285156
203;1673422950.9866235;47.1304276;7.2403073;49.63200378417969;1673422951.056466;-46.793670654296875;-4.129769802093506;-136.3351287841797
204;1673422951.1829417;47.1304089;7.240281599999999;49.64400100708008;1673422951.2537727;-48.595706939697266;-3.241243362426758;-137.0557098388672
205;1673422951.384111;47.1303899;7.240256;49.663002014160156;1673422951.4558904;-48.78256607055664;-1.5954848527908325;-137.85745239257812
206;1673422951.5842974;47.1303707;7.2402305;49.68600082397461;1673422951.6531584;-48.93525314331055;-0.4943895637989044;-138.19503784179688
207;1673422951.7844872;47.1303513;7.2402051;49.704002380371094;1673422951.8543422;-49.4517822265625;0.32826367020606995;-138.3815460205078
208;1673422951.982732;47.1303317;7.2401795;49.71600341796875;1673422952.0555062;-48.66057205200195;0.5863275527954102;-138.279296875
209;1673422952.1839426;47.130311899999995;7.2401537;49.730003356933594;1673422952.2547543;-48.06843185424805;0.6769632697105408;-138.15609741210938
210;1673422952.384125;47.1302922;7.2401278;49.742000579833984;1673422952.4598167;-48.03415298461914;0.5536478161811829;-137.90255737304688
211;1673422952.589189;47.130272399999996;7.2401019;49.75200271606445;1673422952.6629267;-47.91128158569336;0.354220986366272;-137.65640258789062
212;1673422952.7932744;47.1302526;7.2400759;49.76300048828125;1673422952.8709185;-48.206825256347656;0.45026636123657227;-137.61090087890625
213;1673422952.999312;47.130232799999995;7.2400497999999995;49.77000045776367;1673422953.0740695;-48.09138488769531;0.48743101954460144;-137.5076141357422
214;1673422953.2024636;47.1302131;7.2400237;49.78000259399414;1673422953.2742496;-47.99111557006836;0.3618108034133911;-137.38119506835938
215;1673422953.4036195;47.1301935;7.2399976;49.7920036315918;1673422953.4744303;-48.21089172363281;0.3127145767211914;-137.29380798339844
216;1673422953.6037996;47.130173799999994;7.2399714;49.80600357055664;1673422953.675591;-48.487274169921875;0.3119986355304718;-137.2257080078125
217;1673422953.8039834;47.1301542;7.239945;49.81800079345703;1673422953.8738165;-48.576255798339844;0.2374231517314911;-137.18519592285156
218;1673422954.0031867;47.1301345;7.239918599999999;49.82600402832031;1673422954.074554;-48.30580139160156;0.13674414157867432;-137.10044860839844
219;1673422954.2034223;47.1301148;7.239891999999999;49.83100128173828;1673422954.2742474;-48.1652717590332;0.09509245306253433;-137.07257080078125
220;1673422954.4006882;47.1300951;7.2398655;49.83000183105469;1673422954.4705207;-47.857276916503906;0.14651265740394592;-137.03668212890625
221;1673422954.5969615;47.1300755;7.2398389;49.829002380371094;1673422954.6667962;-47.608760833740234;0.11657202243804932;-137.00927734375
222;1673422954.7942119;47.130055899999995;7.2398124;49.832000732421875;1673422954.8650258;-47.90076446533203;0.090357206761837;-137.01329040527344
223;1673422954.994396;47.1300363;7.2397857;49.836002349853516;1673422955.0672035;-48.20231628417969;0.04382988065481186;-136.97926330566406
224;1673422955.19365;47.1300167;7.2397591;49.84300231933594;1673422955.2673874;-48.391544342041016;0.047042395919561386;-136.9788055419922
225;1673422955.3948212;47.1299971;7.2397325;49.85000228881836;1673422955.4666047;-48.40594482421875;0.1469341367483139;-137.00791931152344
226;1673422955.594999;47.129977499999995;7.239705799999999;49.85300064086914;1673422955.667764;-48.20448684692383;0.001263095997273922;-136.92918395996094
227;1673422955.7961595;47.1299579;7.2396791;49.85700225830078;1673422955.8660052;-48.11524200439453;0.04046902805566788;-136.96693420410156
228;1673422955.9934223;47.1299384;7.2396524;49.86000061035156;1673422956.063805;-48.20328903198242;0.014465059153735638;-136.9263458251953
229;1673422956.1965792;47.1299188;7.2396258;49.86100387573242;1673422956.267392;-48.19245529174805;0.07782996445894241;-136.940673828125
230;1673422956.3938375;47.1298992;7.2395990999999995;49.86100387573242;1673422956.4656224;-48.01305389404297;0.09044402837753296;-136.957763671875
231;1673422956.593043;47.1298797;7.239572399999999;49.862003326416016;1673422956.6638672;-48.0391960144043;0.03801887482404709;-136.94155883789062
232;1673422956.7951899;47.129860099999995;7.2395457;49.86100387573242;1673422956.8650255;-48.067447662353516;0.058573585003614426;-136.9413604736328
233;1673422956.9943926;47.1298406;7.239518899999999;49.85900115966797;1673422957.0652473;-47.91227340698242;0.06852938234806061;-136.93399047851562
234;1673422957.1926622;47.129821;7.2394922;49.86000061035156;1673422957.262512;-47.97115707397461;0.0400550402700901;-136.94686889648438
235;1673422957.388952;47.1298015;7.239465399999999;49.8640022277832;1673422957.4617193;-48.27090835571289;0.08930893987417221;-136.94873046875
236;1673422957.5920634;47.1297819;7.2394386;49.86900329589844;1673422957.6648405;-48.51164627075195;0.06133294105529785;-136.92701721191406
237;1673422957.7942119;47.1297624;7.2394118;49.874000549316406;1673422957.8659997;-48.42683410644531;0.0807306244969368;-136.96029663085938
238;1673422957.994403;47.129742799999995;7.2393849999999995;49.880001068115234;1673422958.064784;-48.293514251708984;0.026350513100624084;-136.94007873535156
239;1673422958.1926754;47.1297232;7.2393582;49.884002685546875;1673422958.2654371;-48.24607849121094;0.011820703744888306;-136.9342041015625
240;1673422958.3928788;47.1297037;7.2393313;49.884002685546875;1673422958.4646666;-48.19569396972656;0.011299312114715576;-136.93858337402344
241;1673422958.593061;47.1296841;7.2393044;49.884002685546875;1673422958.6658216;-48.03285598754883;-0.029393523931503296;-136.95933532714844
242;1673422958.7942119;47.1296645;7.2392775;49.887001037597656;1673422958.8650208;-48.01465606689453;-0.11552885174751282;-136.93104553222656
243;1673422958.9934142;47.129645;7.2392506;49.8900032043457;1673422959.065284;-48.184364318847656;-0.053193122148513794;-136.97523498535156
244;1673422959.1936798;47.129625399999995;7.2392237999999995;49.893001556396484;1673422959.2654676;-48.287776947021484;0.05576946958899498;-137.01597595214844
245;1673422959.3938622;47.1296058;7.2391969;49.89800262451172;1673422959.4646714;-48.18704605102539;0.029717477038502693;-136.97421264648438
246;1673422959.5950181;47.1295861;7.2391701;49.90400314331055;1673422959.665828;-48.21965789794922;0.09221544116735458;-137.0031280517578
247;1673422959.796195;47.129566499999996;7.2391432;49.90500259399414;1673422959.8679812;-47.91850662231445;0.018808357417583466;-136.95294189453125
248;1673422959.996379;47.1295469;7.2391163999999995;49.906002044677734;1673422960.0667799;-47.784236907958984;0.0076212952844798565;-136.94210815429688
249;1673422960.1956472;47.1295273;7.2390894999999995;49.90900421142578;1673422960.2664566;-47.865020751953125;0.0501997172832489;-136.97824096679688
250;1673422960.3968039;47.1295077;7.2390627;49.915000915527344;1673422960.466641;-48.10916519165039;0.045780882239341736;-136.93585205078125
251;1673422960.5950356;47.129488099999996;7.239035899999999;49.92100143432617;1673422960.6678007;-48.3487548828125;0.10337094217538834;-136.95660400390625
252;1673422960.796195;47.1294684;7.239008999999999;49.92400360107422;1673422960.8670068;-48.18548583984375;0.1669667363166809;-136.9641571044922
253;1673422960.994442;47.1294488;7.2389822;49.927001953125;1673422961.066282;-47.971153259277344;0.02121475525200367;-136.88748168945312
254;1673422961.195655;47.1294292;7.2389553;49.93100357055664;1673422961.2674422;-47.91665267944336;-0.1497788280248642;-136.8683624267578
255;1673422961.395837;47.129409599999995;7.2389285;49.93600082397461;1673422961.4666493;-48.531532287597656;1.2534666061401367;-137.274658203125
256;1673422961.5960202;47.129390099999995;7.238901599999999;49.94000244140625;1673422961.6678064;-47.99503707885742;-0.48183512687683105;-136.64114379882812
257;1673422961.7971766;47.1293705;7.238874699999999;49.94600296020508;1673422961.8670115;-47.88209533691406;-0.3667609393596649;-136.79991149902344
258;1673422961.9963827;47.129351;7.2388479;49.9530029296875;1673422962.0687647;-48.28846740722656;-0.40081122517585754;-136.77438354492188
259;1673422962.1995852;47.1293314;7.238821;49.958003997802734;1673422962.2704082;-48.317283630371094;-0.30338531732559204;-136.8902130126953
260;1673422962.3998368;47.129311799999996;7.2387942;49.965003967285156;1673422962.4716861;-47.74883270263672;-0.1111561581492424;-136.92178344726562
261;1673422962.60015;47.1292921;7.238767299999999;49.97800064086914;1673422962.6719747;-39.89451599121094;-0.40370675921440125;-136.6055450439453
262;1673422962.798429;47.1292727;7.2387407999999995;50.009002685546875;1673422962.8712046;-26.75420379638672;0.11648459732532501;-136.556884765625
263;1673422962.9995995;47.129253999999996;7.2387155;50.03000259399414;1673422963.0709553;-10.036479949951172;0.7195094227790833;-136.48361206054688
264;1673422963.1988497;47.1292368;7.2386921;50.03900146484375;1673422963.2696652;3.0029590129852295;0.10980547964572906;-136.07452392578125
265;1673422963.3990474;47.129221699999995;7.2386715;50.03400421142578;1673422963.469859;10.873620986938477;-0.20878274738788605;-135.9346160888672
266;1673422963.5992355;47.1292088;7.2386539999999995;50.00300216674805;1673422963.668093;16.861555099487305;3.541123628616333;-138.45420837402344
267;1673422963.798442;47.129198099999996;7.2386393;49.92000198364258;1673422963.8692532;17.828838348388672;2.7959468364715576;-138.30615234375
268;1673422963.998624;47.129189499999995;7.2386276;49.816001892089844;1673422964.0694351;14.932199478149414;3.426656723022461;-136.60012817382812
269;1673422964.1997814;47.129183;7.2386184;49.743003845214844;1673422964.2696157;14.363469123840332;0.7326813340187073;-136.09263610839844
270;1673422964.3999639;47.1291781;7.2386113;49.71200180053711;1673422964.4688234;6.541172981262207;-2.3007748126983643;-137.44845581054688
271;1673422964.5991669;47.1291745;7.238605799999999;49.702003479003906;1673422964.6719286;-2.487292766571045;-2.785957098007202;-137.84205627441406
272;1673422964.7983704;47.1291714;7.2386012;49.711002349853516;1673422964.8691828;-9.56031608581543;2.1290853023529053;-138.012939453125
273;1673422964.997579;47.1291685;7.2385969999999995;49.7400016784668;1673422965.0684307;-10.836788177490234;2.949159622192383;-137.86868286132812
274;1673422965.1977997;47.1291656;7.2385928999999996;49.78600311279297;1673422965.2686095;-8.845081329345703;0.27912354469299316;-137.48190307617188
275;1673422965.399929;47.1291626;7.2385888;49.84400177001953;1673422965.469764;-6.966916084289551;-1.5778234004974365;-137.2110595703125
276;1673422965.5981581;47.129159699999995;7.2385847;49.90200424194336;1673422965.6680043;-5.932601451873779;-2.1507534980773926;-136.813720703125
277;1673422965.7973728;47.1291568;7.2385809;49.95100402832031;1673422965.868186;-4.87460470199585;-1.9398043155670166;-136.63446044921875
278;1673422965.9985304;47.129154;7.2385772;50.00100326538086;1673422966.0703647;-22.88758659362793;0.27284130454063416;-137.4478302001953
279;1673422966.1977854;47.1291508;7.2385731;50.08500289916992;1673422966.2676203;-25.273832321166992;0.7676857113838196;-137.31021118164062
280;1673422966.396996;47.129146899999995;7.2385679;50.215003967285156;1673422966.467807;-16.579973220825195;1.8683885335922241;-138.0972442626953
281;1673422966.5971758;47.1291424;7.2385622;50.415000915527344;1673422966.668965;-17.304851531982422;4.9216694831848145;-138.4502716064453
282;1673422966.796382;47.1291376;7.238556;50.70100402832031;1673422966.8691475;-18.53034210205078;3.548874855041504;-138.0006103515625
283;1673422966.9975448;47.1291325;7.238549;51.052001953125;1673422967.0693758;-41.537109375;0.7847397327423096;-138.24758911132812
284;1673422967.1977663;47.1291265;7.2385402;51.4160041809082;1673422967.268586;-43.80259323120117;-2.776097297668457;-136.42755126953125
285;1673422967.3969722;47.1291186;7.2385293;51.7910041809082;1673422967.4697356;-40.30876159667969;-1.3841532468795776;-136.05889892578125
286;1673422967.5961778;47.1291097;7.238516799999999;52.156002044677734;1673422967.6699164;-35.772579193115234;-1.0961982011795044;-136.45127868652344
287;1673422967.7983131;47.1291;7.238503499999999;52.51400375366211;1673422967.8691247;-31.155567169189453;0.7801827192306519;-136.6913299560547
288;1673422967.9965413;47.1290899;7.238489599999999;52.86900329589844;1673422968.067396;-27.634950637817383;2.227311849594116;-137.16717529296875
289;1673422968.1967678;47.1290796;7.2384755;53.224002838134766;1673422968.2695305;-25.02849578857422;2.6045167446136475;-137.23617553710938
290;1673422968.3959732;47.1290694;7.2384613;53.58100128173828;1673422968.4662461;-23.977405548095703;1.8011468648910522;-137.34716796875
291;1673422968.5961523;47.129059399999996;7.2384473;53.94200134277344;1673422968.6664295;-23.771713256835938;0.33309027552604675;-137.46267700195312
292;1673422968.7963355;47.1290494;7.2384334;54.30900192260742;1673422968.8656359;-23.597900390625;-1.196100115776062;-137.32894897460938
293;1673422968.9965143;47.1290397;7.2384197;54.68000411987305;1673422969.068349;-23.887937545776367;-1.6962229013442993;-137.27334594726562
294;1673422969.1967459;47.1290299;7.2384059999999995;55.05600357055664;1673422969.2670236;-24.25926399230957;-0.7866193056106567;-137.60797119140625
295;1673422969.3940036;47.1290203;7.2383925;55.435001373291016;1673422969.4652545;-24.648780822753906;0.2270701378583908;-137.62713623046875
296;1673422969.5951598;47.1290106;7.2383790999999995;55.81800079345703;1673422969.6654348;-25.342058181762695;1.6487243175506592;-137.8287353515625
297;1673422969.796316;47.129000999999995;7.2383657999999995;56.20900344848633;1673422969.8656154;-25.909652709960938;2.2432093620300293;-137.89842224121094
298;1673422969.99552;47.128991299999996;7.2383524999999995;56.60200119018555;1673422970.066329;-26.129987716674805;2.1321778297424316;-137.75515747070312
299;1673422970.1957712;47.1289817;7.238339099999999;56.996002197265625;1673422970.2660468;-26.143232345581055;0.8118695616722107;-137.51629638671875
300;1673422970.3959563;47.128972;7.238325499999999;57.393001556396484;1673422970.4662323;-26.144214630126953;-0.47093483805656433;-137.1842803955078
301;1673422970.5961356;47.1289623;7.238312;57.78900146484375;1673422970.6654367;-25.985729217529297;-2.012629747390747;-136.82933044433594
302;1673422970.796318;47.1289526;7.238298599999999;58.182003021240234;1673422970.8656175;-25.83008575439453;-2.238900661468506;-136.8746795654297
303;1673422970.9945812;47.1289428;7.2382851;58.57500457763672;1673422971.084912;-25.637603759765625;-2.028597593307495;-136.97537231445312
304;1673422971.2269726;47.128932999999996;7.2382718;58.967002868652344;1673422971.3056037;-25.739952087402344;-1.0893232822418213;-137.24609375
305;1673422971.442789;47.128923199999996;7.2382585;59.355003356933594;1673422971.5175035;-25.774797439575195;0.5390189290046692;-137.5821075439453
306;1673422971.6478508;47.1289133;7.2382453;59.74500274658203;1673422971.7254944;-25.900409698486328;1.9438563585281372;-137.81321716308594
307;1673422971.8538885;47.1289034;7.238232099999999;60.137001037597656;1673422971.9305556;-26.08173370361328;3.0417063236236572;-137.92709350585938
308;1673422972.0618842;47.1288935;7.2382189;60.52900314331055;1673422972.130784;-26.125226974487305;3.1238174438476562;-137.79220581054688
309;1673422972.2552786;47.128883599999995;7.238205499999999;60.92100143432617;1673422972.324139;-26.199138641357422;2.9800734519958496;-137.5679168701172
310;1673422972.4496071;47.1288738;7.2381921;61.316001892089844;1673422972.5184653;-26.37348747253418;2.2084765434265137;-137.39781188964844
311;1673422972.643931;47.128864;7.2381787;61.71000289916992;1673422972.7127912;-26.29409408569336;1.3271410465240479;-137.19683837890625
312;1673422972.8411887;47.1288542;7.2381651;62.105003356933594;1673422972.9129772;-26.343263626098633;0.43046560883522034;-137.03094482421875
313;1673422973.0403962;47.1288444;7.2381514;62.500003814697266;1673422973.1092975;-26.355649948120117;-0.8844677209854126;-136.84352111816406
314;1673422973.2347653;47.1288347;7.238137699999999;62.894004821777344;1673422973.3045995;-26.38461685180664;-1.7830610275268555;-136.6602020263672
315;1673422973.4525144;47.1288249;7.238124;63.28700256347656;1673422973.5243;-26.26688575744629;-1.9716393947601318;-136.6811981201172
316;1673422973.6614835;47.1288151;7.2381103;63.68100357055664;1673422973.7342427;-26.17873191833496;-2.119762659072876;-136.73292541503906
317;1673422973.870449;47.128805299999996;7.2380967;64.07300567626953;1673422973.940284;-26.294580459594727;-1.6688309907913208;-136.78341674804688
318;1673422974.0702055;47.1287954;7.2380832999999996;64.46400451660156;1673422974.1463714;-26.336009979248047;-0.9447377324104309;-136.8544921875
319;1673422974.2753031;47.1287854;7.238069899999999;64.85800170898438;1673422974.3494797;-26.463401794433594;-0.2267855405807495;-136.9781036376953
320;1673422974.4774437;47.128775499999996;7.2380565;65.25300598144531;1673422974.5438092;-26.443727493286133;0.4702256917953491;-136.993408203125
321;1673422974.663428;47.1287655;7.2380431;65.64300537109375;1673422974.7293527;-26.610334396362305;1.0135440826416016;-137.10438537597656
322;1673422974.8557975;47.1287556;7.238029699999999;66.0320053100586;1673422974.922705;-26.645069122314453;1.1644606590270996;-137.09803771972656
323;1673422975.0501213;47.1287458;7.238016099999999;66.4260025024414;1673422975.1278133;-26.43284797668457;1.0929940938949585;-137.01165771484375
324;1673422975.2591364;47.128735899999995;7.2380024999999995;66.81900024414062;1673422975.3318987;-26.397449493408203;1.09502112865448;-136.9572296142578
325;1673422975.470054;47.128726099999994;7.2379888999999995;67.21700286865234;1673422975.5418391;-26.380067825317383;1.0395175218582153;-137.00326538085938
326;1673422975.6805284;47.1287162;7.237975199999999;67.61600494384766;1673422975.747872;-26.390344619750977;1.1781690120697021;-137.08139038085938
327;1673422975.8768048;47.1287064;7.2379615;68.01300048828125;1673422975.949029;-26.469905853271484;1.4030237197875977;-137.12765502929688
328;1673422976.0721183;47.1286965;7.2379479;68.40800476074219;1673422976.1394954;-26.536052703857422;1.3932712078094482;-137.19358825683594
329;1673422976.2717988;47.128686599999995;7.2379342;68.80599975585938;1673422976.3416278;-26.57234764099121;1.2803428173065186;-137.16563415527344
330;1673422976.473934;47.1286767;7.2379206;69.20100402832031;1673422976.5466948;-26.71175765991211;1.2774567604064941;-137.15902709960938
331;1673422976.6692383;47.1286668;7.237907;69.59600067138672;1673422976.7420053;-26.879493713378906;0.8443295955657959;-137.0749053955078
332;1673422976.8743005;47.128657;7.2378933;69.99100494384766;1673422976.9451115;-26.885011672973633;0.4127099812030792;-136.98873901367188
333;1673422977.0745287;47.128647099999995;7.2378797;70.38600158691406;1673422977.1453557;-26.99207878112793;0.4644189476966858;-137.02862548828125
334;1673422977.2747104;47.1286372;7.2378659999999995;70.78300476074219;1673422977.3465204;-27.109357833862305;0.42883479595184326;-137.0426788330078
335;1673422977.4719737;47.1286273;7.237852299999999;71.18099975585938;1673422977.5447328;-27.08702850341797;0.5983091592788696;-137.02191162109375
336;1673422977.6824489;47.128617299999995;7.237838699999999;71.58200073242188;1673422977.7507696;-26.96134376525879;0.69451504945755;-136.97628784179688
337;1673422977.8797388;47.1286073;7.237825099999999;71.9800033569336;1673422977.9519644;-26.834278106689453;0.5790662169456482;-136.94168090820312
338;1673422978.083889;47.128597299999996;7.237811499999999;72.37800598144531;1673422978.1551385;-26.69065284729004;0.662792444229126;-136.9359893798828
339;1673422978.288956;47.1285873;7.2377978;72.781005859375;1673422978.3572757;-26.885499954223633;0.24311283230781555;-136.802978515625
340;1673422978.488231;47.128577299999996;7.2377841;73.18400573730469;1673422978.561434;-26.860082626342773;-0.005191858392208815;-136.75808715820312
341;1673422978.6855028;47.128567399999994;7.2377704;73.58100128173828;1673422978.7577038;-27.000259399414062;-0.12545819580554962;-136.7686309814453
342;1673422978.8886123;47.1285574;7.237756699999999;73.97600555419922;1673422978.960815;-27.083864212036133;-0.00044014828745275736;-136.84234619140625
343;1673422979.0899265;47.128547499999996;7.237743;74.37000274658203;1673422979.1611748;-27.15458106994629;-0.018534379079937935;-136.84783935546875
344;1673422979.2768826;47.1285375;7.2377294;74.76300048828125;1673422979.345773;-27.065937042236328;-0.010487085208296776;-136.86412048339844
345;1673422979.470307;47.1285275;7.2377157;75.15400695800781;1673422979.5391622;-27.004711151123047;0.053054627031087875;-136.87802124023438
346;1673422979.6656115;47.1285175;7.237702;75.54500579833984;1673422979.7364233;-26.974199295043945;0.27791479229927063;-136.89178466796875
347;1673422979.8609161;47.1285075;7.237688299999999;75.94000244140625;1673422979.9366088;-26.96666717529297;0.27805715799331665;-136.89559936523438
348;1673422980.078293;47.128497499999995;7.2376746999999995;76.33800506591797;1673422980.1486015;-26.91407585144043;0.34514084458351135;-136.9095001220703
349;1673422980.2853913;47.1284875;7.237660999999999;76.73600006103516;1673422980.3517568;-26.735654830932617;0.48572930693626404;-136.9125213623047
350;1673422980.4865603;47.128477499999995;7.2376473;77.13300323486328;1673422980.5597615;-26.640836715698242;0.3501790165901184;-136.89239501953125
351;1673422980.690702;47.1284675;7.2376336;77.531005859375;1673422980.7638962;-26.649169921875;0.32015377283096313;-136.8859100341797
352;1673422980.8820856;47.1284576;7.23762;77.93000030517578;1673422980.9474785;-26.548681259155273;0.33696648478507996;-136.900634765625
353;1673422981.0706372;47.1284476;7.2376062;78.33300018310547;1673422981.1517253;-26.55251121520996;0.24767406284809113;-136.8934783935547
354;1673422981.2782366;47.1284377;7.2375925;78.73600006103516;1673422981.3509939;-26.6468505859375;0.15778043866157532;-136.89735412597656
355;1673422981.473543;47.1284278;7.2375789;79.14000701904297;1673422981.5404859;-26.57706069946289;0.26199162006378174;-136.9159393310547
356;1673422981.6659155;47.128417899999995;7.2375652;79.54200744628906;1673422981.7348564;-26.591001510620117;0.21621929109096527;-136.9193572998047
357;1673422981.8613129;47.128408;7.2375516;79.94200134277344;1673422981.9291961;-26.776601791381836;0.07782629132270813;-136.9059600830078
358;1673422982.054671;47.1283982;7.237538;80.34200286865234;1673422982.1227083;-26.799461364746094;0.2456016093492508;-136.91714477539062
359;1673422982.2502282;47.1283883;7.2375244;80.74800109863281;1673422982.3190832;-26.91982650756836;0.17600880563259125;-136.91114807128906
360;1673422982.4465928;47.128378399999995;7.2375108;81.15400695800781;1673422982.5184126;-26.842100143432617;0.14699971675872803;-136.9335174560547
361;1673422982.6575813;47.1283685;7.2374971;81.5560073852539;1673422982.728481;-26.763071060180664;0.30185648798942566;-136.9257354736328
362;1673422982.8589168;47.1283586;7.2374835;81.95600128173828;1673422982.9307225;-26.82791519165039;0.18146279454231262;-136.91238403320312
363;1673422983.060196;47.1283487;7.2374699;82.3530044555664;1673422983.1331153;-26.75588035583496;0.17473872005939484;-136.8987274169922
364;1673422983.268357;47.128338799999995;7.2374562;82.75000762939453;1673422983.3430746;-26.8171443939209;0.19558125734329224;-136.94459533691406
365;1673422983.4734366;47.128329;7.2374426;83.14800262451172;1673422983.54423;-26.750764846801758;0.1360420286655426;-136.91253662109375
366;1673422983.6657913;47.1283191;7.237428899999999;83.5510025024414;1673422983.7356331;-26.592161178588867;0.28223803639411926;-136.92881774902344
367;1673422983.8611188;47.1283092;7.237415299999999;83.9530029296875;1673422983.9368095;-26.717695236206055;0.21101117134094238;-136.9149932861328
368;1673422984.0652301;47.128299299999995;7.2374016;84.3530044555664;1673422984.137078;-26.863218307495117;0.10906656831502914;-136.91200256347656
369;1673422984.2713227;47.1282894;7.237387999999999;84.75100708007812;1673422984.3470101;-26.721466064453125;0.336557000875473;-136.9310302734375
370;1673422984.469544;47.1282795;7.237374399999999;85.14700317382812;1673422984.537428;-26.798856735229492;0.14760839939117432;-136.90859985351562
371;1673422984.6716795;47.128269599999996;7.237360799999999;85.54400634765625;1673422984.7454102;-26.77593994140625;0.21450084447860718;-136.93470764160156
372;1673422984.880639;47.128259799999995;7.2373471;85.94100189208984;1673422984.9612913;-26.817995071411133;0.09621606767177582;-136.9282684326172
373;1673422985.087253;47.1282499;7.2373335;86.33700561523438;1673422985.15754;-26.861942291259766;0.09740378707647324;-136.92860412597656
374;1673422985.3089454;47.12824;7.237319899999999;86.7300033569336;1673422985.3831246;-26.782421112060547;0.1406867951154709;-136.94488525390625
375;1673422985.5071907;47.128230099999996;7.2373062;87.1240005493164;1673422985.5774508;-26.708240509033203;0.16493700444698334;-136.92543029785156
376;1673422985.7005312;47.1282202;7.2372926;87.52100372314453;1673422985.7688496;-26.909595489501953;0.19215169548988342;-136.93360900878906
377;1673422985.89392;47.1282103;7.237279;87.92000579833984;1673422985.9622397;-26.873254776000977;0.24654847383499146;-136.93702697753906
378;1673422986.0951478;47.1282004;7.2372654;88.32000732421875;1673422986.1693263;-26.842937469482422;0.2487129271030426;-136.92063903808594
379;1673422986.299309;47.128190499999995;7.237251799999999;88.71800231933594;1673422986.3725448;-26.8975772857666;0.26473090052604675;-136.956298828125
380;1673422986.499553;47.1281806;7.237238199999999;89.11800384521484;1673422986.5688498;-26.796606063842773;0.2546381652355194;-136.93939208984375
381;1673422986.7057257;47.1281707;7.2372245;89.52000427246094;1673422986.7691672;-26.746856689453125;0.1659691333770752;-136.92601013183594
382;1673422986.9031081;47.128160699999995;7.2372109;89.92200469970703;1673422986.9695065;-26.768333435058594;0.26395565271377563;-136.94544982910156
383;1673422987.1025188;47.1281508;7.2371973;90.32300567626953;1673422987.1747336;-26.80418586730957;0.30988529324531555;-136.9436492919922
384;1673422987.3026793;47.1281408;7.2371837;90.72200775146484;1673422987.3837113;-26.758562088012695;0.3528798520565033;-136.9502410888672
385;1673422987.51857;47.128130899999995;7.23717;91.11900329589844;1673422987.5839484;-26.64292335510254;0.28503701090812683;-136.9236297607422
386;1673422987.714825;47.1281209;7.2371564;91.51700592041016;1673422987.7802215;-26.61781883239746;0.2776055932044983;-136.92742919921875
387;1673422987.8915908;47.128111;7.2371427;91.91500091552734;1673422987.9550476;-26.623918533325195;0.13988088071346283;-136.9225311279297
388;1673422988.089863;47.128101099999995;7.2371291;92.31000518798828;1673422988.1689181;-26.599233627319336;0.18076735734939575;-136.93963623046875
389;1673422988.3399155;47.1280912;7.2371153999999995;92.70600128173828;1673422988.4058454;-26.676780700683594;0.09837067127227783;-136.9227294921875
390;1673422988.5352166;47.1280813;7.2371019;93.10400390625;1673422988.6030982;-26.783123016357422;0.09925740957260132;-136.94287109375
391;1673422988.7519844;47.128071399999996;7.2370883;93.50100708007812;1673422988.8247452;-26.726425170898438;0.13001178205013275;-136.92408752441406
392;1673422988.9453678;47.1280615;7.237074799999999;93.89600372314453;1673422989.0161743;-26.743511199951172;0.12937259674072266;-136.93106079101562
393;1673422989.125287;47.1280515;7.237061199999999;94.29000091552734;1673422989.1931863;-26.87811279296875;0.2281361222267151;-136.93655395507812
394;1673422989.2982144;47.128041599999996;7.2370475999999995;94.68500518798828;1673422989.360679;-26.726438522338867;0.07150787115097046;-136.91085815429688
395;1673422989.4823468;47.1280317;7.2370341;95.08100128173828;1673422989.5560784;-26.82478141784668;0.11281722784042358;-136.91473388671875
396;1673422989.6928265;47.1280217;7.2370205;95.47600555419922;1673422989.7640755;-26.69737434387207;0.13640348613262177;-136.91171264648438
397;1673422989.8998957;47.128011799999996;7.237006999999999;95.87100219726562;1673422989.9662757;-26.757225036621094;0.22238925099372864;-136.92669677734375
398;1673422990.0962715;47.1280018;7.236993399999999;96.26800537109375;1673422990.1704476;-26.772869110107422;0.23249348998069763;-136.8915252685547
399;1673422990.3044508;47.1279919;7.2369799;96.66600799560547;1673422990.387413;-26.822765350341797;0.18820896744728088;-136.90284729003906
400;1673422990.5270877;47.127981899999995;7.2369663;97.06100463867188;1673422990.5930014;-26.573537826538086;0.23107464611530304;-136.8721160888672
401;1673422990.7205136;47.1279719;7.2369527;97.45600128173828;1673422990.7868516;-26.551589965820312;0.2983856499195099;-136.88961791992188
402;1673422990.904168;47.127962;7.2369391;97.85400390625;1673422991.0355532;-26.728939056396484;0.16355031728744507;-136.87767028808594
403;1673422991.1504476;47.127952099999995;7.2369255;98.25300598144531;1673422991.21941;-26.74640655517578;0.30138489603996277;-136.90208435058594
404;1673422991.3333151;47.1279421;7.236911999999999;98.65200805664062;1673422991.4022732;-26.736122131347656;0.2656876742839813;-136.88356018066406
405;1673422991.523879;47.1279322;7.236898399999999;99.0510025024414;1673422991.5902593;-26.634204864501953;0.3573136031627655;-136.88917541503906
406;1673422991.7173471;47.1279222;7.2368847999999995;99.45100402832031;1673422991.7817986;-26.607168197631836;0.30033719539642334;-136.86631774902344
407;1673422991.9030526;47.1279123;7.2368711999999995;99.85400390625;1673422991.9753304;-26.56620979309082;0.3289891183376312;-136.87966918945312
408;1673422992.1034796;47.127902399999996;7.2368576;100.25700378417969;1673422992.1698146;-26.648357391357422;0.10023851692676544;-136.83700561523438
409;1673422992.2999508;47.127892499999994;7.236844;100.66000366210938;1673422992.3789716;-26.790491104125977;0.09536255151033401;-136.85824584960938
410;1673422992.5070238;47.1278826;7.2368304;101.06200408935547;1673422992.5822093;-26.615568161010742;0.16890661418437958;-136.8567657470703
411;1673422992.7121747;47.127872599999996;7.2368168;101.46300506591797;1673422992.784403;-26.67232322692871;0.238699272274971;-136.86456298828125
412;1673422992.9104223;47.127862699999994;7.2368033;101.86400604248047;1673422992.9827278;-26.58407211303711;0.28798651695251465;-136.87181091308594
413;1673422993.1039867;47.1278527;7.2367897;102.26400756835938;1673422993.1771877;-26.626829147338867;0.286744624376297;-136.8237762451172
414;1673422993.2949028;47.127842799999996;7.2367761999999995;102.66500854492188;1673422993.358877;-26.655189514160156;0.24125517904758453;-136.8032684326172
415;1673422993.4951777;47.1278329;7.236762499999999;103.06600189208984;1673422993.5660362;-26.665515899658203;0.13629181683063507;-136.83062744140625
416;1673422993.6944914;47.127823;7.236748899999999;103.46400451660156;1673422993.794588;-26.70945930480957;0.18314024806022644;-136.8565673828125
417;1673422993.914858;47.1278131;7.236735299999999;103.86200714111328;1673422993.9772866;-26.6792049407959;0.13986073434352875;-136.80641174316406
