;pos_time;latitude;longitude;altitude;alt_time;pitch;roll;yaw
0;1673422747.9451709;47.1306424;7.2406201;-0.04700000211596489;1673422748.0921862;0.12311922013759613;-0.08767273277044296;89.89701843261719
1;1673422748.1328328;47.1306424;7.2406201999999995;-0.046000003814697266;1673422748.296445;0.05215969309210777;-0.11866803467273712;90.0609359741211
2;1673422748.335081;47.1306424;7.2406201;-0.0430000014603138;1673422748.4969923;0.14528067409992218;-0.4213363826274872;90.24581909179688
3;1673422748.535605;47.1306425;7.2406201;-0.04200000315904617;1673422748.7075999;0.21081817150115967;-0.1296585202217102;90.10962677001953
4;1673422748.744725;47.1306425;7.24062;-0.03800000250339508;1673422748.894076;0.1761520802974701;-0.24947258830070496;89.98228454589844
5;1673422748.9287798;47.1306425;7.24062;-0.03500000014901161;1673422749.0963535;0.1821068823337555;-0.31745654344558716;90.20205688476562
6;1673422749.137934;47.1306425;7.24062;-0.03400000184774399;1673422749.3027122;-0.1323360651731491;-0.22279156744480133;89.96825408935547
7;1673422749.3403835;47.1306425;7.24062;-0.03500000014901161;1673422749.4931328;-0.05959737300872803;-0.31190255284309387;90.11618041992188
8;1673422749.5225587;47.1306425;7.24062;-0.03400000184774399;1673422749.697309;-0.022778386250138283;-0.15818719565868378;90.07518005371094
9;1673422749.7359216;47.1306424;7.24062;-0.032999999821186066;1673422749.8871818;0.21040204167366028;-0.16127218306064606;89.94776916503906
10;1673422749.922326;47.1306424;7.2406198999999996;-0.032999999821186066;1673422750.08458;-0.030240681022405624;-0.2347940057516098;90.04203033447266
11;1673422750.1187508;47.1306424;7.2406198999999996;-0.03500000014901161;1673422750.275107;0.03667429834604263;-0.0870148167014122;89.96652221679688
12;1673422750.3131726;47.1306424;7.2406198999999996;-0.03400000184774399;1673422750.4913423;-0.09844307601451874;-0.18361108005046844;90.15187072753906
13;1673422750.52955;47.1306424;7.2406198999999996;-0.032999999821186066;1673422750.706804;-0.13480505347251892;-0.14291901886463165;90.01805114746094
14;1673422750.7416008;47.1306424;7.2406198999999996;-0.03200000151991844;1673422750.8963726;-0.040887702256441116;-0.32459017634391785;90.02594757080078
15;1673422750.9291234;47.1306424;7.24062;0.0;1673422751.091769;0.06775259971618652;-0.23087993264198303;90.00450897216797
16;1673422751.1269042;47.1306424;7.24062;0.0;1673422751.2915068;-0.021540755406022072;-0.1966191977262497;90.1634750366211
17;1673422751.333621;47.1306424;7.24062;0.0020000000949949026;1673422751.4943123;0.1487756073474884;-0.3093968629837036;90.30723571777344
18;1673422751.5275135;47.1306424;7.2406198999999996;0.003000000026077032;1673422751.6906016;-0.08824539184570312;-0.1688959151506424;90.26831817626953
19;1673422751.7328906;47.1306424;7.2406198999999996;0.009000000543892384;1673422751.909733;-0.12337600439786911;-0.21751664578914642;90.2642822265625
20;1673422751.947563;47.1306424;7.24062;0.012000000104308128;1673422752.1107688;-0.1263999193906784;0.18934231996536255;90.1701889038086
21;1673422752.1455374;47.1306424;7.2406201;0.012000000104308128;1673422752.3054574;-0.04794597253203392;-0.28920140862464905;90.24620056152344
22;1673422752.340877;47.1306423;7.2406201;0.012000000104308128;1673422752.509429;-0.07296369969844818;-0.03983237221837044;90.19438171386719
23;1673422752.549542;47.1306423;7.2406201;0.0;1673422752.717723;0.2623382806777954;0.1823822557926178;90.13325500488281
24;1673422752.753622;47.1306423;7.2406201;0.0;1673422752.9095647;0.05078910291194916;-0.7282316088676453;90.3216552734375
25;1673422752.9466045;47.1306423;7.2406201;-0.0010000000474974513;1673422753.1416698;0.2045593410730362;-0.7420163750648499;90.4190902709961
26;1673422753.181033;47.1306423;7.2406201;0.0;1673422753.3326812;0.14134174585342407;-0.062217552214860916;90.20882415771484
27;1673422753.3695076;47.1306423;7.2406201;-0.0010000000474974513;1673422753.5314965;0.10257676243782043;-0.30656591057777405;90.54689025878906
28;1673422753.5663605;47.1306423;7.2406201;0.0;1673422753.7185254;0.1272338628768921;-0.05276026204228401;90.11170196533203
29;1673422753.751811;47.1306423;7.2406201;0.0;1673422753.908658;0.13792784512043;-0.1309070736169815;90.2816390991211
30;1673422753.9471302;47.1306423;7.2406201999999995;0.003000000026077032;1673422754.0971646;0.2060711830854416;-0.17971551418304443;90.37781524658203
31;1673422754.132978;47.1306423;7.2406201999999995;0.006000000052154064;1673422754.3078358;0.2530830502510071;-0.16855892539024353;90.46195220947266
32;1673422754.3486788;47.1306423;7.2406201999999995;0.007000000216066837;1673422754.5135777;0.8586553931236267;-0.28816530108451843;90.96051788330078
33;1673422754.5550392;47.1306423;7.2406201999999995;0.010000000707805157;1673422754.7427256;1.9137606620788574;0.47573795914649963;91.9953842163086
34;1673422754.7766945;47.1306423;7.2406201999999995;0.013000000268220901;1673422754.9356472;0.2711350619792938;-1.6825602054595947;91.919921875
35;1673422754.9695754;47.1306424;7.2406201;0.03400000184774399;1673422755.1258125;-0.446140319108963;-2.2328059673309326;91.85850524902344
36;1673422755.1607037;47.1306425;7.2406198999999996;0.07800000160932541;1673422755.3146422;-0.16701138019561768;3.0982401371002197;91.54191589355469
37;1673422755.3488717;47.1306425;7.240619799999999;0.13600000739097595;1673422755.5138676;0.267183393239975;-0.8698100447654724;91.48601531982422
38;1673422755.560787;47.1306425;7.2406197;0.20800000429153442;1673422755.7099497;0.15447279810905457;-2.838409423828125;91.31484985351562
39;1673422755.7470572;47.1306424;7.2406196;0.2930000126361847;1673422755.9091802;0.252079576253891;2.3420679569244385;90.92214965820312
40;1673422755.9443061;47.1306424;7.2406196;0.3930000066757202;1673422756.105786;0.08750274032354355;0.06828891485929489;90.8445053100586
41;1673422756.1340873;47.1306424;7.2406197;0.5139999985694885;1673422756.300273;-0.3682610094547272;-2.6834919452667236;91.01612854003906
42;1673422756.3373713;47.1306425;7.240619799999999;0.6460000276565552;1673422756.513453;-0.1690034419298172;1.8459891080856323;90.66007995605469
43;1673422756.549293;47.130642599999995;7.2406198999999996;0.7900000214576721;1673422756.7130203;0.43325987458229065;1.5628859996795654;90.39014434814453
44;1673422756.7482173;47.130642599999995;7.2406198999999996;0.9530000686645508;1673422756.9045012;0.9901087284088135;-3.0860283374786377;90.43550872802734
45;1673422756.9396489;47.130642599999995;7.2406198999999996;1.128000020980835;1673422757.103463;0.6382352113723755;0.6375331878662109;90.29148864746094
46;1673422757.1405854;47.130642599999995;7.240619799999999;1.3130000829696655;1673422757.305529;0.699648380279541;2.1949899196624756;90.30721282958984
47;1673422757.354583;47.130642599999995;7.240619799999999;1.5010000467300415;1673422757.5130389;-0.05296876281499863;-2.0227112770080566;91.01576232910156
48;1673422757.552067;47.130642699999996;7.240619799999999;1.690000057220459;1673422757.7081418;-0.12158466130495071;-0.618132472038269;90.84866333007812
49;1673422757.746278;47.130642699999996;7.240619799999999;1.883000135421753;1673422757.9346611;-0.15616028010845184;3.202805280685425;90.50066375732422
50;1673422757.989345;47.130642699999996;7.240619799999999;2.080000162124634;1673422758.1468043;0.2743777334690094;-1.7149200439453125;90.6139907836914
51;1673422758.1799867;47.1306425;7.240619799999999;2.2760000228881836;1673422758.330525;0.7133755087852478;-2.491183042526245;90.4472885131836
52;1673422758.3618526;47.1306425;7.240619799999999;2.4740002155303955;1673422758.519377;0.7539175152778625;2.105410575866699;90.25084686279297
53;1673422758.5486667;47.1306424;7.240619799999999;2.6740000247955322;1673422758.716727;0.4256126880645752;-0.008548123762011528;90.4241714477539
54;1673422758.7499037;47.1306424;7.2406198999999996;2.876000165939331;1673422758.915971;-0.07495290786027908;-2.2293965816497803;90.39078521728516
55;1673422758.9530728;47.1306425;7.2406198999999996;3.074000120162964;1673422759.110741;-0.08776582777500153;2.3109889030456543;90.02850341796875
56;1673422759.1420007;47.130642599999995;7.24062;3.2760002613067627;1673422759.2915554;0.3851327896118164;0.6365274786949158;90.00245666503906
57;1673422759.3252764;47.1306425;7.24062;3.4770002365112305;1673422759.48101;0.5960870981216431;-3.621487855911255;90.25892639160156
58;1673422759.5137815;47.1306424;7.24062;3.6760001182556152;1673422759.6695375;0.9212255477905273;1.118837594985962;90.22737884521484
59;1673422759.7110806;47.1306424;7.2406198999999996;3.873000144958496;1673422759.8896618;0.8751260638237;2.240912914276123;90.2037353515625
60;1673422759.928305;47.1306424;7.2406198999999996;4.070000171661377;1673422760.0992606;0.44658413529396057;-2.812950849533081;90.3153305053711
61;1673422760.141409;47.1306425;7.240619799999999;4.269000053405762;1673422760.3094795;0.0063323453068733215;0.21857598423957825;90.20278930664062
62;1673422760.34075;47.1306425;7.240619799999999;4.466000080108643;1673422760.5097792;-0.39195719361305237;2.50004506111145;90.08346557617188
63;1673422760.544099;47.1306424;7.2406197;4.663000106811523;1673422760.709037;-0.2348824292421341;-2.540377616882324;90.36456298828125
64;1673422760.742163;47.1306423;7.2406197;4.860000133514404;1673422760.901919;0.5480643510818481;-1.361196756362915;90.44991302490234
65;1673422760.937639;47.1306422;7.240619799999999;5.060000419616699;1673422761.0973268;0.9218210577964783;2.595705986022949;90.275634765625
66;1673422761.134096;47.1306422;7.240619799999999;5.258000373840332;1673422761.3293133;0.7849087715148926;-1.6679599285125732;90.3750228881836
67;1673422761.3752182;47.1306422;7.240619799999999;5.463000297546387;1673422761.588711;0.4994175434112549;-2.2242536544799805;90.1351089477539
68;1673422761.6260757;47.1306422;7.240619799999999;5.6710004806518555;1673422761.7534912;0.2465648204088211;2.6101510524749756;89.91524505615234
69;1673422761.7857587;47.1306422;7.240619799999999;5.880000114440918;1673422761.9325147;-0.25330349802970886;-1.1432538032531738;90.1928939819336
70;1673422761.9648633;47.130641999999995;7.240619799999999;6.083000183105469;1673422762.1038127;-0.05722343549132347;-3.065106153488159;90.4352798461914
71;1673422762.1347826;47.130641999999995;7.2406197;6.283000469207764;1673422762.2847338;0.2108873575925827;2.149174928665161;90.200439453125
72;1673422762.3204274;47.130641999999995;7.2406197;6.4810004234313965;1673422762.4832604;0.9363709688186646;0.3404013514518738;90.12606811523438
73;1673422762.5218694;47.130642099999996;7.2406197;6.682000160217285;1673422762.704443;0.6663641333580017;-2.7166531085968018;90.22430419921875
74;1673422762.7425516;47.1306422;7.2406197;6.884000301361084;1673422762.9135818;0.18273571133613586;1.6111068725585938;90.1340560913086
75;1673422762.953681;47.1306422;7.2406197;7.083000183105469;1673422763.1624763;0.037483010441064835;0.906369686126709;90.15016174316406
76;1673422763.2224925;47.130642099999996;7.2406197;7.2870001792907715;1673422763.404118;-0.41226595640182495;-3.212129831314087;90.55457305908203
77;1673422763.4461656;47.130641999999995;7.2406197;7.494000434875488;1673422763.6094787;-0.34154608845710754;0.5243918895721436;90.27385711669922
78;1673422763.637783;47.130641999999995;7.2406197;7.697000503540039;1673422763.7653954;0.24523350596427917;1.5953035354614258;90.0523910522461
79;1673422763.7966285;47.130642099999996;7.2406197;7.90000057220459;1673422763.967608;0.5841279625892639;-2.820451021194458;90.18510437011719
80;1673422763.9994829;47.130642099999996;7.2406197;8.101000785827637;1673422764.142638;0.6598355174064636;-0.5538755059242249;89.97879791259766
81;1673422764.1739178;47.1306422;7.2406196;8.302000045776367;1673422764.3236928;0.24714571237564087;2.6444592475891113;90.25209045410156
82;1673422764.3646858;47.1306422;7.2406196;8.506000518798828;1673422764.521923;-0.3299790024757385;-2.2321150302886963;90.67057800292969
83;1673422764.5560694;47.130642099999996;7.2406197;8.709000587463379;1673422764.7114015;-0.34252792596817017;-1.7855186462402344;90.30005645751953
84;1673422764.7484887;47.1306422;7.2406197;8.910000801086426;1673422764.905019;-0.22962793707847595;2.619621992111206;89.9228286743164
85;1673422764.9387946;47.1306422;7.240619799999999;9.111000061035156;1673422765.0945408;0.15584509074687958;-1.054033637046814;90.24126434326172
86;1673422765.1253476;47.1306423;7.240619799999999;9.309000015258789;1673422765.3006423;0.7367983460426331;-1.8634780645370483;90.34390258789062
87;1673422765.3396995;47.1306424;7.2406198999999996;9.508000373840332;1673422765.5075605;0.8851261734962463;2.5562994480133057;90.13709259033203
88;1673422765.5442507;47.1306424;7.2406198999999996;9.708000183105469;1673422765.7124546;0.5053459405899048;0.14189781248569489;90.44197082519531
89;1673422765.748679;47.1306422;7.24062;9.905000686645508;1673422765.9034843;-0.008045748807489872;-3.119649887084961;90.44442749023438
90;1673422765.9401517;47.1306422;7.24062;10.099000930786133;1673422766.1070187;-0.0015564293134957552;1.3596670627593994;89.95649719238281
91;1673422766.137317;47.1306423;7.2406201;10.335000038146973;1673422766.2872164;0.03495541587471962;1.8699110746383667;89.831298828125
92;1673422766.3258429;47.1306424;7.2406201;10.672000885009766;1673422766.494368;0.41141945123672485;-2.3559730052948;90.22445678710938
93;1673422766.5349855;47.1306424;7.2406201;11.052000999450684;1673422766.7065537;0.7168235778808594;-0.16784611344337463;90.33354949951172
94;1673422766.7490654;47.1306425;7.2406201;11.44800090789795;1673422766.931121;0.652508556842804;2.395575761795044;90.12316131591797
95;1673422766.964453;47.1306424;7.2406201;11.847000122070312;1673422767.123535;0.5136613845825195;-0.97007817029953;90.31773376464844
96;1673422767.1547809;47.1306422;7.2406201;12.249000549316406;1673422767.3097062;0.034414228051900864;-2.0203020572662354;90.36165618896484
97;1673422767.3543386;47.1306422;7.2406201;12.655000686645508;1673422767.518562;-0.1670772284269333;2.0935018062591553;89.9831771850586
98;1673422767.555669;47.1306422;7.2406201;13.059000968933105;1673422767.715106;-0.4020092189311981;0.23485684394836426;90.22750091552734
99;1673422767.7514806;47.1306423;7.2406201;13.462000846862793;1673422767.9156673;-0.09864141792058945;-2.5856447219848633;90.49700927734375
100;1673422767.9513748;47.1306423;7.2406201;13.867000579833984;1673422768.1210928;0.12239141762256622;1.3841370344161987;90.19738006591797
101;1673422768.159165;47.1306423;7.2406201;14.271000862121582;1673422768.314313;0.2752266824245453;1.4350290298461914;90.04551696777344
102;1673422768.3510423;47.1306422;7.2406201;14.677000999450684;1673422768.5138767;0.38479480147361755;-3.259887933731079;90.35293579101562
103;1673422768.5466304;47.130642099999996;7.2406201;15.086000442504883;1673422768.7105951;0.42147964239120483;-0.19478823244571686;90.1396713256836
104;1673422768.7510865;47.130642099999996;7.2406201;15.49100112915039;1673422768.9189572;0.16701287031173706;1.985241174697876;90.11841583251953
105;1673422768.957058;47.130642099999996;7.2406201;15.893000602722168;1673422769.1326542;-0.25921955704689026;-2.2341883182525635;90.38800048828125
106;1673422769.171873;47.1306422;7.2406201;16.297000885009766;1673422769.3341417;-0.3441414535045624;-0.7768075466156006;90.37837219238281
107;1673422769.3751318;47.1306422;7.2406201;16.70400047302246;1673422769.534528;-0.11646760255098343;2.3354034423828125;89.94842529296875
108;1673422769.569777;47.1306422;7.2406201999999995;17.11400032043457;1673422769.7300537;0.3158758878707886;-1.1016900539398193;90.1695327758789
109;1673422769.7632315;47.130642099999996;7.2406201999999995;17.523000717163086;1673422769.9134743;0.38328680396080017;-2.753545045852661;90.34144592285156
110;1673422769.9550936;47.130642099999996;7.2406201999999995;17.93000030517578;1673422770.1091416;0.7231717705726624;2.2094533443450928;90.13275909423828
111;1673422770.1438534;47.1306422;7.2406201999999995;18.334001541137695;1673422770.3045726;0.5393756031990051;0.26256272196769714;90.32203674316406
112;1673422770.3462512;47.1306422;7.2406201999999995;18.73200035095215;1673422770.5168462;0.49570852518081665;-2.4647233486175537;90.3216781616211
113;1673422770.5554535;47.1306423;7.2406203;19.130001068115234;1673422770.7215693;0.11339620500802994;1.733630657196045;90.12198638916016
114;1673422770.76165;47.1306424;7.2406203;19.529001235961914;1673422770.921633;0.2370082437992096;0.8875626921653748;90.07955932617188
115;1673422770.955801;47.1306423;7.2406203;19.93000030517578;1673422771.111787;0.11001530289649963;-3.075791358947754;90.43344116210938
116;1673422771.146497;47.1306422;7.2406203;20.32900047302246;1673422771.3096368;0.38765230774879456;0.6248743534088135;90.17781829833984
117;1673422771.3458886;47.1306422;7.2406203;20.71900177001953;1673422771.5098002;0.6905247569084167;1.7961620092391968;90.2545394897461
118;1673422771.5494213;47.1306422;7.2406203;21.110000610351562;1673422771.7150288;0.8834649324417114;-2.5918631553649902;90.32333374023438
119;1673422771.7526546;47.1306423;7.2406201999999995;21.507001876831055;1673422771.9211893;0.3506283164024353;-0.3398754298686981;90.11883544921875
120;1673422771.9593272;47.1306424;7.2406201;21.904001235961914;1673422772.11566;0.21614791452884674;2.3051583766937256;90.01838684082031
121;1673422772.1543033;47.1306423;7.2406201;22.302001953125;1673422772.3084207;-0.025639569386839867;-2.018676519393921;90.38626861572266
122;1673422772.3450792;47.1306423;7.24062;22.702001571655273;1673422772.5080132;-0.22616590559482574;-1.9937936067581177;90.37323760986328
123;1673422772.5496027;47.1306423;7.24062;23.100000381469727;1673422772.7181864;-0.07620379328727722;2.683067798614502;89.99749755859375
124;1673422772.7471218;47.1306424;7.2406198999999996;23.494001388549805;1673422772.9185016;0.006253331433981657;-0.4598306119441986;90.30400085449219
125;1673422772.95425;47.1306424;7.2406198999999996;23.885000228881836;1673422773.1015627;0.3834190368652344;-2.2701096534729004;90.35640716552734
126;1673422773.136348;47.1306425;7.2406198999999996;24.279001235961914;1673422773.292342;0.5720844864845276;2.1083552837371826;90.26847076416016
127;1673422773.3416805;47.130642599999995;7.2406198999999996;24.676000595092773;1673422773.512163;0.6218042969703674;0.8073804378509521;90.28461456298828
128;1673422773.5790553;47.1306425;7.2406198999999996;25.07400131225586;1673422773.7134678;-0.04789328947663307;-3.137864112854004;90.41923522949219
129;1673422773.751811;47.1306424;7.2406198999999996;25.475000381469727;1673422773.9185061;-0.11203133314847946;1.3709070682525635;90.11190032958984
130;1673422773.9572084;47.1306424;7.2406198999999996;25.87900161743164;1673422774.124977;-0.11960683763027191;1.3889081478118896;90.01590728759766
131;1673422774.1650255;47.1306425;7.2406198999999996;26.279001235961914;1673422774.3090892;0.009997261688113213;-2.5633983612060547;90.42362213134766
132;1673422774.3467617;47.1306425;7.240619799999999;26.681001663208008;1673422774.5093114;0.14543384313583374;0.5334007740020752;90.22427368164062
133;1673422774.5479226;47.130642599999995;7.240619799999999;27.08500099182129;1673422774.7094984;0.3346845507621765;2.271444320678711;90.14971160888672
134;1673422774.7452083;47.1306425;7.2406197;27.490001678466797;1673422774.9264326;0.28864842653274536;-2.1794495582580566;90.29511260986328
135;1673422774.9621158;47.1306424;7.2406197;27.895000457763672;1673422775.120171;0.038742221891880035;-0.8016104102134705;90.23863220214844
136;1673422775.1616945;47.1306424;7.2406197;28.301000595092773;1673422775.343411;-0.4173925817012787;2.36466646194458;89.94776916503906
137;1673422775.383433;47.1306424;7.2406197;28.69900131225586;1673422775.5307038;-0.26791274547576904;-1.439706802368164;90.4101791381836
138;1673422775.5677915;47.1306425;7.2406197;29.095001220703125;1673422775.7065518;-0.2335532158613205;-0.9786057472229004;90.36981201171875
139;1673422775.7488382;47.1306425;7.2406197;29.492000579833984;1673422775.9269693;-0.1611253321170807;2.725135087966919;90.1347885131836
140;1673422775.9631104;47.1306425;7.2406197;29.891000747680664;1673422776.121909;0.18043403327465057;-1.0178529024124146;90.1214828491211
141;1673422776.158559;47.1306424;7.2406197;30.29100227355957;1673422776.366767;0.11313030868768692;-2.5299768447875977;90.27225494384766
142;1673422776.3960392;47.1306424;7.2406197;30.689001083374023;1673422776.5422165;0.3108193874359131;2.3738884925842285;90.13916015625
143;1673422776.5802798;47.1306425;7.2406197;31.08100128173828;1673422776.7240376;0.02592707797884941;0.7657461762428284;90.18408203125
144;1673422776.7554793;47.1306425;7.2406197;31.474000930786133;1673422776.9139647;0.07627220451831818;-2.2696192264556885;90.4609146118164
145;1673422776.953673;47.130642599999995;7.240619799999999;31.871002197265625;1673422777.1193779;-0.04220560938119888;1.406970500946045;90.0899887084961
146;1673422777.155047;47.130642599999995;7.2406198999999996;32.27300262451172;1673422777.3214257;0.06894409656524658;1.7315144538879395;90.16400909423828
147;1673422777.361086;47.1306425;7.2406198999999996;32.676002502441406;1673422777.5139399;0.13523678481578827;-2.4989137649536133;90.36137390136719
148;1673422777.550705;47.1306423;7.2406198999999996;33.07699966430664;1673422777.7105243;0.322391539812088;-0.5767040848731995;90.3467025756836
149;1673422777.755167;47.1306423;7.24062;33.479000091552734;1673422777.9282296;0.3639383912086487;2.224302291870117;90.25477600097656
150;1673422777.9692998;47.1306423;7.2406198999999996;33.87800216674805;1673422778.1178627;0.5531970858573914;-2.0157620906829834;90.26456451416016
151;1673422778.1513405;47.1306423;7.2406198999999996;34.2760009765625;1673422778.3227413;0.5902045965194702;-1.5604182481765747;90.10978698730469
152;1673422778.3584135;47.1306424;7.24062;34.67500305175781;1673422778.5091302;0.4824097752571106;2.3303847312927246;90.02401733398438
153;1673422778.543369;47.1306424;7.24062;35.0780029296875;1673422778.7139177;0.2592976987361908;-0.7223759293556213;90.29761505126953
154;1673422778.7501814;47.1306423;7.24062;35.48200225830078;1673422778.894389;0.10055889189243317;-2.5930774211883545;90.35302734375
155;1673422778.93051;47.1306424;7.2406201;35.88300323486328;1673422779.0953085;-0.04653450846672058;2.0335724353790283;90.04069519042969
156;1673422779.1353776;47.1306425;7.2406201;36.27900314331055;1673422779.3127801;0.063457190990448;0.841502845287323;90.11570739746094
157;1673422779.3456652;47.130642599999995;7.2406201;36.67400360107422;1673422779.5120292;-0.15072429180145264;-2.200798511505127;90.42752075195312
158;1673422779.5488472;47.130642699999996;7.2406201;37.07200241088867;1673422779.716426;0.14400282502174377;1.6433030366897583;90.25057220458984
159;1673422779.7560937;47.1306428;7.24062;37.470001220703125;1673422779.9160602;0.09050100296735764;2.209381580352783;90.29694366455078
160;1673422779.9504619;47.130642699999996;7.24062;37.87200164794922;1673422780.116264;0.1992187649011612;-2.4927139282226562;90.24515533447266
161;1673422780.1558259;47.130642599999995;7.2406198999999996;38.275001525878906;1673422780.3328087;0.012654585763812065;0.07755960524082184;90.23820495605469
162;1673422780.3748233;47.130642599999995;7.2406198999999996;38.676002502441406;1673422780.5160973;0.013393360190093517;2.5708775520324707;90.07759094238281
163;1673422780.5562682;47.130642599999995;7.2406198999999996;39.073001861572266;1673422780.7121859;-0.19420035183429718;-1.3698090314865112;90.38380432128906
164;1673422780.7478495;47.130642599999995;7.2406198999999996;39.467002868652344;1673422780.9150405;-0.4060732126235962;-1.3061070442199707;90.34033203125
165;1673422780.9463112;47.130642699999996;7.24062;39.8650016784668;1673422781.1031084;-0.22789327800273895;2.6188082695007324;90.07958221435547
166;1673422781.1398273;47.130642599999995;7.24062;40.26700210571289;1673422781.301699;0.2118796855211258;-0.8668868541717529;90.17869567871094
167;1673422781.335858;47.1306424;7.24062;40.67000198364258;1673422781.5041695;0.5224443674087524;-2.7029871940612793;90.2531509399414
168;1673422781.5405664;47.1306424;7.2406201;41.07100296020508;1673422781.7074428;0.5351141095161438;2.2214512825012207;90.23291778564453
169;1673422781.7407162;47.1306425;7.24062;41.467002868652344;1673422781.904441;0.4764135777950287;0.9181928634643555;90.14599609375
170;1673422781.941093;47.130642599999995;7.24062;41.86300277709961;1673422782.1214051;0.27807536721229553;-2.472471237182617;90.3836898803711
171;1673422782.1602817;47.130642599999995;7.24062;42.262001037597656;1673422782.309175;0.08568160235881805;1.4775114059448242;90.08480072021484
172;1673422782.3477943;47.130642699999996;7.24062;42.66400146484375;1673422782.5124307;-0.1159396544098854;1.6521587371826172;90.17510986328125
173;1673422782.5511718;47.130642599999995;7.24062;43.06700134277344;1673422782.724683;-0.0490272082388401;-2.759239673614502;90.2944107055664
174;1673422782.7632546;47.1306425;7.24062;43.46800231933594;1673422782.9227428;0.0803748071193695;-0.3954521417617798;90.29621124267578
175;1673422782.964427;47.1306425;7.2406198999999996;43.867000579833984;1673422783.1101587;0.36918333172798157;2.59926700592041;90.22183990478516
176;1673422783.1439312;47.1306425;7.2406198999999996;44.262001037597656;1673422783.3076923;0.6786247491836548;-2.3396904468536377;90.30113983154297
177;1673422783.3473446;47.1306425;7.2406198999999996;44.656002044677734;1673422783.5149765;0.29443275928497314;-1.3420237302780151;90.217529296875
178;1673422783.5565996;47.130642599999995;7.240619799999999;45.05000305175781;1673422783.7183273;0.358507364988327;2.0853660106658936;90.12190246582031
179;1673422783.7559643;47.1306425;7.240619799999999;45.44700241088867;1673422783.9185574;0.13258084654808044;-0.4781354069709778;90.29573059082031
180;1673422783.9542456;47.1306424;7.2406198999999996;45.84600067138672;1673422784.110154;0.0009519575396552682;-2.580315351486206;90.40078735351562
181;1673422784.1477995;47.1306424;7.240619799999999;46.246002197265625;1673422784.3164184;-0.2941029667854309;1.8830958604812622;89.98307037353516
182;1673422784.3638637;47.1306425;7.240619799999999;46.64600372314453;1673422784.5130303;-0.04190123826265335;1.19229257106781;89.99461364746094
183;1673422784.5512695;47.1306425;7.240619799999999;47.04500198364258;1673422784.7147963;-0.08245385438203812;-2.6168739795684814;90.43051147460938
184;1673422784.750469;47.130642599999995;7.240619799999999;47.448001861572266;1673422784.908095;0.08766646683216095;1.3227591514587402;90.25489044189453
185;1673422784.949673;47.130642699999996;7.240619799999999;47.85100173950195;1673422785.1183922;0.11126235127449036;2.087409496307373;90.08306884765625
186;1673422785.1501703;47.130642599999995;7.240619799999999;48.22600173950195;1673422785.3059857;-0.10525327175855637;-3.0352847576141357;90.20352935791016
187;1673422785.3416884;47.1306425;7.2406197;48.54500198364258;1673422785.4985628;-0.18594114482402802;1.0578176975250244;90.09781646728516
188;1673422785.5385818;47.130642599999995;7.2406197;48.81300354003906;1673422785.7118428;-0.1906990110874176;2.0647621154785156;90.19740295410156
189;1673422785.7465193;47.130642599999995;7.2406197;49.03400421142578;1673422785.9141834;0.0342944897711277;-2.4543559551239014;90.48760223388672
190;1673422785.95384;47.130642599999995;7.2406197;49.21900177001953;1673422786.1342342;5.318789005279541;4.063117504119873;90.39752197265625
191;1673422786.1709383;47.1306425;7.2406196;49.37800216674805;1673422786.3289049;22.33366584777832;26.015125274658203;99.7818374633789
192;1673422786.3665862;47.1306419;7.2406187;49.52300262451172;1673422786.515599;28.369232177734375;43.63663101196289;110.4269790649414
193;1673422786.551292;47.130639699999996;7.2406153;49.6510009765625;1673422786.7171397;25.903636932373047;55.16350555419922;119.54769134521484
194;1673422786.75086;47.130635399999996;7.2406083;49.75300216674805;1673422786.9138107;9.469039916992188;60.20833969116211;129.54722595214844
195;1673422786.9499583;47.1306283;7.2405973999999995;49.81700134277344;1673422787.1175225;-9.019536018371582;55.992919921875;140.00198364257812
196;1673422787.1571798;47.130618899999995;7.240583099999999;49.85200119018555;1673422787.3216894;-22.557357788085938;50.29798126220703;150.14517211914062
197;1673422787.3622448;47.1306077;7.2405665;49.87200164794922;1673422787.5240266;-34.96513366699219;46.68086624145508;160.5263214111328
198;1673422787.558518;47.130595;7.2405481;49.86900329589844;1673422787.7163002;-43.73258972167969;40.10894775390625;174.39076232910156
199;1673422787.7519972;47.1305808;7.240527999999999;49.85200119018555;1673422787.9166448;-48.95024871826172;32.01589584350586;-173.0480499267578
200;1673422787.9630723;47.1305653;7.240506;49.829002380371094;1673422788.1267219;-47.9378662109375;24.582378387451172;-165.97396850585938
201;1673422788.156571;47.1305489;7.2404825;49.78700256347656;1673422788.319009;-46.92692184448242;19.017471313476562;-159.898681640625
202;1673422788.3566475;47.130531999999995;7.2404581;49.73500061035156;1673422788.5338478;-47.78312301635742;13.5980224609375;-152.47982788085938
203;1673422788.5913472;47.1305147;7.2404331;49.68700408935547;1673422788.7486758;-46.789634704589844;7.729597568511963;-144.67959594726562
204;1673422788.7843935;47.130497;7.2404075;49.63900375366211;1673422788.9402306;-45.1566162109375;5.4259352684021;-138.87928771972656
205;1673422788.9692595;47.130479199999996;7.2403815;49.60700225830078;1673422789.110394;-45.81327438354492;-0.07473286986351013;-132.04193115234375
206;1673422789.1456184;47.130461499999996;7.2403552;49.59700393676758;1673422789.3226128;-47.30628204345703;-6.865555286407471;-130.9416046142578
207;1673422789.3519478;47.1304437;7.2403287999999995;49.59300231933594;1673422789.512169;-47.323570251464844;-5.534368991851807;-134.9290008544922
208;1673422789.5464218;47.1304255;7.2403026;49.59700393676758;1673422789.719779;-48.20209503173828;-4.742089748382568;-136.266357421875
209;1673422789.7593565;47.130407;7.240276799999999;49.60400390625;1673422789.9349911;-47.566715240478516;-3.1571929454803467;-137.31558227539062
210;1673422789.972643;47.1303881;7.2402511;49.61300277709961;1673422790.1285863;-47.285057067871094;-1.5681281089782715;-138.00863647460938
211;1673422790.1606004;47.130368999999995;7.2402257;49.634002685546875;1673422790.3233147;-48.43253707885742;-0.6426442265510559;-138.29261779785156
212;1673422790.3679435;47.1303497;7.2402003;49.65900421142578;1673422790.5141542;-49.14543914794922;0.18595749139785767;-138.50241088867188
213;1673422790.5512846;47.130330199999996;7.2401748999999995;49.68400192260742;1673422790.7192109;-49.35071563720703;0.5262713432312012;-138.47787475585938
214;1673422790.7505922;47.1303105;7.2401493;49.70900344848633;1673422790.9191895;-48.69972229003906;0.5940588712692261;-138.3035430908203
215;1673422790.9791348;47.1302908;7.2401235999999995;49.72600173950195;1673422791.1447399;-47.569862365722656;0.5356147885322571;-138.03607177734375
216;1673422791.1775742;47.130271099999995;7.240097899999999;49.73500061035156;1673422791.3183603;-47.224246978759766;0.45164814591407776;-137.86680603027344
217;1673422791.3526864;47.1302513;7.240071899999999;49.74700164794922;1673422791.512703;-47.650901794433594;0.4405827224254608;-137.75819396972656
218;1673422791.5543685;47.1302315;7.2400459999999995;49.7660026550293;1673422791.718242;-48.522300720214844;0.3605930507183075;-137.6267547607422
219;1673422791.7544394;47.1302118;7.2400199999999995;49.785003662109375;1673422791.9139802;-48.68311309814453;0.291026771068573;-137.54080200195312
220;1673422791.9531083;47.130192099999995;7.2399938;49.801002502441406;1673422792.114493;-48.24604415893555;0.20527024567127228;-137.40858459472656
221;1673422792.152566;47.1301723;7.2399676;49.81100082397461;1673422792.3167863;-47.765438079833984;0.1471835821866989;-137.29942321777344
222;1673422792.357501;47.130152599999995;7.2399413;49.81800079345703;1673422792.527204;-47.74281692504883;0.12182599306106567;-137.26983642578125
223;1673422792.5687768;47.1301329;7.2399149;49.827003479003906;1673422792.742309;-48.13093566894531;0.12763558328151703;-137.21937561035156
224;1673422792.7789693;47.1301132;7.2398886;49.833003997802734;1673422792.94473;-48.192718505859375;0.09959008544683456;-137.14198303222656
225;1673422792.9813862;47.130093599999995;7.239862199999999;49.83700180053711;1673422793.1364207;-47.86566925048828;0.0854930505156517;-137.1060333251953
226;1673422793.1711326;47.1300739;7.2398358;49.84100341796875;1673422793.33065;-47.94791793823242;0.05547313764691353;-137.08172607421875
227;1673422793.3643892;47.1300543;7.2398093;49.845001220703125;1673422793.5243657;-48.07182312011719;0.08860001713037491;-137.07046508789062
228;1673422793.564916;47.130034699999996;7.2397827999999995;49.84600067138672;1673422793.733554;-47.876399993896484;0.04666697978973389;-137.01394653320312
229;1673422793.771209;47.1300151;7.2397563;49.84600067138672;1673422793.9308784;-47.85429000854492;0.05496321618556976;-137.0074005126953
230;1673422793.967363;47.1299955;7.2397297;49.84800338745117;1673422794.1372788;-48.12394332885742;0.08958262950181961;-136.9996795654297
231;1673422794.1783779;47.1299759;7.2397031;49.85100173950195;1673422794.3454916;-48.25204849243164;0.03130672872066498;-136.97991943359375
232;1673422794.3835907;47.129956299999996;7.2396765;49.85600280761719;1673422794.5811315;-48.384193420410156;0.06619540601968765;-136.98289489746094
233;1673422794.6143198;47.129936699999995;7.2396499;49.862003326416016;1673422794.7693405;-48.30569839477539;-0.0029085667338222265;-136.931640625
234;1673422794.7995946;47.1299171;7.2396232;49.8650016784668;1673422794.9638886;-48.16462707519531;0.033654674887657166;-136.93734741210938
235;1673422795.002073;47.1298975;7.239596499999999;49.86300277709961;1673422795.152963;-47.92974090576172;-0.012635069899260998;-136.91632080078125
236;1673422795.1857235;47.1298779;7.2395697;49.8640022277832;1673422795.3300571;-47.98151397705078;-0.04349413514137268;-136.91307067871094
237;1673422795.3638694;47.129858299999995;7.239542999999999;49.867000579833984;1673422795.5205894;-48.181365966796875;-0.06563600897789001;-136.9065704345703
238;1673422795.5569086;47.129838799999995;7.2395162;49.87000274658203;1673422795.7257526;-48.30268859863281;-0.030657514929771423;-136.94203186035156
239;1673422795.762488;47.1298192;7.2394894999999995;49.87200164794922;1673422795.9135292;-48.0937614440918;-0.03005978837609291;-136.92022705078125
240;1673422795.9526327;47.1297997;7.2394627;49.87000274658203;1673422796.1180673;-47.794715881347656;0.03480983525514603;-136.94839477539062
241;1673422796.1542513;47.1297801;7.2394359999999995;49.86600112915039;1673422796.321585;-47.54576110839844;-0.020343810319900513;-136.93678283691406
242;1673422796.357705;47.129760499999996;7.2394092;49.862003326416016;1673422796.5081089;-47.45206069946289;-0.04694824293255806;-136.89520263671875
243;1673422796.5492337;47.129740999999996;7.2393825;49.86000061035156;1673422796.7160683;-47.77497482299805;-0.03348555415868759;-136.93325805664062
244;1673422796.7562377;47.129721499999995;7.2393557;49.867000579833984;1673422796.9223173;-48.2509765625;0.002379752928391099;-136.94546508789062
245;1673422796.9537175;47.129701999999995;7.239329;49.87600326538086;1673422797.1199796;-48.49026870727539;-0.07308153808116913;-136.90769958496094
246;1673422797.1572764;47.1296825;7.2393022;49.880001068115234;1673422797.3187354;-48.131561279296875;-0.02973652444779873;-136.9588623046875
247;1673422797.3529046;47.1296629;7.2392753;49.880001068115234;1673422797.519555;-47.717105865478516;-0.06667842715978622;-136.9334716796875
248;1673422797.5634904;47.1296433;7.2392484999999995;49.88200378417969;1673422797.7267187;-47.8054084777832;-0.08969289064407349;-136.91603088378906
249;1673422797.763819;47.1296238;7.2392217;49.88600158691406;1673422797.9164078;-48.07489013671875;0.047265853732824326;-136.97145080566406
250;1673422797.9544673;47.129604199999996;7.239195;49.89200210571289;1673422798.1315908;-48.296661376953125;0.04604887217283249;-136.95021057128906
251;1673422798.165789;47.129584699999995;7.239168299999999;49.900001525878906;1673422798.318764;-48.37120819091797;0.06811149418354034;-136.96920776367188
252;1673422798.349995;47.1295651;7.2391415;49.90800094604492;1673422798.510153;-48.06026077270508;0.05813873931765556;-136.92486572265625
253;1673422798.5551162;47.1295455;7.2391147;49.91100311279297;1673422798.712225;-47.90252685546875;0.02029259130358696;-136.9213104248047
254;1673422798.7601032;47.1295259;7.2390878999999995;49.9160041809082;1673422798.9214792;-47.8988151550293;-0.0631299689412117;-136.89300537109375
255;1673422798.9689877;47.1295064;7.2390609999999995;49.919002532958984;1673422799.1468546;-47.867977142333984;0.010947687551379204;-136.921875
256;1673422799.2035396;47.1294867;7.2390341;49.92100143432617;1673422799.348366;-47.786041259765625;0.051460158079862595;-136.92868041992188
257;1673422799.3776977;47.1294671;7.2390072;49.92400360107422;1673422799.5455167;-47.79725646972656;-0.008390863426029682;-136.90447998046875
258;1673422799.5818462;47.1294476;7.2389803;49.928001403808594;1673422799.7495885;-47.953102111816406;-0.2277054786682129;-136.8358612060547
259;1673422799.783324;47.129428;7.2389535;49.93400192260742;1673422799.9352424;-48.184349060058594;0.7190297245979309;-137.1505126953125
260;1673422799.9666533;47.129408399999996;7.2389266999999995;49.939002990722656;1673422800.1222575;-47.97229766845703;0.18414275348186493;-136.83506774902344
261;1673422800.1653745;47.1293888;7.2388997999999996;49.94400405883789;1673422800.3378017;-47.520633697509766;-0.4493970274925232;-136.7581024169922
262;1673422800.3773837;47.1293692;7.2388729;49.952003479003906;1673422800.546821;-48.153099060058594;-0.004914227873086929;-136.8614044189453
263;1673422800.5824962;47.1293497;7.238846;49.961002349853516;1673422800.74116;-48.428287506103516;-0.3197089433670044;-136.7400665283203
264;1673422800.7875664;47.129329999999996;7.2388192;49.97100067138672;1673422800.945258;-48.268489837646484;-0.040182359516620636;-136.9463348388672
265;1673422800.9761205;47.1293104;7.2387923;49.97800064086914;1673422801.1299436;-45.30231475830078;0.021986281499266624;-136.8450927734375
266;1673422801.1670873;47.1292908;7.238765399999999;49.9900016784668;1673422801.3305535;-34.5232048034668;-0.4977492094039917;-136.57119750976562
267;1673422801.369756;47.1292714;7.2387388999999995;50.02300262451172;1673422801.5334105;-18.17357635498047;0.3668336868286133;-136.39590454101562
268;1673422801.5710387;47.129252799999996;7.2387136;50.04300308227539;1673422801.7336028;-3.2002687454223633;0.6013363599777222;-136.47607421875
269;1673422801.7697656;47.129235699999995;7.2386902;50.047000885009766;1673422801.916619;7.50056266784668;0.7588651776313782;-136.5728759765625
270;1673422801.955656;47.1292206;7.2386696;50.0420036315918;1673422802.1209524;14.665916442871094;3.1649796962738037;-137.26699829101562
271;1673422802.156089;47.1292079;7.2386520999999995;50.022003173828125;1673422802.3174672;19.912031173706055;0.5129598379135132;-138.2920379638672
272;1673422802.3536093;47.1291975;7.2386377;49.98200225830078;1673422802.5190973;19.95126724243164;-3.5359694957733154;-138.30020141601562
273;1673422802.5615265;47.1291894;7.238626399999999;49.906002044677734;1673422802.734623;12.258428573608398;1.7478032112121582;-138.0549774169922
274;1673422802.765869;47.1291831;7.2386177;49.823001861572266;1673422802.9203045;11.198071479797363;-1.5505449771881104;-137.3372802734375
275;1673422802.957393;47.1291783;7.238611;49.737003326416016;1673422803.1254914;3.413404703140259;3.360560417175293;-137.65673828125
276;1673422803.1676357;47.1291744;7.238605799999999;49.65900421142578;1673422803.3308804;-4.781198501586914;-1.3988903760910034;-137.6301727294922
277;1673422803.3650641;47.129171;7.2386013;49.59700393676758;1673422803.5283022;-13.672855377197266;-1.0611923933029175;-136.72640991210938
278;1673422803.5654154;47.129167699999996;7.2385972;49.56500244140625;1673422803.7218418;-16.765018463134766;-0.5321338772773743;-136.19686889648438
279;1673422803.764933;47.1291642;7.2385927;49.553001403808594;1673422803.947619;-14.733575820922852;0.6907326579093933;-135.75582885742188
280;1673422803.9843287;47.1291606;7.2385879;49.573001861572266;1673422804.1410766;-8.733783721923828;3.212818145751953;-135.60546875
281;1673422804.1885588;47.1291571;7.238582699999999;49.63100051879883;1673422804.343501;-3.4114067554473877;3.668076515197754;-135.8946990966797
282;1673422804.3840516;47.1291538;7.2385777;49.715003967285156;1673422804.550553;-22.7988224029541;2.8316309452056885;-137.41661071777344
283;1673422804.5892694;47.1291507;7.2385727;49.833003997802734;1673422804.7916806;-17.801532745361328;0.5596898198127747;-137.4656219482422
284;1673422804.8259072;47.129146899999995;7.238567;49.996002197265625;1673422804.9749558;-14.633623123168945;0.4719375967979431;-137.49253845214844
285;1673422805.0038629;47.129142599999994;7.238560799999999;50.250003814697266;1673422805.1497548;-19.801340103149414;1.0187269449234009;-137.6535186767578
286;1673422805.1875286;47.129138;7.238554;50.59300231933594;1673422805.357234;-42.26087188720703;0.2781045734882355;-137.86045837402344
287;1673422805.3988638;47.1291327;7.2385459999999995;51.00300216674805;1673422805.5552917;-39.36380386352539;-3.63293719291687;-137.1280059814453
288;1673422805.5963333;47.129126;7.2385363;51.4170036315918;1673422805.7454574;-39.362125396728516;2.139791965484619;-137.6916046142578
289;1673422805.7868965;47.1291181;7.2385253;51.81100082397461;1673422805.9309795;-34.67995834350586;0.6076528429985046;-136.81292724609375
290;1673422805.971037;47.129109199999995;7.2385131;52.18000411987305;1673422806.1550124;-31.1536865234375;0.7849624156951904;-137.09915161132812
291;1673422806.197983;47.129099599999996;7.2385002;52.53700256347656;1673422806.3460388;-28.12801170349121;-0.1161443442106247;-136.8170623779297
292;1673422806.3807588;47.1290896;7.2384867999999996;52.8900032043457;1673422806.5357938;-26.067697525024414;-0.8151873350143433;-136.72496032714844
293;1673422806.5758116;47.129079499999996;7.2384733;53.2400016784668;1673422806.7510498;-25.12303352355957;-1.1837776899337769;-136.72714233398438
294;1673422806.785419;47.1290695;7.238459799999999;53.59800338745117;1673422806.951017;-24.33812713623047;-0.798714816570282;-137.00881958007812
295;1673422806.9876842;47.129059399999996;7.2384461;53.9640007019043;1673422807.147396;-24.098230361938477;0.4652242660522461;-137.4698028564453
296;1673422807.1796303;47.1290495;7.238432599999999;54.33700180053711;1673422807.364527;-24.016448974609375;1.4803619384765625;-137.87521362304688
297;1673422807.4070508;47.1290397;7.2384189999999995;54.71600341796875;1673422807.618038;-24.376317977905273;2.635796308517456;-138.2096710205078
298;1673422807.661024;47.12903;7.2384055;55.099002838134766;1673422807.8039885;-24.39716911315918;2.497344970703125;-138.13369750976562
299;1673422807.8362484;47.129020399999995;7.2383920999999996;55.483001708984375;1673422807.9784;-25.174236297607422;1.6493810415267944;-138.01052856445312
300;1673422808.0170686;47.129010799999996;7.2383788;55.8650016784668;1673422808.1771612;-25.473079681396484;0.4037848711013794;-137.74285888671875
301;1673422808.2123506;47.129000999999995;7.238365699999999;56.24800109863281;1673422808.373099;-25.377765655517578;-0.9159733653068542;-137.337158203125
302;1673422808.4088204;47.128991299999996;7.2383526;56.63600158691406;1673422808.616569;-25.4857177734375;-1.2044585943222046;-137.24761962890625
303;1673422808.6449013;47.128981499999995;7.2383394;57.02400207519531;1673422808.8070874;-25.560888290405273;-0.4519837498664856;-137.5814208984375
304;1673422808.8364294;47.128971899999996;7.2383261;57.41100311279297;1673422808.9885597;-25.514118194580078;-0.035435501486063004;-137.51222229003906
305;1673422809.0193517;47.1289622;7.2383128;57.79900360107422;1673422809.1851254;-25.684362411499023;1.3579175472259521;-137.70730590820312
306;1673422809.2379465;47.1289526;7.2382995;58.189002990722656;1673422809.399266;-25.778615951538086;2.2465124130249023;-138.0178985595703
307;1673422809.4314647;47.128943;7.2382861;58.57500457763672;1673422809.6042213;-25.700973510742188;2.4635026454925537;-138.00885009765625
308;1673422809.636572;47.1289334;7.2382727;58.95900344848633;1673422809.7631373;-25.684091567993164;2.5379812717437744;-137.88729858398438
309;1673422809.7997923;47.128923799999995;7.238259299999999;59.342002868652344;1673422809.9656374;-25.76274299621582;1.851271629333496;-137.69741821289062
310;1673422809.9993856;47.128914099999996;7.2382458;59.72900390625;1673422810.1592562;-26.036367416381836;1.1082099676132202;-137.3935546875
311;1673422810.1931603;47.1289045;7.238232399999999;60.11700439453125;1673422810.3539276;-25.800399780273438;0.5647795796394348;-137.45655822753906
312;1673422810.398864;47.1288948;7.238219;60.506004333496094;1673422810.5651982;-25.9935302734375;0.03191712498664856;-137.2437286376953
313;1673422810.6008835;47.128885;7.2382056;60.89900207519531;1673422810.7430592;-26.11461067199707;-1.0116984844207764;-136.9726104736328
314;1673422810.7754672;47.128875199999996;7.2381923;61.29600143432617;1673422810.9301069;-25.985963821411133;-1.224345088005066;-136.8570556640625
315;1673422810.962353;47.128865399999995;7.238179;61.69200134277344;1673422811.1568866;-26.072420120239258;-1.5755910873413086;-136.71456909179688
316;1673422811.196478;47.1288556;7.2381657;62.08500289916992;1673422811.3386705;-26.09627914428711;-1.0854039192199707;-136.9248809814453
317;1673422811.366975;47.1288457;7.238152299999999;62.474002838134766;1673422811.5156224;-26.19666862487793;-1.2808516025543213;-136.83615112304688
318;1673422811.5499048;47.1288359;7.238138999999999;62.8640022277832;1673422811.7268777;-26.296152114868164;-0.6510624885559082;-136.92987060546875
319;1673422811.7659304;47.1288261;7.2381256;63.25300216674805;1673422811.9409614;-26.321123123168945;-0.04880187287926674;-137.08006286621094
320;1673422811.9741364;47.1288163;7.2381120999999995;63.64200210571289;1673422812.1654115;-26.364652633666992;0.25478386878967285;-137.1588592529297
321;1673422812.1981993;47.128806499999996;7.2380986;64.0320053100586;1673422812.4151769;-26.305179595947266;0.8167135715484619;-137.25694274902344
322;1673422812.4502916;47.128796699999995;7.238085;64.42500305175781;1673422812.5927982;-26.351831436157227;0.8660734295845032;-137.3134765625
323;1673422812.6250052;47.128786999999996;7.2380714;64.81800079345703;1673422812.7711365;-26.2178897857666;1.1162426471710205;-137.29408264160156
324;1673422812.8051128;47.1287771;7.2380578;65.21000671386719;1673422812.9610279;-26.23961067199707;1.1473259925842285;-137.2728729248047
325;1673422812.998004;47.1287673;7.238044299999999;65.59900665283203;1673422813.1643615;-26.368383407592773;1.29020094871521;-137.24777221679688
326;1673422813.200019;47.1287574;7.2380309;65.99100494384766;1673422813.3793926;-26.5006103515625;1.7185945510864258;-137.19053649902344
327;1673422813.4121125;47.128747399999995;7.2380175;66.38500213623047;1673422813.575461;-26.523889541625977;1.6736222505569458;-137.09591674804688
328;1673422813.6150367;47.1287374;7.2380040999999995;66.7800064086914;1673422813.7749352;-26.47232437133789;1.9636131525039673;-137.1059112548828
329;1673422813.8076897;47.1287275;7.2379907;67.17500305175781;1673422813.9536812;-26.427099227905273;2.0944433212280273;-137.17239379882812
330;1673422814.0002236;47.128717599999995;7.2379771999999996;67.57400512695312;1673422814.166777;-26.504432678222656;1.5105674266815186;-137.04356384277344
331;1673422814.1995366;47.1287077;7.2379636;67.97400665283203;1673422814.3639977;-26.568138122558594;1.136284351348877;-136.99325561523438
332;1673422814.4084609;47.1286979;7.237949899999999;68.37100219726562;1673422814.617732;-26.645923614501953;0.5858169794082642;-136.88333129882812
333;1673422814.6559792;47.128688;7.237936299999999;68.76800537109375;1673422814.796267;-26.657451629638672;0.25218892097473145;-136.81744384765625
334;1673422814.8305576;47.128678099999995;7.2379226999999995;69.16800689697266;1673422814.9736118;-26.870136260986328;-0.08309150487184525;-136.7082977294922
335;1673422815.0084002;47.1286682;7.2379090999999995;69.56500244140625;1673422815.1629195;-26.79930877685547;-0.009382419288158417;-136.75897216796875
336;1673422815.2027023;47.1286582;7.2378955;69.95899963378906;1673422815.3391166;-26.852489471435547;0.026001570746302605;-136.8191375732422
337;1673422815.3733096;47.128648299999995;7.2378819;70.35200500488281;1673422815.5387383;-26.89051055908203;0.10925754904747009;-136.78518676757812
338;1673422815.5797288;47.1286383;7.237868199999999;70.74600219726562;1673422815.753856;-26.76320457458496;-0.3904262185096741;-136.68435668945312
339;1673422815.7930655;47.1286284;7.2378545;71.14600372314453;1673422815.9531136;-26.50383186340332;-0.6577077507972717;-136.6262664794922
340;1673422815.9956987;47.128618499999995;7.2378407;71.54800415039062;1673422816.149566;-26.527694702148438;-0.4848068654537201;-136.70635986328125
341;1673422816.1866555;47.1286086;7.2378269;71.94800567626953;1673422816.34597;-26.539079666137695;-0.8224045038223267;-136.64654541015625
342;1673422816.3801112;47.1285986;7.2378132;72.34600067138672;1673422816.54951;-26.76409149169922;-0.6566430926322937;-136.6382293701172
343;1673422816.5886354;47.128588699999995;7.2377996;72.74400329589844;1673422816.7453005;-26.809457778930664;-0.42929694056510925;-136.652587890625
344;1673422816.7815382;47.1285787;7.2377858999999996;73.14500427246094;1673422816.9389188;-26.83321762084961;-0.21984675526618958;-136.69590759277344
345;1673422816.974055;47.1285688;7.2377723;73.54700469970703;1673422817.2483516;-26.835344314575195;-0.16248758137226105;-136.718994140625
346;1673422817.2883494;47.128558899999994;7.2377587;73.94300079345703;1673422817.4542966;-27.01373291015625;-0.2369007021188736;-136.75103759765625
347;1673422817.4935477;47.128549;7.2377449;74.33700561523438;1673422817.6702983;-26.986881256103516;-0.23582758009433746;-136.80429077148438
348;1673422817.709873;47.1285391;7.2377312;74.73100280761719;1673422817.8510144;-27.09256935119629;-0.2553555965423584;-136.83815002441406
349;1673422817.883223;47.128529099999994;7.237717399999999;75.12200164794922;1673422818.0444732;-26.96243667602539;-0.19260194897651672;-136.88723754882812
350;1673422818.0807147;47.1285191;7.2377036;75.51399993896484;1673422818.254873;-27.016576766967773;0.007340032607316971;-136.90228271484375
351;1673422818.2837698;47.128509199999996;7.2376898999999995;75.9070053100586;1673422818.4524221;-26.86138916015625;0.14046138525009155;-136.92979431152344
352;1673422818.4876654;47.1284992;7.2376762999999995;76.3010025024414;1673422818.6362388;-26.846927642822266;0.28560250997543335;-136.942138671875
353;1673422818.6723912;47.1284892;7.237662599999999;76.69700622558594;1673422818.8326993;-26.716541290283203;0.3993656039237976;-136.90953063964844
354;1673422818.864987;47.1284792;7.2376489;77.09800720214844;1673422819.0311804;-26.812868118286133;0.24219825863838196;-136.8680877685547
355;1673422819.0692415;47.1284692;7.2376353;77.5;1673422819.238747;-26.62512969970703;0.4357874095439911;-136.9187774658203
356;1673422819.2709548;47.128459199999995;7.2376216;77.9000015258789;1673422819.4347007;-26.678749084472656;0.4727063775062561;-136.89022827148438
357;1673422819.4748707;47.1284493;7.2376078999999995;78.29900360107422;1673422819.6605375;-26.634546279907227;0.49001237750053406;-136.9331817626953
358;1673422819.6968133;47.1284393;7.2375943;78.69900512695312;1673422819.8678622;-26.607091903686523;0.2798532247543335;-136.90415954589844
359;1673422819.9015803;47.128429399999995;7.237580599999999;79.10000610351562;1673422820.0473952;-26.56283187866211;0.29601138830184937;-136.92201232910156
360;1673422820.0825167;47.1284195;7.2375669;79.50200653076172;1673422820.227791;-26.607789993286133;0.21182404458522797;-136.93621826171875
361;1673422820.261944;47.1284096;7.2375532;79.90300750732422;1673422820.4269714;-26.469562530517578;0.18212640285491943;-136.9073486328125
362;1673422820.4689786;47.128399699999996;7.2375395;80.30500030517578;1673422820.6389608;-26.708637237548828;0.09939884394407272;-136.93377685546875
363;1673422820.6770334;47.1283898;7.237525799999999;80.70700073242188;1673422820.8313768;-26.654470443725586;0.16453537344932556;-136.95333862304688
364;1673422820.8724651;47.12838;7.2375123;81.10700225830078;1673422821.033784;-26.814167022705078;0.2750359773635864;-136.9374237060547
365;1673422821.0708706;47.1283701;7.2374987;81.50700378417969;1673422821.2358544;-26.905134201049805;0.3061138689517975;-136.94979858398438
366;1673422821.272933;47.128360199999996;7.2374851;81.9070053100586;1673422821.439312;-26.940662384033203;0.27973315119743347;-136.9358367919922
367;1673422821.4764025;47.128350399999995;7.2374715;82.3070068359375;1673422821.6544237;-27.074039459228516;0.29426974058151245;-136.94992065429688
368;1673422821.6924953;47.1283405;7.2374579;82.70800018310547;1673422821.8979108;-26.75259017944336;0.27438485622406006;-136.93641662597656
369;1673422821.9317346;47.1283306;7.2374443;83.10700225830078;1673422822.0829058;-26.873760223388672;0.3117612600326538;-136.94847106933594
370;1673422822.1205351;47.128320699999996;7.2374307;83.5040054321289;1673422822.284258;-26.857873916625977;0.3400663733482361;-136.92410278320312
371;1673422822.3176827;47.1283108;7.2374171;83.9000015258789;1673422822.4803486;-26.878202438354492;0.27106231451034546;-136.927734375
372;1673422822.51391;47.1283009;7.2374034;84.29800415039062;1673422822.663861;-26.840373992919922;0.32418614625930786;-136.95138549804688
373;1673422822.7137606;47.128290899999996;7.2373897;84.69700622558594;1673422822.8647003;-26.759111404418945;0.1815822720527649;-136.92529296875
374;1673422822.9008286;47.128281;7.2373761;85.09500122070312;1673422823.0615513;-26.61870574951172;0.2923034131526947;-136.9597625732422
375;1673422823.0976617;47.1282711;7.237362399999999;85.49200439453125;1673422823.2505267;-26.602041244506836;0.18744340538978577;-136.91531372070312
376;1673422823.2866297;47.128261099999996;7.2373487;85.89200592041016;1673422823.4429793;-26.712190628051758;0.11515894532203674;-136.92347717285156
377;1673422823.4800684;47.1282512;7.237335099999999;86.29100036621094;1673422823.6419325;-26.70708656311035;0.3185406029224396;-136.96139526367188
378;1673422823.6791058;47.1282413;7.2373214;86.69100189208984;1673422823.8467536;-26.54910659790039;0.2643386125564575;-136.9379425048828
379;1673422823.882935;47.128231299999996;7.2373078;87.09000396728516;1673422824.0679421;-26.540367126464844;0.2289091944694519;-136.9218292236328
380;1673422824.104066;47.1282214;7.2372941;87.48900604248047;1673422824.2706757;-26.58785629272461;0.2505689263343811;-136.91798400878906
381;1673422824.310494;47.1282114;7.2372805;87.88700103759766;1673422824.4742167;-26.64474105834961;0.2804125249385834;-136.95620727539062
382;1673422824.5064151;47.128201499999996;7.2372669;88.281005859375;1673422824.657126;-26.60700035095215;0.23596258461475372;-136.93707275390625
383;1673422824.693237;47.1281916;7.2372533;88.67400360107422;1673422824.8321133;-26.724895477294922;0.31750646233558655;-136.9359588623047
384;1673422824.864354;47.1281816;7.2372397;89.07000732421875;1673422825.0352497;-26.659814834594727;0.2268325239419937;-136.93385314941406
385;1673422825.0791733;47.128171699999996;7.2372261;89.46400451660156;1673422825.2411766;-26.71957015991211;0.16217190027236938;-136.9305877685547
386;1673422825.2880678;47.1281618;7.2372125;89.85700225830078;1673422825.4487934;-26.657331466674805;0.1158047467470169;-136.913818359375
387;1673422825.4908218;47.1281519;7.2371989;90.25100708007812;1673422825.6848574;-26.750375747680664;0.13623853027820587;-136.92620849609375
388;1673422825.7293854;47.128141899999996;7.237185299999999;90.64400482177734;1673422825.8831828;-26.80570411682129;0.11914314329624176;-136.9044952392578
389;1673422825.913012;47.128132;7.237171699999999;91.03900146484375;1673422826.0629451;-26.71974754333496;0.1227741539478302;-136.94786071777344
390;1673422826.0990725;47.1281221;7.237158099999999;91.43600463867188;1673422826.2777808;-26.700761795043945;0.0928751677274704;-136.94590759277344
391;1673422826.3080387;47.128112099999996;7.237144499999999;91.8330078125;1673422826.4506333;-26.65987205505371;0.11055198311805725;-136.92724609375
392;1673422826.48089;47.1281022;7.237131;92.2280044555664;1673422826.646116;-26.531145095825195;0.2968972623348236;-136.921875
393;1673422826.6871092;47.1280922;7.2371174;92.62400817871094;1673422826.9171257;-26.66370391845703;0.15657512843608856;-136.890380859375
394;1673422826.946404;47.128082199999994;7.237103899999999;93.02300262451172;1673422827.076875;-26.66455841064453;0.3596012592315674;-136.89895629882812
395;1673422827.1051877;47.1280722;7.2370904;93.42300415039062;1673422827.2498863;-26.556568145751953;0.4357469081878662;-136.9102783203125
396;1673422827.2900095;47.128062299999996;7.2370768;93.82100677490234;1673422827.4512281;-26.66956901550293;0.2910606861114502;-136.87789916992188
397;1673422827.4884453;47.1280523;7.2370633;94.22000122070312;1673422827.648679;-26.801990509033203;0.25379127264022827;-136.890625
398;1673422827.6847954;47.1280424;7.2370497;94.62000274658203;1673422827.8480482;-26.715896606445312;0.29556912183761597;-136.86544799804688
399;1673422827.8857508;47.128032499999996;7.2370361;95.01900482177734;1673422828.04425;-26.66765594482422;0.13278134167194366;-136.86135864257812
400;1673422828.084254;47.1280225;7.237022499999999;95.41900634765625;1673422828.2548153;-26.585620880126953;0.24710504710674286;-136.8830108642578
401;1673422828.2910073;47.1280126;7.237008899999999;95.81800079345703;1673422828.4582057;-26.6201229095459;0.22358399629592896;-136.8774871826172
402;1673422828.4933867;47.128002699999996;7.236995299999999;96.21900177001953;1673422828.6554956;-26.66134262084961;0.3371533155441284;-136.87799072265625
403;1673422828.6946077;47.1279927;7.236981699999999;96.61900329589844;1673422828.8511102;-26.74891471862793;0.0031713403295725584;-136.8565216064453
404;1673422828.8863237;47.1279828;7.2369680999999995;97.01800537109375;1673422829.047588;-26.596940994262695;0.26987719535827637;-136.8837127685547
405;1673422829.0846648;47.127972899999996;7.2369546;97.41700744628906;1673422829.2402272;-26.472898483276367;0.3043065667152405;-136.84365844726562
406;1673422829.2802293;47.1279629;7.236941;97.81700134277344;1673422829.4317892;-26.52230453491211;0.39366844296455383;-136.8634033203125
407;1673422829.47285;47.1279529;7.236927499999999;98.21900177001953;1673422829.6343117;-26.663230895996094;0.45727255940437317;-136.84063720703125
408;1673422829.6891105;47.127942999999995;7.236914;98.62000274658203;1673422829.8676438;-26.5821590423584;0.3446548879146576;-136.8013916015625
409;1673422829.9009445;47.1279331;7.236900299999999;99.02200317382812;1673422830.0634348;-26.670934677124023;0.1097094938158989;-136.83531188964844
410;1673422830.0967646;47.1279232;7.2368866999999995;99.42400360107422;1673422830.2376015;-26.62201690673828;0.23670126497745514;-136.86317443847656
411;1673422830.269803;47.127913299999996;7.2368730999999995;99.82500457763672;1673422830.4231331;-26.610525131225586;0.27283230423927307;-136.8313446044922
412;1673422830.4612274;47.1279034;7.2368595;100.22400665283203;1673422830.6379209;-26.818069458007812;0.15296687185764313;-136.8058624267578
413;1673422830.6772797;47.1278935;7.2368459;100.62200164794922;1673422830.8555205;-26.764095306396484;0.2614653706550598;-136.8403778076172
414;1673422830.8986156;47.1278836;7.2368323;101.01700592041016;1673422831.0887058;-26.690811157226562;0.2850114107131958;-136.82737731933594
415;1673422831.1217084;47.1278736;7.2368187;101.41400146484375;1673422831.2862144;-26.638656616210938;0.30174288153648376;-136.81121826171875
416;1673422831.3219078;47.1278637;7.2368051;101.81400299072266;1673422831.4977596;-26.71612548828125;0.03596622496843338;-136.80247497558594
417;1673422831.5324662;47.1278539;7.2367913999999995;102.21400451660156;1673422831.6727982;-26.808198928833008;0.17900435626506805;-136.83929443359375
