;pos_time;latitude;longitude;altitude;alt_time;pitch;roll;yaw
0;1673424656.0429733;47.1306423;7.24062;0.00800000037997961;1673424656.1802373;0.03420940414071083;-0.30232420563697815;90.28992462158203
1;1673424656.2422783;47.1306423;7.24062;0.01100000087171793;1673424656.390283;0.14332859218120575;-0.27849122881889343;90.46978759765625
2;1673424656.4495118;47.1306423;7.2406198999999996;0.01100000087171793;1673424656.6037283;0.003495495766401291;-0.31011465191841125;90.33008575439453
3;1673424656.6761825;47.1306423;7.2406198999999996;0.009000000543892384;1673424656.8089178;0.0539717860519886;-0.29721930623054504;90.35475158691406
4;1673424656.8648357;47.1306423;7.2406198999999996;0.005000000353902578;1673424657.0583184;0.0551484078168869;-0.2349439561367035;90.2774887084961
5;1673424657.099421;47.1306423;7.2406198999999996;0.005000000353902578;1673424657.2243435;-0.13370156288146973;-0.24472558498382568;90.24171447753906
6;1673424657.2811491;47.1306422;7.2406198999999996;0.005000000353902578;1673424657.414808;-0.13767464458942413;-0.187527135014534;90.19001007080078
7;1673424657.470606;47.1306422;7.2406198999999996;0.003000000026077032;1673424657.6280107;0.07027789950370789;-0.2813236713409424;90.11421966552734
8;1673424657.6790211;47.1306422;7.240619799999999;0.003000000026077032;1673424657.8164768;0.2211608588695526;-0.23254476487636566;90.09891510009766
9;1673424657.8697047;47.1306422;7.240619799999999;0.0020000000949949026;1673424658.0050814;-0.029855743050575256;-0.4359239637851715;89.99756622314453
10;1673424658.0751913;47.1306422;7.240619799999999;0.0;1673424658.2158732;0.0023511857725679874;-1.0206197500228882;90.30072784423828
11;1673424658.2774076;47.1306422;7.240619799999999;-0.0010000000474974513;1673424658.4234407;-0.18422970175743103;-0.4962981641292572;90.11024475097656
12;1673424658.4823492;47.1306422;7.240619799999999;-0.0020000000949949026;1673424658.6291077;-0.16813363134860992;-0.6999717950820923;90.10888671875
13;1673424658.689853;47.130642099999996;7.240619799999999;-0.005000000353902578;1673424658.8279505;0.10964951664209366;-0.6655948758125305;90.11328887939453
14;1673424658.876162;47.130642099999996;7.240619799999999;-0.010000000707805157;1673424659.0101817;0.3103078305721283;-0.6890342831611633;90.07164001464844
15;1673424659.0670822;47.1306422;7.240619799999999;-0.014000000432133675;1673424659.187707;0.08602247387170792;-1.1422600746154785;89.97612762451172
16;1673424659.24164;47.1306422;7.2406198999999996;-0.014000000432133675;1673424659.3834975;0.1051274985074997;-0.8937222361564636;89.90594482421875
17;1673424659.4451482;47.1306422;7.2406198999999996;-0.010000000707805157;1673424659.5799718;0.006583768408745527;-0.9789259433746338;89.96968078613281
18;1673424659.632804;47.1306423;7.24062;0.0020000000949949026;1673424659.7685344;-0.13150054216384888;-0.7709990739822388;90.16046905517578
19;1673424659.8283286;47.1306423;7.24062;0.005000000353902578;1673424659.9815557;-0.012238548137247562;-0.12131620943546295;90.0309066772461
20;1673424660.035297;47.1306423;7.2406201;0.007000000216066837;1673424660.1859264;0.06737785041332245;-0.7221184968948364;90.1048812866211
21;1673424660.2457495;47.1306423;7.2406201;0.005000000353902578;1673424660.3763843;0.2149701863527298;-0.18063382804393768;90.08123779296875
22;1673424660.4344976;47.1306423;7.2406201;0.004000000189989805;1673424660.5819254;0.007784574292600155;-0.13432595133781433;90.22357940673828
23;1673424660.6569355;47.1306423;7.2406201;0.003000000026077032;1673424660.7937376;0.17963357269763947;-0.5071882009506226;90.39522552490234
24;1673424660.848952;47.1306424;7.2406201;0.0;1673424660.9863417;0.1529746949672699;-0.6329976320266724;90.24830627441406
25;1673424661.063005;47.1306424;7.2406201;-0.005000000353902578;1673424661.1982288;0.14854809641838074;-0.4117591381072998;89.88851928710938
26;1673424661.2505505;47.1306424;7.2406201999999995;-0.007000000216066837;1673424661.396652;0.26443707942962646;-0.5213453769683838;89.58071899414062
27;1673424661.4497802;47.1306425;7.2406201999999995;-0.006000000052154064;1673424661.600729;0.10865557938814163;0.1115502268075943;87.76266479492188
28;1673424661.673281;47.130642599999995;7.2406201999999995;0.0;1673424661.808887;0.41604676842689514;2.674288034439087;85.55626678466797
29;1673424661.857177;47.1306428;7.2406201;0.013000000268220901;1673424661.995338;1.859331488609314;7.521600246429443;83.26387023925781
30;1673424662.0547018;47.130643;7.2406201;0.03200000151991844;1673424662.2629852;4.2445831298828125;12.921618461608887;84.09978485107422
31;1673424662.3078847;47.1306431;7.24062;0.0560000017285347;1673424662.463739;2.8316285610198975;12.875062942504883;85.6009292602539
32;1673424662.5387607;47.130643;7.2406198999999996;0.0950000062584877;1673424662.68358;2.5014307498931885;6.960197448730469;86.44081115722656
33;1673424662.7286665;47.1306429;7.2406198999999996;0.15600000321865082;1673424662.866983;2.1149449348449707;9.526559829711914;86.7036361694336
34;1673424662.915783;47.1306428;7.240619799999999;0.23600001633167267;1673424663.0471704;2.059782028198242;11.28311824798584;86.88705444335938
35;1673424663.096441;47.130642699999996;7.240619799999999;0.3290000259876251;1673424663.2597604;2.15826678276062;5.968631744384766;87.28536987304688
36;1673424663.3215046;47.1306425;7.2406198999999996;0.4310000240802765;1673424663.4552946;2.179810047149658;8.748903274536133;87.54117584228516
37;1673424663.523523;47.1306424;7.2406198999999996;0.5470000505447388;1673424663.672436;2.6910061836242676;11.906216621398926;87.67822265625
38;1673424663.7556775;47.1306422;7.2406198999999996;0.6800000071525574;1673424663.8646545;3.0778512954711914;7.649807929992676;87.81168365478516
39;1673424663.9164293;47.130641999999995;7.240619799999999;0.8290000557899475;1673424664.0400202;2.6640548706054688;7.690598011016846;87.54154205322266
40;1673424664.0897725;47.130641999999995;7.2406197;0.9950000643730164;1673424664.2322752;2.4044296741485596;11.175127029418945;87.17205047607422
41;1673424664.2872717;47.130641999999995;7.2406197;1.1750000715255737;1673424664.4563887;1.7436659336090088;7.740456581115723;87.54219818115234
42;1673424664.5213704;47.130641999999995;7.2406197;1.3620001077651978;1673424664.6981647;1.8954132795333862;7.288100719451904;87.74615478515625
43;1673424664.7450294;47.1306419;7.2406197;1.5520000457763672;1673424664.8942084;2.2009899616241455;11.747000694274902;86.58004760742188
44;1673424664.9430192;47.1306419;7.2406197;1.7410000562667847;1673424665.0721703;2.5047640800476074;8.228859901428223;86.7376937866211
45;1673424665.1259627;47.1306419;7.2406197;1.9310001134872437;1673424665.260384;2.501739263534546;6.812415599822998;87.00200653076172
46;1673424665.3287947;47.130641999999995;7.2406196;2.126000165939331;1673424665.4922066;2.458621025085449;9.784708023071289;87.01038360595703
47;1673424665.5539572;47.130642099999996;7.2406196;2.325000047683716;1673424665.666832;2.262726068496704;11.057574272155762;87.24970245361328
48;1673424665.711353;47.130642099999996;7.2406196;2.5240001678466797;1673424665.8459725;1.750916838645935;6.695099353790283;87.67137145996094
49;1673424665.9003482;47.130642099999996;7.2406196;2.7180001735687256;1673424666.0309956;1.529218316078186;10.619519233703613;87.49609375
50;1673424666.0844498;47.130641999999995;7.2406196;2.9120001792907715;1673424666.2240663;1.733634114265442;10.579069137573242;87.34357452392578
51;1673424666.2799895;47.1306419;7.2406196;3.1130001544952393;1673424666.4129233;1.9331737756729126;6.602695465087891;87.36622619628906
52;1673424666.4688585;47.130641999999995;7.2406196;3.317000150680542;1673424666.606769;2.2958250045776367;8.429577827453613;87.49168395996094
53;1673424666.6561015;47.1306422;7.2406196;3.5230002403259277;1673424666.8081064;2.204923629760742;12.634662628173828;87.66487121582031
54;1673424666.8584754;47.1306423;7.2406196;3.7270002365112305;1673424666.9960015;2.031790256500244;8.618558883666992;87.74919891357422
55;1673424667.0537283;47.1306423;7.2406196;3.9300003051757812;1673424667.1913023;1.6382555961608887;8.375722885131836;87.52934265136719
56;1673424667.2498388;47.1306423;7.2406196;4.131999969482422;1673424667.3961737;1.810438632965088;11.957887649536133;87.1564712524414
57;1673424667.4643476;47.1306422;7.2406197;4.330000400543213;1673424667.6043684;1.831161618232727;8.064826011657715;87.22423553466797
58;1673424667.669141;47.130642099999996;7.240619799999999;4.5320000648498535;1673424667.831863;2.2775659561157227;6.570216178894043;87.50083923339844
59;1673424667.8812723;47.1306422;7.2406198999999996;4.738000392913818;1673424668.0010705;2.6512038707733154;11.486547470092773;87.5678482055664
60;1673424668.0611558;47.1306423;7.2406198999999996;4.944000244140625;1673424668.1944;2.9434399604797363;9.839207649230957;87.47877502441406
61;1673424668.253118;47.1306423;7.24062;5.147000312805176;1673424668.4052305;2.5491139888763428;6.820065498352051;87.45633697509766
62;1673424668.458743;47.1306422;7.24062;5.3460001945495605;1673424668.5920756;2.1342875957489014;11.09618091583252;87.19449615478516
63;1673424668.6509955;47.130642099999996;7.2406201;5.544000148773193;1673424668.8031874;1.9351435899734497;9.287728309631348;87.12950134277344
64;1673424668.8568962;47.130642099999996;7.2406201;5.74500036239624;1673424669.0035634;2.1578750610351562;6.186798572540283;87.40557861328125
65;1673424669.1136656;47.1306422;7.2406201;5.953000068664551;1673424669.2460222;2.4920406341552734;11.30010986328125;87.48333740234375
66;1673424669.309172;47.1306424;7.2406201;6.163000106811523;1673424669.4279413;2.7550370693206787;12.132622718811035;87.49375915527344
67;1673424669.4741197;47.1306424;7.24062;6.371000289916992;1673424669.6124315;2.5291831493377686;7.037024021148682;87.40879821777344
68;1673424669.6821678;47.1306423;7.24062;6.575000286102295;1673424669.83734;2.4051802158355713;10.09689998626709;87.22016906738281
69;1673424669.884889;47.1306423;7.2406198999999996;6.778000354766846;1673424670.007246;2.1285524368286133;11.224942207336426;87.24809265136719
70;1673424670.0599642;47.1306424;7.2406198999999996;6.974000453948975;1673424670.1879368;2.052384853363037;7.475901126861572;87.6076889038086
71;1673424670.238689;47.1306424;7.2406198999999996;7.172000408172607;1673424670.3795133;1.9151382446289062;10.00533390045166;87.55307006835938
72;1673424670.4533107;47.1306425;7.2406198999999996;7.374000549316406;1673424670.5965683;2.3366036415100098;12.841523170471191;87.36917877197266
73;1673424670.6609433;47.1306425;7.2406198999999996;7.575000286102295;1673424670.8036432;2.7473018169403076;7.478739261627197;87.2515869140625
74;1673424670.860259;47.1306423;7.2406198999999996;7.77400016784668;1673424670.9972188;2.5824131965637207;7.990926265716553;87.20399475097656
75;1673424671.0540955;47.1306423;7.2406198999999996;7.972000598907471;1673424671.1925862;2.548027276992798;11.260183334350586;87.3785400390625
76;1673424671.2493896;47.1306422;7.2406198999999996;8.171000480651855;1673424671.397183;2.206561803817749;8.331306457519531;87.6307144165039
77;1673424671.4548142;47.1306423;7.24062;8.373000144958496;1673424671.6081924;1.8099560737609863;8.434831619262695;87.57799530029297
78;1673424671.672074;47.1306423;7.24062;8.580000877380371;1673424671.8221476;2.29923677444458;12.331687927246094;87.2611312866211
79;1673424671.8803003;47.1306423;7.2406201;8.78600025177002;1673424672.0076778;2.630744457244873;8.89052677154541;87.08570861816406
80;1673424672.0585217;47.1306422;7.2406201;8.98900032043457;1673424672.1881578;3.3445229530334473;6.556825160980225;87.14167022705078
81;1673424672.2416635;47.130642099999996;7.2406201999999995;9.192000389099121;1673424672.4030786;2.9269137382507324;11.602046012878418;87.39257049560547
82;1673424672.463744;47.1306422;7.2406201;9.394000053405762;1673424672.6154299;2.47688889503479;10.207608222961426;87.80989074707031
83;1673424672.664374;47.1306423;7.2406201;9.594000816345215;1673424672.7911448;2.0747592449188232;7.685474395751953;87.72564697265625
84;1673424672.8565972;47.1306424;7.2406201;9.794000625610352;1673424672.9972901;2.074699640274048;12.18423080444336;87.33760833740234
85;1673424673.052151;47.1306424;7.2406201;9.994000434875488;1673424673.2010877;2.2727701663970947;10.513548851013184;87.16960906982422
86;1673424673.2684796;47.1306423;7.2406201;10.199000358581543;1673424673.4085755;2.3916351795196533;7.758151054382324;87.13699340820312
87;1673424673.4555821;47.130642099999996;7.2406201;10.491000175476074;1673424673.5966477;2.5156400203704834;10.06007194519043;87.46275329589844
88;1673424673.6555626;47.1306419;7.24062;10.867000579833984;1673424673.7841454;2.889716863632202;12.039619445800781;87.8298110961914
89;1673424673.8449953;47.1306416;7.2406198999999996;11.255000114440918;1673424673.9843116;2.4108810424804688;7.719404220581055;87.7140121459961
90;1673424674.0397341;47.130641399999995;7.2406198999999996;11.647000312805176;1673424674.1986842;2.07340407371521;7.070066928863525;87.43916320800781
91;1673424674.2603216;47.1306412;7.2406198999999996;12.044000625610352;1673424674.4013996;2.0318853855133057;9.949529647827148;87.19678497314453
92;1673424674.4692953;47.1306411;7.2406198999999996;12.439000129699707;1673424674.6083534;2.390338182449341;6.212935447692871;87.33696746826172
93;1673424674.6642597;47.130641;7.2406198999999996;12.836000442504883;1673424674.8422642;2.309307336807251;5.716923713684082;87.42552185058594
94;1673424674.8906307;47.130641;7.2406198999999996;13.23900032043457;1673424675.0085435;2.2990000247955322;10.794928550720215;87.50598907470703
95;1673424675.0691411;47.1306412;7.240619799999999;13.63900089263916;1673424675.209406;2.4171979427337646;9.16709041595459;87.60528564453125
96;1673424675.269651;47.130641499999996;7.240619799999999;14.033000946044922;1673424675.4225404;2.247323513031006;7.957653999328613;87.77057647705078
97;1673424675.4836025;47.1306417;7.240619799999999;14.42500114440918;1673424675.6240234;2.2316372394561768;11.516042709350586;87.54535675048828
98;1673424675.6790395;47.1306418;7.240619799999999;14.816000938415527;1673424675.8243945;2.15124773979187;10.297588348388672;87.4554672241211
99;1673424675.8816488;47.1306417;7.240619799999999;15.206000328063965;1673424676.007415;2.3932712078094482;7.208832263946533;87.48716735839844
100;1673424676.0641508;47.1306417;7.240619799999999;15.600000381469727;1673424676.2181883;2.3225438594818115;11.02626895904541;87.2752685546875
101;1673424676.294031;47.1306417;7.240619799999999;15.996000289916992;1673424676.4341583;2.488696336746216;10.223013877868652;87.33331298828125
102;1673424676.4900267;47.1306417;7.240619799999999;16.38800048828125;1673424676.6465197;2.4378418922424316;6.828451156616211;87.49638366699219
103;1673424676.6993997;47.1306417;7.240619799999999;16.780000686645508;1673424676.8347087;2.435786247253418;9.437511444091797;87.48651885986328
104;1673424676.8888888;47.1306417;7.240619799999999;17.170000076293945;1673424677.0173168;2.4059910774230957;11.003799438476562;87.49989318847656
105;1673424677.065142;47.1306417;7.240619799999999;17.55900001525879;1673424677.1993365;1.9852544069290161;7.01578426361084;87.70533752441406
106;1673424677.2592506;47.1306417;7.240619799999999;17.951000213623047;1673424677.400387;1.9738242626190186;8.829487800598145;87.50548553466797
107;1673424677.4621406;47.1306417;7.240619799999999;18.34600067138672;1673424677.610187;2.1711714267730713;11.249641418457031;87.2663803100586
108;1673424677.6688511;47.1306418;7.240619799999999;18.737001419067383;1673424677.8097167;2.4049692153930664;7.453554630279541;87.39469146728516
109;1673424677.8776155;47.1306419;7.2406197;19.128000259399414;1673424678.0128696;2.1926169395446777;8.044353485107422;87.45159912109375
110;1673424678.072407;47.1306419;7.2406197;19.52400016784668;1673424678.212921;2.419257879257202;11.928587913513184;87.42890930175781
111;1673424678.2728715;47.1306419;7.2406197;19.922000885009766;1673424678.4081604;2.3465147018432617;8.004499435424805;87.51300811767578
112;1673424678.4658349;47.1306419;7.240619799999999;20.317001342773438;1673424678.616127;2.2716753482818604;8.188207626342773;87.55845642089844
113;1673424678.6773345;47.1306419;7.240619799999999;20.711000442504883;1673424678.822415;2.135575294494629;11.599193572998047;87.3525161743164
114;1673424678.8766522;47.1306419;7.240619799999999;21.104000091552734;1673424679.0205925;2.3672854900360107;8.521858215332031;87.37633514404297
115;1673424679.0903814;47.130641999999995;7.240619799999999;21.500001907348633;1673424679.2158577;2.2612037658691406;6.932852745056152;87.45743560791016
116;1673424679.2695649;47.130642099999996;7.240619799999999;21.900001525878906;1673424679.4076552;2.2795867919921875;11.43115520477295;87.32406616210938
117;1673424679.4604795;47.130642099999996;7.2406197;22.299001693725586;1673424679.6044796;2.30814266204834;9.429272651672363;87.45410919189453
118;1673424679.6650062;47.130642099999996;7.2406197;22.69700050354004;1673424679.8108282;2.3335492610931396;7.0726847648620605;87.64764404296875
119;1673424679.870148;47.130642099999996;7.2406197;23.100000381469727;1673424680.019616;2.198688507080078;11.353910446166992;87.52439880371094
120;1673424680.0664763;47.130642099999996;7.2406196;23.505001068115234;1673424680.2075598;2.3188636302948;10.983322143554688;87.42481231689453
121;1673424680.2613323;47.130642099999996;7.2406196;23.900001525878906;1673424680.4038377;2.1261565685272217;7.175854206085205;87.5447998046875
122;1673424680.4612668;47.130642099999996;7.2406196;24.295001983642578;1673424680.5990348;1.9636282920837402;10.012983322143555;87.34254455566406
123;1673424680.6548185;47.130642099999996;7.240619499999999;24.694000244140625;1673424680.7957022;2.205368757247925;10.999552726745605;87.2238540649414
124;1673424680.8544157;47.130641999999995;7.240619499999999;25.09200096130371;1673424681.0010188;2.1242728233337402;6.402010440826416;87.4336166381836
125;1673424681.05892;47.130641999999995;7.240619499999999;25.494001388549805;1673424681.219681;2.112729787826538;8.862018585205078;87.46775817871094
126;1673424681.2765243;47.130642099999996;7.240619499999999;25.9010009765625;1673424681.4202187;2.4509572982788086;11.649003028869629;87.60646057128906
127;1673424681.4735956;47.1306422;7.2406196;26.302001953125;1673424681.6206899;2.4386699199676514;8.094200134277344;87.6648941040039
128;1673424681.680944;47.1306423;7.2406196;26.69900131225586;1673424681.8338041;2.320699453353882;8.617375373840332;87.55040740966797
129;1673424681.8921041;47.1306423;7.2406197;27.097002029418945;1673424682.0401328;2.4572694301605225;12.135178565979004;87.35921478271484
130;1673424682.0943575;47.1306423;7.2406197;27.49700164794922;1673424682.2355042;2.4810898303985596;8.090487480163574;87.31739807128906
131;1673424682.2926593;47.1306422;7.2406197;27.9010009765625;1673424682.4241254;2.4118757247924805;7.8173651695251465;87.38688659667969
132;1673424682.4918807;47.1306422;7.2406197;28.308000564575195;1673424682.6445644;2.3375117778778076;11.80480670928955;87.43724060058594
133;1673424682.7031796;47.1306423;7.2406196;28.713001251220703;1673424682.8441348;2.284799098968506;9.545981407165527;87.63262176513672
134;1673424682.9029422;47.1306422;7.2406196;29.113000869750977;1673424683.0441744;2.119311571121216;7.448452472686768;87.58041381835938
135;1673424683.1148238;47.1306422;7.2406196;29.514001846313477;1673424683.237611;2.2099475860595703;11.404449462890625;87.35246276855469
136;1673424683.2879872;47.130642099999996;7.240619499999999;29.915000915527344;1673424683.4183707;2.1428685188293457;9.129051208496094;87.42471313476562
137;1673424683.4681554;47.130641999999995;7.240619499999999;30.314001083374023;1673424683.635567;2.2719860076904297;6.939110279083252;87.3631362915039
138;1673424683.6935136;47.130641999999995;7.240619499999999;30.714000701904297;1673424683.8309042;1.9974571466445923;10.499350547790527;87.25669860839844
139;1673424683.886137;47.130641999999995;7.240619499999999;31.11100196838379;1673424684.021376;2.166530132293701;9.842599868774414;87.28498840332031
140;1673424684.0863562;47.130642099999996;7.240619499999999;31.503002166748047;1673424684.232786;2.3315927982330322;6.72803258895874;87.53707122802734
141;1673424684.28756;47.1306422;7.240619499999999;31.895002365112305;1673424684.4277587;2.2144579887390137;10.18165397644043;87.45256805419922
142;1673424684.4888122;47.1306422;7.240619499999999;32.29199981689453;1673424684.6309733;2.447669506072998;11.496495246887207;87.52251434326172
143;1673424684.6853194;47.1306422;7.240619499999999;32.691001892089844;1673424684.8285878;2.0993218421936035;7.651647090911865;87.63140106201172
144;1673424684.8800025;47.1306422;7.2406196;33.09100341796875;1673424685.0197783;2.1112258434295654;9.690958976745605;87.41069030761719
145;1673424685.0780709;47.1306422;7.2406196;33.49400329589844;1673424685.2241797;2.126739263534546;11.439878463745117;87.23756408691406
146;1673424685.285518;47.1306422;7.2406196;33.895999908447266;1673424685.439727;2.4450197219848633;7.1799139976501465;87.3587646484375
147;1673424685.4959292;47.130642099999996;7.2406197;34.29300308227539;1673424685.6435213;2.2879090309143066;8.090989112854004;87.43484497070312
148;1673424685.69984;47.130642099999996;7.2406197;34.69000244140625;1673424685.8359594;2.3229076862335205;11.5725679397583;87.45867919921875
149;1673424685.8909793;47.130642099999996;7.2406197;35.092002868652344;1673424686.0263426;2.1961357593536377;8.77316665649414;87.64249420166016
150;1673424686.0794075;47.130642099999996;7.2406197;35.496002197265625;1673424686.2183373;2.151435613632202;7.449003219604492;87.53153991699219
151;1673424686.2809577;47.1306422;7.2406197;35.90500259399414;1673424686.4281578;2.2665364742279053;11.722137451171875;87.4012451171875
152;1673424686.4892864;47.1306423;7.2406197;36.31100082397461;1673424686.644489;2.4438183307647705;9.164067268371582;87.44355773925781
153;1673424686.7064118;47.1306423;7.240619799999999;36.711002349853516;1673424686.868351;2.35400128364563;6.930019855499268;87.36742401123047
154;1673424686.921334;47.1306423;7.240619799999999;37.108001708984375;1673424687.0795472;2.1633615493774414;11.242369651794434;87.27737426757812
155;1673424687.1312587;47.1306424;7.240619799999999;37.50699996948242;1673424687.251446;2.397812604904175;9.262434005737305;87.49898529052734
156;1673424687.3076296;47.1306424;7.2406198999999996;37.90800094604492;1673424687.4477153;2.2081642150878906;7.3581366539001465;87.55152893066406
157;1673424687.5060337;47.130642599999995;7.240619799999999;38.3120002746582;1673424687.6490877;2.2014386653900146;11.558649063110352;87.42623138427734
158;1673424687.7005801;47.130642699999996;7.240619799999999;38.71600341796875;1673424687.833792;2.4039883613586426;11.806766510009766;87.4129867553711
159;1673424687.8898346;47.1306428;7.240619799999999;39.11800003051758;1673424688.0280144;2.2348618507385254;7.327751636505127;87.43404388427734
160;1673424688.0827818;47.130642699999996;7.240619799999999;39.51700210571289;1673424688.2244542;2.111765146255493;9.697713851928711;87.2812728881836
161;1673424688.2774436;47.130642599999995;7.240619799999999;39.91200256347656;1673424688.4239593;2.091250419616699;10.87881088256836;87.30425262451172
162;1673424688.4799678;47.1306425;7.240619799999999;40.30900192260742;1673424688.6328294;2.2714431285858154;7.585097312927246;87.4566650390625
163;1673424688.6926026;47.1306425;7.2406198999999996;40.70900344848633;1673424688.8360355;2.297999382019043;7.879290580749512;87.47197723388672
164;1673424688.8928182;47.130642599999995;7.2406198999999996;41.111000061035156;1673424689.0459743;2.2763445377349854;11.830082893371582;87.42839813232422
165;1673424689.0971854;47.130642699999996;7.2406198999999996;41.51100158691406;1673424689.2420492;2.446002244949341;9.431185722351074;87.65678405761719
166;1673424689.294095;47.130642699999996;7.2406198999999996;41.906002044677734;1673424689.4268563;2.2124714851379395;7.82758092880249;87.70719146728516
167;1673424689.4838452;47.130642599999995;7.2406198999999996;42.302001953125;1673424689.6280122;2.3195056915283203;12.128080368041992;87.46971130371094
168;1673424689.689715;47.130642599999995;7.2406198999999996;42.70500183105469;1673424689.835792;2.2589991092681885;9.906375885009766;87.42721557617188
169;1673424689.8963356;47.1306425;7.240619799999999;43.108001708984375;1673424690.0317154;2.2043564319610596;6.995269298553467;87.36314392089844
170;1673424690.0904138;47.1306425;7.240619799999999;43.51400375366211;1673424690.233898;2.18373703956604;10.182964324951172;87.22620391845703
171;1673424690.2889566;47.130642599999995;7.2406197;43.922000885009766;1673424690.447983;2.1961510181427;10.723033905029297;87.32230377197266
172;1673424690.4998012;47.130642699999996;7.2406197;44.32500076293945;1673424690.6900992;2.176487445831299;7.0686774253845215;87.57350158691406
173;1673424690.76073;47.130642599999995;7.2406197;44.72300338745117;1673424690.9166312;2.1367063522338867;9.77489948272705;87.53097534179688
174;1673424690.962541;47.130642599999995;7.2406197;45.11900329589844;1673424691.0832195;2.3242483139038086;11.68210506439209;87.43408966064453
175;1673424691.131586;47.1306425;7.2406197;45.51700210571289;1673424691.2573237;2.2040324211120605;7.711453914642334;87.56071472167969
176;1673424691.312555;47.1306425;7.2406197;45.915000915527344;1673424691.4361234;2.0281789302825928;9.279953956604004;87.44813537597656
177;1673424691.4898038;47.130642599999995;7.2406196;46.31500244140625;1673424691.619209;2.1192338466644287;11.983874320983887;87.3372802734375
178;1673424691.6839414;47.130642599999995;7.2406196;46.71600341796875;1673424691.8272693;2.2382516860961914;7.817648887634277;87.43083190917969
179;1673424691.8879027;47.1306425;7.2406197;47.11300277709961;1673424692.0287733;2.214545249938965;7.924356937408447;87.47953033447266
180;1673424692.105412;47.1306425;7.2406197;47.51000213623047;1673424692.2559168;2.237577438354492;11.762957572937012;87.35595703125
181;1673424692.3454483;47.1306424;7.2406197;47.91200256347656;1673424692.4765854;2.018195152282715;9.248023986816406;87.46851348876953
182;1673424692.5415933;47.1306424;7.2406197;48.28900146484375;1673424692.6706207;2.030369997024536;7.745138645172119;87.38645935058594
183;1673424692.7368438;47.1306425;7.2406197;48.61600112915039;1673424692.8938131;2.196607828140259;11.32617473602295;87.30529022216797
184;1673424692.936981;47.130642699999996;7.2406197;48.8910026550293;1673424693.0732052;2.298227071762085;8.19434642791748;87.27062225341797
185;1673424693.1276333;47.1306428;7.2406197;49.117000579833984;1673424693.2600734;2.051342725753784;7.033112049102783;87.32778930664062
186;1673424693.3105216;47.1306429;7.2406197;49.297000885009766;1673424693.445818;12.504983901977539;19.49217987060547;89.65470886230469
187;1673424693.4966187;47.1306429;7.240619499999999;49.44900131225586;1673424693.6434166;25.35210609436035;36.577552795410156;101.05430603027344
188;1673424693.698147;47.1306422;7.240617899999999;49.59100341796875;1673424693.8326535;27.7943058013916;49.926185607910156;111.46807098388672
189;1673424693.883633;47.1306398;7.240613499999999;49.71800231933594;1673424694.0251167;20.554874420166016;57.967281341552734;120.4101791381836
190;1673424694.0797722;47.130635399999996;7.2406055;49.816001892089844;1673424694.2329137;1.789452075958252;58.410400390625;130.4544219970703
191;1673424694.2886684;47.1306288;7.2405944;49.875003814697266;1673424694.4363432;-13.489675521850586;53.47037124633789;140.68275451660156
192;1673424694.4968631;47.1306204;7.2405808;49.910003662109375;1673424694.6351073;-26.723373413085938;50.45521545410156;150.00228881835938
193;1673424694.6929014;47.130610499999996;7.2405652;49.923004150390625;1673424694.8236814;-38.131919860839844;42.96318817138672;163.08203125
194;1673424694.8931396;47.1305993;7.2405482;49.923004150390625;1673424695.032134;-48.74989700317383;39.544281005859375;176.2877960205078
195;1673424695.0918224;47.130586799999996;7.2405294;49.90700149536133;1673424695.2587643;-49.809967041015625;29.116344451904297;-172.10263061523438
196;1673424695.3285992;47.1305735;7.2405089;49.85300064086914;1673424695.4842935;-43.10238265991211;21.056564331054688;-167.2888946533203
197;1673424695.5394902;47.1305596;7.2404876;49.7760009765625;1673424695.6815968;-45.13682174682617;16.60869598388672;-161.45523071289062
198;1673424695.7284214;47.1305455;7.2404657;49.7130012512207;1673424695.8580935;-48.06524658203125;11.642973899841309;-153.34451293945312
199;1673424695.9085002;47.1305312;7.240443399999999;49.672000885009766;1673424696.0388863;-46.66720199584961;6.97274923324585;-145.93614196777344
200;1673424696.0935476;47.130516799999995;7.2404207;49.64800262451172;1673424696.2264438;-47.33888626098633;2.6891486644744873;-139.74618530273438
201;1673424696.2840269;47.130502199999995;7.2403976;49.63600158691406;1673424696.4258392;-48.153282165527344;-3.2447092533111572;-133.36276245117188
202;1673424696.4876688;47.130487699999996;7.240374;49.62600326538086;1673424696.6297436;-47.014427185058594;-9.459627151489258;-132.56715393066406
203;1673424696.6915338;47.1304729;7.2403504;49.618003845214844;1673424696.8376892;-46.63871765136719;-8.890908241271973;-135.80926513671875
204;1673424696.8877306;47.1304577;7.240327199999999;49.618003845214844;1673424697.0329742;-46.544044494628906;-7.366999626159668;-137.8931427001953
205;1673424697.0876746;47.130442099999996;7.240304699999999;49.621002197265625;1673424697.2388468;-47.7218132019043;-6.311532974243164;-138.59837341308594
206;1673424697.291575;47.130426299999996;7.2402827;49.63500213623047;1673424697.432433;-48.62542724609375;-4.760833740234375;-139.4972381591797
207;1673424697.5012279;47.1304102;7.240260999999999;49.660003662109375;1673424697.6308272;-49.6037712097168;-3.604910373687744;-139.96408081054688
208;1673424697.7013261;47.1303939;7.2402393;49.689002990722656;1673424697.8446743;-50.29289245605469;-2.7914838790893555;-140.1635284423828
209;1673424697.904873;47.1303773;7.240217599999999;49.7140007019043;1673424698.0616424;-49.376121520996094;-2.547908067703247;-139.98902893066406
210;1673424698.1155868;47.130360499999995;7.2401957999999995;49.72800064086914;1673424698.2561126;-48.03319549560547;-2.3965651988983154;-139.7815399169922
211;1673424698.333023;47.1303437;7.240173899999999;49.737003326416016;1673424698.4557822;-47.54726791381836;-2.655914545059204;-139.43357849121094
212;1673424698.5085113;47.1303268;7.2401520999999995;49.7400016784668;1673424698.6518636;-47.47916793823242;-2.7622313499450684;-139.21212768554688
213;1673424698.7114904;47.1303099;7.240130199999999;49.742000579833984;1673424698.8558712;-47.75011444091797;-2.8600213527679443;-139.07351684570312
214;1673424698.9090452;47.130293099999996;7.240108299999999;49.74700164794922;1673424699.0427752;-48.05579376220703;-2.992547035217285;-138.9257049560547
215;1673424699.097707;47.1302763;7.2400864;49.750003814697266;1673424699.2387872;-47.730594635009766;-2.9999470710754395;-138.8014373779297
216;1673424699.300971;47.1302594;7.2400644;49.75100326538086;1673424699.4449372;-47.576480865478516;-3.097867012023926;-138.6640625
217;1673424699.4947233;47.130242599999995;7.2400423;49.75400161743164;1673424699.666837;-47.66584777832031;-3.130614995956421;-138.5701446533203
218;1673424699.749297;47.1302258;7.240020299999999;49.75600051879883;1673424699.8676214;-47.748512268066406;-3.139355421066284;-138.4656524658203
219;1673424699.9210088;47.130209;7.2399983;49.75700378417969;1673424700.0600033;-47.80458068847656;-3.1440162658691406;-138.43780517578125
220;1673424700.113729;47.1301923;7.2399762;49.76100158691406;1673424700.2595432;-47.7718505859375;-3.23394775390625;-138.32217407226562
221;1673424700.3186479;47.1301756;7.239954;49.76700210571289;1673424700.4588535;-48.013832092285156;-3.2894999980926514;-138.27725219726562
222;1673424700.5130684;47.1301588;7.2399318;49.77300262451172;1673424700.6522803;-48.19424057006836;-3.2970967292785645;-138.22308349609375
223;1673424700.7102952;47.1301421;7.2399096;49.77700424194336;1673424700.850655;-48.0330924987793;-3.216794967651367;-138.20664978027344
224;1673424700.900593;47.130125299999996;7.2398874;49.77900314331055;1673424701.0360699;-47.823360443115234;-3.1859655380249023;-138.16964721679688
225;1673424701.0948603;47.1301086;7.239865099999999;49.77800369262695;1673424701.25223;-47.58864212036133;-3.2136831283569336;-138.0974578857422
226;1673424701.3138716;47.1300919;7.2398428;49.78200149536133;1673424701.4455523;-47.95988082885742;-3.2615466117858887;-138.05657958984375
227;1673424701.4984634;47.1300752;7.2398204999999995;49.790000915527344;1673424701.6441612;-48.33012390136719;-3.2595012187957764;-138.0420379638672
228;1673424701.702927;47.1300585;7.2397981;49.79600143432617;1673424701.8551621;-48.22892379760742;-3.2390449047088623;-138.02342224121094
229;1673424701.9140034;47.1300418;7.2397756;49.801002502441406;1673424702.1022599;-48.14674377441406;-3.149818181991577;-138.03785705566406
230;1673424702.1496668;47.1300251;7.2397532;49.80500411987305;1673424702.2906222;-48.164615631103516;-3.1757142543792725;-137.98220825195312
231;1673424702.341978;47.1300084;7.2397306;49.80600357055664;1673424702.4973695;-48.00581741333008;-3.1642918586730957;-137.9936981201172
232;1673424702.5463028;47.1299918;7.2397081;49.80800247192383;1673424702.6903663;-48.04608154296875;-3.176283359527588;-137.98890686035156
233;1673424702.738847;47.129975099999996;7.239685499999999;49.810001373291016;1673424702.8586385;-48.00369644165039;-3.2568860054016113;-137.9539794921875
234;1673424702.9085093;47.1299584;7.2396629;49.80900192260742;1673424703.039379;-47.941558837890625;-3.2502057552337646;-137.95262145996094
235;1673424703.09013;47.1299418;7.239640199999999;49.810001373291016;1673424703.2317388;-48.05984115600586;-3.2403295040130615;-137.95306396484375
236;1673424703.2887564;47.129925199999995;7.239617699999999;49.814002990722656;1673424703.4281394;-48.18079376220703;-3.2890238761901855;-137.93568420410156
237;1673424703.4857018;47.1299086;7.2395951;49.820003509521484;1673424703.6305425;-48.184852600097656;-3.235258102416992;-137.95823669433594
238;1673424703.6922839;47.1298919;7.2395724999999995;49.82400131225586;1673424703.833795;-48.18143081665039;-3.1616759300231934;-137.99774169921875
239;1673424703.8977892;47.129875299999995;7.2395498;49.827003479003906;1673424704.0397773;-47.98862838745117;-3.1405327320098877;-137.97653198242188
240;1673424704.0945325;47.1298587;7.2395271;49.827003479003906;1673424704.2289248;-47.74807357788086;-3.105412483215332;-137.9788360595703
241;1673424704.278713;47.129842;7.2395045;49.82500076293945;1673424704.4127607;-47.66929626464844;-3.1180686950683594;-137.973876953125
242;1673424704.4681213;47.129825399999994;7.2394818999999995;49.82600402832031;1673424704.603243;-47.60640335083008;-3.134965419769287;-137.9423828125
243;1673424704.6616735;47.1298088;7.2394592;49.83000183105469;1673424704.80555;-47.99943923950195;-3.153986930847168;-137.97467041015625
244;1673424704.8657794;47.1297922;7.2394365;49.836002349853516;1673424705.0246475;-48.181880950927734;-3.178826332092285;-137.98487854003906
245;1673424705.1014135;47.129775699999996;7.2394137;49.84600067138672;1673424705.252466;-48.34469223022461;-3.2089457511901855;-137.9822235107422
246;1673424705.3108504;47.1297591;7.2393909999999995;49.855003356933594;1673424705.4534996;-48.33281707763672;-3.1082024574279785;-138.05494689941406
247;1673424705.5102196;47.1297425;7.2393683;49.86100387573242;1673424705.6539915;-48.14599609375;-3.0600264072418213;-138.06814575195312
248;1673424705.7030647;47.129725799999996;7.2393455;49.86600112915039;1673424705.829929;-47.972660064697266;-3.1025781631469727;-138.0514678955078
249;1673424705.89769;47.1297091;7.2393227;49.867000579833984;1673424706.0615337;-47.90976333618164;-2.9704089164733887;-138.10696411132812
250;1673424706.1172042;47.1296925;7.2392999;49.868003845214844;1673424706.266925;-47.873573303222656;-3.0552845001220703;-138.0662078857422
251;1673424706.323322;47.1296758;7.2392771;49.868003845214844;1673424706.4751391;-47.88003158569336;-3.014493703842163;-138.13209533691406
252;1673424706.5242891;47.1296592;7.2392543;49.86900329589844;1673424706.6440773;-47.77143096923828;-3.028956651687622;-138.11798095703125
253;1673424706.6967857;47.1296426;7.2392315;49.87000274658203;1673424706.8528316;-47.82333755493164;-3.036271810531616;-138.13525390625
254;1673424706.9104648;47.129625999999995;7.2392088;49.87300109863281;1673424707.043712;-47.870418548583984;-3.035426139831543;-138.15374755859375
255;1673424707.1078176;47.1296094;7.2391860999999995;49.87700271606445;1673424707.2391849;-47.9614143371582;-2.9067118167877197;-138.20281982421875
256;1673424707.298063;47.1295928;7.2391632999999995;49.88200378417969;1673424707.4431214;-47.9156379699707;-2.8572840690612793;-138.22779846191406
257;1673424707.50771;47.129576199999995;7.2391406;49.887001037597656;1673424707.6379352;-47.839237213134766;-2.9022538661956787;-138.21453857421875
258;1673424707.6916864;47.1295596;7.2391179;49.89200210571289;1673424707.8477006;-47.93537139892578;-2.918220281600952;-138.24002075195312
259;1673424707.9005747;47.129543;7.2390951;49.89900207519531;1673424708.0580328;-48.005218505859375;-2.8536698818206787;-138.2498779296875
260;1673424708.1191318;47.129526299999995;7.239072299999999;49.906002044677734;1673424708.2573366;-47.87126922607422;-2.817958116531372;-138.29702758789062
261;1673424708.3124828;47.1295097;7.239049499999999;49.91200256347656;1673424708.4596078;-47.872745513916016;-2.820979595184326;-138.31285095214844
262;1673424708.5184076;47.129493;7.239026699999999;49.9160041809082;1673424708.6429365;-47.85139846801758;-2.753074884414673;-138.36976623535156
263;1673424708.6977131;47.129476399999994;7.239003899999999;49.92100143432617;1673424708.8426218;-47.85992431640625;-2.708202362060547;-138.41062927246094
264;1673424708.8995438;47.1294597;7.238981099999999;49.92900085449219;1673424709.0484166;-47.96091079711914;-2.747744083404541;-138.44891357421875
265;1673424709.1072273;47.129443099999996;7.2389582;49.93600082397461;1673424709.2479005;-47.865753173828125;-3.266329050064087;-138.3627166748047
266;1673424709.3015814;47.1294264;7.2389354;49.945003509521484;1673424709.438351;-48.08686828613281;-2.7885446548461914;-138.66148376464844
267;1673424709.5096846;47.1294097;7.238912699999999;49.95600128173828;1673424709.6797128;-48.422969818115234;-3.238786458969116;-138.4351348876953
268;1673424709.7323337;47.129393;7.238889899999999;49.9640007019043;1673424709.8606858;-47.904380798339844;-4.237177848815918;-138.4374542236328
269;1673424709.9085724;47.129376199999996;7.238867099999999;49.96900177001953;1673424710.0473092;-48.04402542114258;-3.5200796127319336;-138.93028259277344
270;1673424710.1176157;47.1293594;7.2388445;49.97200393676758;1673424710.2631454;-47.931251525878906;-3.852064371109009;-138.91055297851562
271;1673424710.316865;47.1293425;7.2388219;49.97700119018555;1673424710.495601;-47.934173583984375;-3.827730417251587;-139.1134490966797
272;1673424710.557633;47.1293255;7.2387995;49.98400115966797;1673424710.7249875;-48.277156829833984;-3.9151718616485596;-139.16078186035156
273;1673424710.7756643;47.129308599999995;7.2387771999999995;49.9900016784668;1673424710.8988032;-48.132415771484375;-4.579951286315918;-139.1024932861328
274;1673424710.9486425;47.1292915;7.238754999999999;49.99400329589844;1673424711.0982268;-47.76768493652344;-4.9341816902160645;-139.22708129882812
275;1673424711.1428134;47.1292744;7.2387329;49.99800109863281;1673424711.272811;-43.258235931396484;-3.8131308555603027;-139.5979461669922
276;1673424711.329612;47.1292572;7.2387109999999995;50.01400375366211;1673424711.4923718;-30.890356063842773;-5.427950859069824;-138.87489318847656
277;1673424711.5511367;47.129240499999995;7.2386897999999995;50.0420036315918;1673424711.6882465;-15.292033195495605;-4.272220611572266;-137.9321746826172
278;1673424711.7409153;47.129224799999996;7.23867;50.060001373291016;1673424711.872203;-4.036965370178223;-3.2508342266082764;-137.09521484375
279;1673424711.9229875;47.129210699999994;7.2386522;50.06500244140625;1673424712.060121;4.169186115264893;-2.0464179515838623;-136.91993713378906
280;1673424712.114999;47.129198599999995;7.2386368;50.064002990722656;1673424712.2533042;8.953749656677246;-0.9141601324081421;-137.01470947265625
281;1673424712.3031955;47.1291887;7.238624;50.052001953125;1673424712.447195;10.554878234863281;-3.4987525939941406;-135.472900390625
282;1673424712.5097344;47.129180899999994;7.238613699999999;50.03200149536133;1673424712.6482298;6.396105766296387;-4.772736549377441;-136.5819549560547
283;1673424712.7022676;47.129175;7.2386057;50.02100372314453;1673424712.84458;0.24847961962223053;-6.9850239753723145;-136.8735809326172
284;1673424712.9134376;47.129170599999995;7.2385996;50.02300262451172;1673424713.0637784;-4.149191379547119;-2.5138797760009766;-137.28443908691406
285;1673424713.1188986;47.1291671;7.2385947999999996;50.03600311279297;1673424713.2785182;-7.377028942108154;-3.1863365173339844;-137.0736083984375
286;1673424713.337093;47.1291643;7.2385909999999996;50.05400085449219;1673424713.4802125;-10.122554779052734;-3.81657338142395;-137.25497436523438
287;1673424713.5287094;47.1291618;7.2385877999999995;50.07100296020508;1673424713.6579702;-12.487496376037598;-5.385013580322266;-137.167236328125
288;1673424713.7139363;47.1291595;7.2385848;50.08500289916992;1673424713.8532834;-14.314611434936523;-7.006534576416016;-136.79493713378906
289;1673424713.9159713;47.129157299999996;7.238582;50.09700393676758;1673424714.079857;-15.68161678314209;-5.143115997314453;-136.82797241210938
290;1673424714.1679428;47.1291552;7.2385791;50.11100387573242;1673424714.4115644;-33.265743255615234;-3.2632429599761963;-137.09556579589844
291;1673424714.4996037;47.1291528;7.2385756;50.165000915527344;1673424714.5759144;-31.25111961364746;0.546029806137085;-137.9008331298828
292;1673424714.621828;47.1291497;7.2385708;50.26300048828125;1673424714.735039;-14.55555534362793;0.764442503452301;-137.87046813964844
293;1673424714.787808;47.1291462;7.2385652;50.4170036315918;1673424714.9119244;-14.212078094482422;-1.649345874786377;-137.7437286376953
294;1673424714.959031;47.129143;7.2385595;50.64800262451172;1673424715.096326;-17.125276565551758;-0.322443425655365;-138.1364288330078
295;1673424715.1520102;47.1291399;7.2385537;50.94000244140625;1673424715.2758353;-33.51740264892578;-2.4608418941497803;-137.7854461669922
296;1673424715.3331175;47.129136599999995;7.2385474;51.28300094604492;1673424715.4802196;-50.92045593261719;-8.141451835632324;-137.23146057128906
297;1673424715.5492835;47.129131799999996;7.2385398;51.6410026550293;1673424715.6815832;-48.63142395019531;-6.071229934692383;-137.67567443847656
298;1673424715.731862;47.129124999999995;7.238530399999999;51.983001708984375;1673424715.8699758;-46.078712463378906;-6.946907043457031;-137.377197265625
299;1673424715.9237428;47.1291167;7.2385195;52.30600357055664;1673424716.0658727;-42.203758239746094;-6.5113630294799805;-137.01589965820312
300;1673424716.119824;47.1291073;7.238507599999999;52.61300277709961;1673424716.263168;-38.46670150756836;-5.214859485626221;-137.12152099609375
301;1673424716.3130193;47.1290973;7.2384949;52.915000915527344;1673424716.4517899;-35.15484619140625;-3.6724464893341064;-137.21212768554688
302;1673424716.526241;47.129087;7.2384816;53.22200393676758;1673424716.6576862;-33.464820861816406;-2.9242312908172607;-137.22149658203125
303;1673424716.722797;47.1290766;7.2384682;53.53700256347656;1673424716.8702607;-32.42494583129883;-2.546799659729004;-137.0729522705078
304;1673424716.929152;47.1290662;7.2384546;53.86300277709961;1673424717.0676064;-31.457029342651367;-2.679325580596924;-136.97792053222656
305;1673424717.128456;47.129056;7.2384409;54.204002380371094;1673424717.2807455;-31.192378997802734;-3.0733866691589355;-136.83743286132812
306;1673424717.3396819;47.1290459;7.238427199999999;54.55500411987305;1673424717.4796455;-30.97014617919922;-3.946406364440918;-136.68002319335938
307;1673424717.5267031;47.1290359;7.2384135999999994;54.91800308227539;1673424717.6830623;-31.2869815826416;-4.389217853546143;-136.60858154296875
308;1673424717.7439508;47.1290261;7.2383999999999995;55.28900146484375;1673424717.888119;-31.568910598754883;-4.644847869873047;-136.6667022705078
309;1673424717.943146;47.1290164;7.2383865;55.66100311279297;1673424718.0696907;-32.17906951904297;-4.292284965515137;-136.83070373535156
310;1673424718.1425245;47.1290067;7.2383732;56.03900146484375;1673424718.3077927;-32.68695831298828;-4.059162139892578;-137.0002899169922
311;1673424718.3652878;47.1289971;7.2383598;56.42400360107422;1673424718.5045416;-32.828128814697266;-3.876758337020874;-137.12567138671875
312;1673424718.5593982;47.1289875;7.2383463;56.810001373291016;1673424718.681954;-32.89022445678711;-3.9522621631622314;-137.11073303222656
313;1673424718.732263;47.1289777;7.238332799999999;57.19700241088867;1673424718.883434;-32.80296325683594;-4.416233539581299;-137.01365661621094
314;1673424718.9464195;47.128968;7.2383194;57.590003967285156;1673424719.0895638;-32.70460891723633;-4.9414448738098145;-136.83543395996094
315;1673424719.1479514;47.1289582;7.238306;57.983001708984375;1673424719.2804663;-32.57300567626953;-5.027997016906738;-136.73072814941406
316;1673424719.3333855;47.1289484;7.2382927;58.37200164794922;1673424719.4776807;-32.61309814453125;-4.7948832511901855;-136.80467224121094
317;1673424719.583974;47.1289386;7.2382794;58.76100158691406;1673424719.756179;-32.656253814697266;-4.605096340179443;-136.8016357421875
318;1673424719.8042102;47.1289288;7.2382661;59.15200424194336;1673424719.942816;-32.67192077636719;-3.957402467727661;-136.94981384277344
319;1673424719.986779;47.128918999999996;7.2382528;59.54300308227539;1673424720.1207962;-32.87372589111328;-3.742037296295166;-136.9844970703125
320;1673424720.1649427;47.1289093;7.2382395;59.935001373291016;1673424720.3102243;-32.90224838256836;-3.7926578521728516;-137.0282745361328
321;1673424720.363366;47.128899499999996;7.238226099999999;60.327003479003906;1673424720.4933348;-33.01865005493164;-3.9549622535705566;-136.9550323486328
322;1673424720.542888;47.128889699999995;7.2382127;60.717002868652344;1673424720.6800225;-33.13779830932617;-4.5878095626831055;-136.78536987304688
323;1673424720.7363544;47.128879999999995;7.2381993;61.10600280761719;1673424720.902874;-33.149818420410156;-4.801791667938232;-136.72056579589844
324;1673424720.9804888;47.1288701;7.238186;61.49500274658203;1673424721.1193674;-32.985599517822266;-4.666237831115723;-136.80479431152344
325;1673424721.1716645;47.1288603;7.2381725999999995;61.88600158691406;1673424721.288587;-32.9599723815918;-4.424850940704346;-136.83334350585938
326;1673424721.3493102;47.1288504;7.2381591;62.281002044677734;1673424721.4915261;-32.93634796142578;-3.8527801036834717;-137.03892517089844
327;1673424721.547834;47.1288406;7.238145599999999;62.67500305175781;1673424721.681951;-32.896846771240234;-3.7373738288879395;-137.0796661376953
328;1673424721.7317069;47.128830699999995;7.2381322;63.07100296020508;1673424721.8779173;-33.0224609375;-3.5539286136627197;-137.0609130859375
329;1673424721.940514;47.1288208;7.238118699999999;63.465003967285156;1673424722.0853803;-32.99714279174805;-3.801166534423828;-137.02854919433594
330;1673424722.143982;47.128811;7.2381052;63.85900115966797;1673424722.297036;-33.09166717529297;-4.199777126312256;-136.8607940673828
331;1673424722.3589509;47.1288011;7.2380917;64.25700378417969;1673424722.4988232;-33.2495231628418;-4.2976555824279785;-136.79241943359375
332;1673424722.5478046;47.128791199999995;7.2380783;64.65299987792969;1673424722.683352;-33.13492202758789;-4.372998237609863;-136.738037109375
333;1673424722.7381144;47.1287813;7.2380647;65.04700469970703;1673424722.8813307;-33.048919677734375;-4.292870998382568;-136.79811096191406
334;1673424722.938486;47.1287714;7.2380511;65.43900299072266;1673424723.088445;-32.90386962890625;-4.010674953460693;-136.95054626464844
335;1673424723.1400437;47.128761499999996;7.2380375;65.8290023803711;1673424723.284417;-32.93030548095703;-3.50350284576416;-137.10787963867188
336;1673424723.3573315;47.128751699999995;7.2380239;66.22000122070312;1673424723.4878953;-32.983665466308594;-3.322178840637207;-137.20384216308594
337;1673424723.561374;47.1287419;7.2380103;66.61500549316406;1673424723.7047012;-32.92169952392578;-3.527775526046753;-137.1134490966797
338;1673424723.792068;47.128732;7.2379967;67.01300048828125;1673424723.9400632;-33.019798278808594;-3.8047242164611816;-137.0665740966797
339;1673424723.9810529;47.1287221;7.2379831;67.41100311279297;1673424724.0986922;-32.93023681640625;-4.594639301300049;-136.83514404296875
340;1673424724.148041;47.1287123;7.237969499999999;67.81100463867188;1673424724.2911973;-32.999916076660156;-4.505734443664551;-136.76620483398438
341;1673424724.3550777;47.128702399999995;7.237956;68.20899963378906;1673424724.5259051;-32.95981216430664;-4.835779666900635;-136.71421813964844
342;1673424724.575926;47.1286926;7.2379424;68.60400390625;1673424724.7010794;-33.15215301513672;-4.775256633758545;-136.74534606933594
343;1673424724.748241;47.1286827;7.2379289;69.0;1673424724.8867247;-33.117652893066406;-4.5445027351379395;-136.7900848388672
344;1673424724.9384499;47.1286729;7.2379153;69.39900207519531;1673424725.0854044;-33.04467010498047;-4.110547065734863;-136.9195556640625
345;1673424725.1375606;47.128662999999996;7.2379017999999995;69.79900360107422;1673424725.2710788;-33.16953659057617;-3.901554584503174;-136.98828125
346;1673424725.330042;47.1286531;7.2378881999999996;70.19800567626953;1673424725.4769607;-33.20819854736328;-3.6567461490631104;-137.06797790527344
347;1673424725.5389585;47.1286432;7.2378746;70.59400177001953;1673424725.7501974;-32.999942779541016;-3.8480629920959473;-136.99258422851562
348;1673424725.8253493;47.1286333;7.237861;70.99000549316406;1673424725.9465144;-33.227996826171875;-4.1959333419799805;-136.9065399169922
349;1673424726.0250294;47.128623399999995;7.2378474;71.3800048828125;1673424726.1536171;-33.11674499511719;-4.491634845733643;-136.80224609375
350;1673424726.20733;47.1286135;7.2378338;71.77100372314453;1673424726.3399646;-33.140220642089844;-4.610894203186035;-136.76893615722656
351;1673424726.393501;47.1286037;7.2378203;72.16300201416016;1673424726.5275517;-33.159847259521484;-4.6655592918396;-136.76341247558594
352;1673424726.5778902;47.1285938;7.2378067999999995;72.5570068359375;1673424726.706328;-33.13616180419922;-4.486063003540039;-136.80943298339844
353;1673424726.7525918;47.128583899999995;7.2377932;72.9540023803711;1673424726.9028535;-33.09733963012695;-4.1681718826293945;-136.89466857910156
354;1673424726.9658697;47.128574;7.2377796;73.3550033569336;1673424727.1073139;-33.1583366394043;-3.9372472763061523;-136.9474639892578
355;1673424727.1689637;47.1285641;7.237766;73.75300598144531;1673424727.3092573;-33.0159912109375;-3.758594036102295;-137.02906799316406
356;1673424727.3641686;47.128554199999996;7.2377524;74.14800262451172;1673424727.49964;-33.11355209350586;-3.6433310508728027;-136.9915771484375
357;1673424727.5612364;47.128544299999994;7.2377386999999995;74.54400634765625;1673424727.7006602;-33.17994689941406;-3.5375611782073975;-137.08349609375
358;1673424727.754952;47.1285344;7.2377251;74.94200134277344;1673424727.9054594;-32.929317474365234;-3.8964476585388184;-137.0238494873047
359;1673424727.9613047;47.1285245;7.2377113;75.33900451660156;1673424728.1189468;-32.988548278808594;-3.9880409240722656;-136.9842987060547
360;1673424728.1777618;47.1285147;7.2376977;75.73700714111328;1673424728.3197396;-33.114341735839844;-4.255981922149658;-136.92808532714844
361;1673424728.3777058;47.128504799999995;7.237684;76.13400268554688;1673424728.5246978;-33.06561279296875;-4.378787040710449;-136.81260681152344
362;1673424728.5765536;47.1284949;7.2376704;76.53300476074219;1673424728.715568;-33.224491119384766;-4.464139938354492;-136.84092712402344
363;1673424728.769094;47.128485;7.237656899999999;76.93400573730469;1673424728.9063883;-33.164146423339844;-4.440709590911865;-136.84471130371094
364;1673424728.970419;47.1284752;7.237643299999999;77.33300018310547;1673424729.112941;-33.30414962768555;-4.583872318267822;-136.78880310058594
365;1673424729.1757572;47.128465299999995;7.237629699999999;77.7300033569336;1673424729.3478162;-33.20672607421875;-4.473546981811523;-136.85296630859375
366;1673424729.401648;47.1284554;7.237616099999999;78.1240005493164;1673424729.523573;-33.286983489990234;-4.331797122955322;-136.84864807128906
367;1673424729.5843585;47.1284455;7.2376024999999995;78.51800537109375;1673424729.74161;-33.37479019165039;-4.0591654777526855;-136.93539428710938
368;1673424729.8002017;47.128435499999995;7.2375888999999995;78.91200256347656;1673424729.9358282;-33.21117401123047;-3.877695083618164;-136.96725463867188
369;1673424729.988811;47.1284256;7.2375753;79.3070068359375;1673424730.1278498;-33.256813049316406;-3.8564467430114746;-137.01417541503906
370;1673424730.1838417;47.1284157;7.237561599999999;79.70100402832031;1673424730.3254423;-33.11289978027344;-3.883164644241333;-136.99395751953125
371;1673424730.3811104;47.128405699999995;7.2375479;80.09800720214844;1673424730.5293415;-33.10414123535156;-3.930614471435547;-136.98391723632812
372;1673424730.5878944;47.1283958;7.2375340999999995;80.49700164794922;1673424730.732301;-32.96753692626953;-3.959641933441162;-136.98736572265625
373;1673424730.7881124;47.1283858;7.237520399999999;80.89600372314453;1673424730.9264278;-33.087303161621094;-4.23239278793335;-136.91087341308594
374;1673424730.9862733;47.128375899999995;7.2375067;81.29800415039062;1673424731.1251447;-32.922306060791016;-4.184061527252197;-136.91091918945312
375;1673424731.1781363;47.1283659;7.2374931;81.69700622558594;1673424731.3115113;-32.98565673828125;-4.202916622161865;-136.90090942382812
376;1673424731.364381;47.128356;7.2374794;82.09400177001953;1673424731.5145977;-33.157718658447266;-4.441413879394531;-136.872802734375
377;1673424731.610682;47.128346099999995;7.2374658;82.49400329589844;1673424731.7766206;-33.10009002685547;-4.439167022705078;-136.87474060058594
378;1673424731.8224926;47.1283362;7.2374521;82.89400482177734;1673424731.9499738;-33.08415222167969;-4.362518787384033;-136.8866424560547
379;1673424732.0042193;47.1283263;7.2374385;83.29100036621094;1673424732.1430285;-33.048606872558594;-4.392760276794434;-136.89178466796875
380;1673424732.1941707;47.128316299999994;7.237424799999999;83.69000244140625;1673424732.3747928;-33.015357971191406;-4.2892680168151855;-136.89990234375
381;1673424732.4237342;47.1283064;7.2374111999999995;84.08900451660156;1673424732.5685961;-33.15123748779297;-4.09343957901001;-136.98153686523438
382;1673424732.6252453;47.128296399999996;7.2373975999999995;84.48300170898438;1673424732.7536438;-33.137264251708984;-4.092210292816162;-136.987060546875
383;1673424732.803598;47.128286499999994;7.237383899999999;84.87800598144531;1673424732.9377804;-33.08827209472656;-4.091795444488525;-136.95152282714844
384;1673424732.9927955;47.1282765;7.237370299999999;85.2760009765625;1673424733.1226125;-32.95770263671875;-4.173267364501953;-136.96435546875
385;1673424733.1784499;47.128266599999996;7.2373566;85.67300415039062;1673424733.3376136;-33.15036392211914;-4.180357456207275;-136.95118713378906
386;1673424733.411865;47.1282566;7.237343;86.07200622558594;1673424733.5653563;-33.04091262817383;-4.235472202301025;-136.91256713867188
387;1673424733.6229732;47.1282467;7.2373294999999995;86.47100067138672;1673424733.7585537;-33.09605026245117;-4.231489658355713;-136.90847778320312
388;1673424733.810441;47.128236699999995;7.2373159;86.87000274658203;1673424733.9485688;-33.13222885131836;-4.373682498931885;-136.83798217773438
389;1673424734.0132148;47.1282268;7.2373023;87.27300262451172;1673424734.1439395;-33.057186126708984;-4.296194076538086;-136.91195678710938
390;1673424734.2093854;47.1282168;7.2372887;87.6760025024414;1673424734.3315778;-33.09619903564453;-4.257749557495117;-136.89488220214844
391;1673424734.3875227;47.1282068;7.2372751;88.07600402832031;1673424734.5343583;-33.00285720825195;-4.430739879608154;-136.87979125976562
392;1673424734.5897417;47.1281969;7.2372615;88.47300720214844;1673424734.7330906;-32.9932746887207;-4.147037982940674;-136.93148803710938
393;1673424734.7799273;47.128186899999996;7.2372479;88.87100219726562;1673424734.9090414;-33.06949996948242;-4.2929768562316895;-136.89443969726562
394;1673424734.9585423;47.128177;7.2372343;89.26800537109375;1673424735.1031077;-33.071434020996094;-4.287464618682861;-136.89764404296875
395;1673424735.1668978;47.1281671;7.237220799999999;89.66800689697266;1673424735.3418908;-33.099700927734375;-4.213181495666504;-136.9286651611328
396;1673424735.3920746;47.128157099999996;7.237207199999999;90.06600189208984;1673424735.5086071;-33.06401062011719;-4.089139461517334;-136.89817810058594
397;1673424735.5577314;47.1281471;7.2371937;90.46300506591797;1673424735.7051387;-33.06465530395508;-4.037724018096924;-136.89501953125
398;1673424735.760082;47.1281371;7.2371802;90.85900115966797;1673424735.8984153;-33.05784606933594;-3.982039451599121;-136.8621063232422
399;1673424735.956966;47.1281271;7.2371666;91.2560043334961;1673424736.1212919;-33.037254333496094;-4.018264293670654;-136.86366271972656
400;1673424736.178439;47.1281172;7.237152999999999;91.65300750732422;1673424736.3215752;-32.99814987182617;-4.235507011413574;-136.8135986328125
401;1673424736.3670115;47.128107299999996;7.237139399999999;92.04900360107422;1673424736.4948084;-32.997718811035156;-4.243895530700684;-136.8482208251953
402;1673424736.5653043;47.1280973;7.2371257;92.44600677490234;1673424736.74808;-32.94931411743164;-4.155765533447266;-136.86358642578125
403;1673424736.7951171;47.1280874;7.2371121;92.84400177001953;1673424736.9598324;-33.01786422729492;-4.190191268920898;-136.8817138671875
404;1673424737.0127068;47.128077399999995;7.2370985;93.24300384521484;1673424737.1493278;-32.892242431640625;-4.139923572540283;-136.86590576171875
405;1673424737.2025907;47.1280675;7.237084899999999;93.64100646972656;1673424737.3642178;-32.89384460449219;-4.145303726196289;-136.83489990234375
406;1673424737.4149523;47.1280575;7.237071299999999;94.04100799560547;1673424737.5811903;-32.981197357177734;-4.18666934967041;-136.84495544433594
407;1673424737.625231;47.128047699999996;7.237057699999999;94.44200134277344;1673424737.7735388;-32.950382232666016;-4.32376766204834;-136.84219360351562
408;1673424737.8330617;47.1280378;7.237044099999999;94.84200286865234;1673424737.9719388;-32.988868713378906;-4.286913871765137;-136.86856079101562
409;1673424738.0276759;47.1280279;7.2370304999999995;95.24300384521484;1673424738.15233;-32.976924896240234;-4.332172393798828;-136.86166381835938
410;1673424738.2176507;47.128018;7.2370168999999995;95.64200592041016;1673424738.3396525;-33.02631759643555;-4.293946743011475;-136.85806274414062
411;1673424738.4078693;47.128008099999995;7.2370033;96.04100799560547;1673424738.5354974;-32.99873733520508;-4.1983537673950195;-136.85108947753906
412;1673424738.5882323;47.1279981;7.2369897;96.43900299072266;1673424738.7524865;-33.028507232666016;-4.286873817443848;-136.8349609375
413;1673424738.808162;47.1279882;7.236975999999999;96.83800506591797;1673424738.9486475;-33.00614929199219;-4.325538635253906;-136.84642028808594
414;1673424739.0000644;47.127978299999995;7.2369623999999995;97.23700714111328;1673424739.1393495;-32.994815826416016;-4.268251895904541;-136.86463928222656
415;1673424739.21056;47.1279683;7.236948699999999;97.63700103759766;1673424739.3440406;-32.884342193603516;-4.197700023651123;-136.8340301513672
416;1673424739.4018025;47.1279584;7.236935099999999;98.03600311279297;1673424739.5424373;-32.913997650146484;-4.220524311065674;-136.82553100585938
417;1673424739.5915213;47.1279484;7.236921499999999;98.43500518798828;1673424739.7225897;-32.95055389404297;-4.125245094299316;-136.82627868652344
418;1673424739.7844045;47.1279385;7.236907899999999;98.83600616455078;1673424739.9197948;-32.95710754394531;-4.29164981842041;-136.8115692138672
