;pos_time;latitude;longitude;altitude;alt_time;pitch;roll;yaw
0;1673423727.3656852;47.1306424;7.24062;-0.020000001415610313;1673423727.5161977;0.34810084104537964;-0.18974754214286804;90.11846923828125
1;1673423727.5553184;47.1306424;7.2406198999999996;-0.021000001579523087;1673423727.6896024;0.07314121723175049;-0.06208624318242073;89.9849624633789
2;1673423727.7267258;47.1306424;7.24062;-0.021000001579523087;1673423727.8726566;-0.05093326419591904;-0.2286268025636673;89.94510650634766
3;1673423727.9249349;47.1306424;7.24062;-0.020000001415610313;1673423728.080449;-0.1412421464920044;-0.12001253664493561;89.90080261230469
4;1673423728.127605;47.1306425;7.24062;-0.01600000075995922;1673423728.2716506;-0.0650700256228447;-0.20955705642700195;89.8514175415039
5;1673423728.3132222;47.1306425;7.24062;-0.01100000087171793;1673423728.4699109;0.08533750474452972;-0.2408919781446457;89.7962646484375
6;1673423728.5136657;47.1306425;7.2406198999999996;-0.007000000216066837;1673423728.6820376;0.18462513387203217;-0.29348883032798767;90.0519790649414
7;1673423728.7279222;47.1306425;7.2406198999999996;-0.006000000052154064;1673423728.892209;-0.11589248478412628;-0.1327488273382187;89.88401794433594
8;1673423728.936153;47.1306425;7.2406198999999996;-0.004000000189989805;1673423729.0886335;-0.1935003101825714;-0.19292470812797546;89.99681091308594
9;1673423729.134497;47.1306425;7.24062;-0.004000000189989805;1673423729.2877219;0.044986240565776825;-0.1915755569934845;89.88591003417969
10;1673423729.328895;47.1306425;7.2406198999999996;-0.007000000216066837;1673423729.4935405;0.2547294795513153;-0.12120433896780014;89.85932922363281
11;1673423729.5403767;47.1306425;7.2406198999999996;-0.012000000104308128;1673423729.6788673;0.13427037000656128;-0.15383747220039368;89.85276794433594
12;1673423729.7170956;47.1306425;7.2406198999999996;-0.013000000268220901;1673423729.8770368;-0.01546432077884674;-0.07428830862045288;89.87062072753906
13;1673423729.9308167;47.1306425;7.24062;-0.013000000268220901;1673423730.0969956;-0.2422674149274826;-0.24183803796768188;89.92306518554688
14;1673423730.137992;47.1306425;7.24062;-0.014000000432133675;1673423730.3177402;-0.29319241642951965;0.47048667073249817;89.83723449707031
15;1673423730.3534722;47.130642599999995;7.2406201;0.0;1673423730.5249467;-0.1679798811674118;0.8892298936843872;89.90977478027344
16;1673423730.5650594;47.130642599999995;7.2406201;0.0010000000474974513;1673423730.7051697;-0.014746950939297676;0.3768097162246704;89.9574966430664
17;1673423730.746697;47.130642599999995;7.24062;0.0010000000474974513;1673423730.8926878;0.03179370239377022;0.7498820424079895;89.89893341064453
18;1673423730.9445581;47.130642599999995;7.24062;0.003000000026077032;1673423731.0976992;-0.15786267817020416;0.712935209274292;89.91270446777344
19;1673423731.1367977;47.130642599999995;7.24062;0.004000000189989805;1673423731.2825384;-0.291414737701416;0.6916629672050476;89.99528503417969
20;1673423731.3333015;47.1306425;7.2406198999999996;0.0;1673423731.4966097;0.31631720066070557;1.29430091381073;89.7620620727539
21;1673423731.5395663;47.1306425;7.2406198999999996;-0.004000000189989805;1673423731.702091;-0.054696425795555115;0.9623281359672546;89.88343811035156
22;1673423731.7485514;47.1306425;7.240619799999999;0.0;1673423731.8948867;0.057513345032930374;1.6688562631607056;89.96217346191406
23;1673423731.9359176;47.1306425;7.240619799999999;-0.003000000026077032;1673423732.0734818;0.13706809282302856;0.7802915573120117;90.12652587890625
24;1673423732.1154892;47.1306424;7.240619799999999;-0.00800000037997961;1673423732.2659607;0.18551814556121826;-0.010659899562597275;90.13380432128906
25;1673423732.3079276;47.1306424;7.2406197;-0.013000000268220901;1673423732.464356;0.21765106916427612;0.2698882520198822;89.95496368408203
26;1673423732.5122335;47.1306423;7.240619799999999;-0.017000000923871994;1673423732.6645699;0.2324504852294922;0.5064135789871216;89.9822769165039
27;1673423732.7124703;47.1306423;7.240619799999999;-0.01900000125169754;1673423732.8835452;0.1599547564983368;0.6394138336181641;90.06314849853516
28;1673423732.9255726;47.1306422;7.2406198999999996;-0.018000001087784767;1673423733.0832155;-0.0004216307424940169;0.4526515603065491;90.59286499023438
29;1673423733.1230617;47.130642099999996;7.2406198999999996;-0.015000000596046448;1673423733.2743008;0.20960132777690887;0.4275363087654114;90.96678161621094
30;1673423733.323843;47.1306418;7.2406198999999996;-0.01100000087171793;1673423733.463758;-0.22399355471134186;-1.432248830795288;92.6901626586914
31;1673423733.507758;47.1306413;7.240619799999999;0.0;1673423733.660901;0.04225774109363556;-2.7294254302978516;95.31160736083984
32;1673423733.7157595;47.1306406;7.240619799999999;0.009000000543892384;1673423733.8750582;0.11391439288854599;-6.170206546783447;99.08513641357422
33;1673423733.9240015;47.130639599999995;7.240619799999999;0.018000001087784767;1673423734.0863178;0.37680375576019287;-11.046945571899414;102.70346069335938
34;1673423734.1372054;47.130638399999995;7.2406197;0.029000001028180122;1673423734.300308;1.7095775604248047;-14.594717979431152;103.42313385009766
35;1673423734.3489118;47.130637;7.2406196;0.039000000804662704;1673423734.4948814;1.4446773529052734;-17.252893447875977;101.13321685791016
36;1673423734.5467718;47.1306355;7.2406193;0.058000002056360245;1673423734.703003;0.9183470606803894;-18.8525390625;99.21604919433594
37;1673423734.7444537;47.130634099999995;7.2406191;0.08700000494718552;1673423734.8852816;0.353311687707901;-20.521617889404297;97.74211883544922
38;1673423734.9233513;47.130632899999995;7.2406187;0.12600000202655792;1673423735.0798001;-0.40297338366508484;-22.31771469116211;96.62334442138672
39;1673423735.1278555;47.1306319;7.2406182999999995;0.17500001192092896;1673423735.2751076;-1.2383651733398438;-24.036327362060547;95.70887756347656
40;1673423735.3180518;47.130631199999996;7.240617899999999;0.23500001430511475;1673423735.4765282;-2.082813262939453;-25.80874252319336;94.93537902832031
41;1673423735.5264287;47.1306309;7.240617599999999;0.3020000159740448;1673423735.6932445;-2.8876044750213623;-27.677217483520508;94.387939453125
42;1673423735.7361908;47.130631;7.240617299999999;0.3750000298023224;1673423735.8822465;-3.792825937271118;-29.544654846191406;93.86779022216797
43;1673423735.9263287;47.130631699999995;7.2406172;0.4570000171661377;1673423736.0820832;-4.684317588806152;-29.90898323059082;93.41970825195312
44;1673423736.1230752;47.130632999999996;7.240617299999999;0.5509999990463257;1673423736.2861316;-4.552001476287842;-26.87116050720215;92.99384307861328
45;1673423736.3282175;47.130634799999996;7.2406175;0.6530000567436218;1673423736.4814656;-4.488183975219727;-23.887617111206055;92.71183013916016
46;1673423736.5206583;47.1306368;7.240617899999999;0.7710000276565552;1673423736.672135;-3.847261428833008;-21.324478149414062;92.552490234375
47;1673423736.7193692;47.1306389;7.2406182999999995;0.9050000309944153;1673423736.880414;-3.4912526607513428;-15.55444049835205;92.41218566894531
48;1673423736.9303505;47.130640799999995;7.2406188;1.0570000410079956;1673423737.0894074;-2.722231149673462;-12.865169525146484;92.84129333496094
49;1673423737.132592;47.130642099999996;7.2406193;1.2230000495910645;1673423737.2817173;-2.0437490940093994;-15.707488059997559;93.54180908203125
50;1673423737.3266153;47.130643199999994;7.2406197;1.4000000953674316;1673423737.4779932;-1.8873487710952759;-12.731695175170898;93.61547088623047
51;1673423737.5300088;47.1306438;7.2406198999999996;1.5830000638961792;1673423737.6864688;-2.0689773559570312;-13.520541191101074;92.49237823486328
52;1673423737.7416663;47.130643899999995;7.2406201;1.7680001258850098;1673423737.8977885;-1.589923620223999;-18.170454025268555;93.46324920654297
53;1673423737.9349253;47.1306438;7.2406201999999995;1.9510000944137573;1673423738.0724277;-1.7342175245285034;-17.799665451049805;93.77808380126953
54;1673423738.1222026;47.1306435;7.2406201;2.129000186920166;1673423738.2756228;-2.076486349105835;-17.473302841186523;93.92356872558594
55;1673423738.3185816;47.130643;7.24062;2.311000108718872;1673423738.482516;-1.8223772048950195;-21.753128051757812;94.26439666748047
56;1673423738.5217884;47.130642699999996;7.24062;2.495000123977661;1673423738.6729715;-1.9263360500335693;-21.483081817626953;94.12711334228516
57;1673423738.7191622;47.130642599999995;7.24062;2.6760001182556152;1673423738.877154;-2.536623239517212;-18.090984344482422;94.2095718383789
58;1673423738.9213686;47.1306425;7.2406198999999996;2.8580000400543213;1673423739.0790443;-2.528017520904541;-20.562707901000977;94.43038177490234
59;1673423739.1220043;47.1306424;7.2406198999999996;3.0460002422332764;1673423739.2683167;-2.219090461730957;-21.83844757080078;94.57520294189453
60;1673423739.3105488;47.1306424;7.240619799999999;3.2340002059936523;1673423739.4686964;-2.6615750789642334;-18.114089965820312;94.22785949707031
61;1673423739.5118852;47.1306424;7.240619799999999;3.4210002422332764;1673423739.6618783;-2.928290605545044;-18.600162506103516;94.25018310546875
62;1673423739.7089014;47.1306424;7.2406197;3.6090002059936523;1673423739.8722727;-2.5438711643218994;-21.28697967529297;94.38904571533203
63;1673423739.9223967;47.1306425;7.2406197;3.7960002422332764;1673423740.0767214;-2.7186830043792725;-17.57601547241211;94.12089538574219
64;1673423740.1219132;47.1306425;7.2406197;3.9810001850128174;1673423740.285124;-2.777719259262085;-17.604761123657227;94.18428039550781
65;1673423740.33252;47.1306425;7.2406197;4.170000076293945;1673423740.4872296;-2.475940465927124;-21.17329978942871;94.35747528076172
66;1673423740.5325084;47.1306424;7.2406197;4.365000247955322;1673423740.6885042;-2.560406446456909;-19.48921012878418;94.28419494628906
67;1673423740.7364244;47.1306423;7.2406197;4.560000419616699;1673423740.895559;-2.828760862350464;-17.69173240661621;94.09880065917969
68;1673423740.9463322;47.1306422;7.2406197;4.758000373840332;1673423741.0908332;-2.2772774696350098;-21.136804580688477;94.4103775024414
69;1673423741.133497;47.130641999999995;7.240619799999999;4.955000400543213;1673423741.2830348;-2.362576723098755;-20.76553726196289;94.22543334960938
70;1673423741.3322828;47.130641999999995;7.2406198999999996;5.146000385284424;1673423741.4858894;-2.665170431137085;-17.484220504760742;94.11934661865234
71;1673423741.52703;47.130641999999995;7.2406198999999996;5.339000225067139;1673423741.6845136;-2.5098612308502197;-20.81827163696289;94.26079559326172
72;1673423741.731392;47.130641999999995;7.2406198999999996;5.531000137329102;1673423741.8832052;-2.540146827697754;-20.824234008789062;94.32267761230469
73;1673423741.929078;47.1306419;7.240619799999999;5.720000267028809;1673423742.093269;-2.6523096561431885;-17.708906173706055;94.11782836914062
74;1673423742.1371756;47.130641999999995;7.2406198999999996;5.9070000648498535;1673423742.3098338;-2.7197864055633545;-18.9387149810791;94.2409896850586
75;1673423742.353047;47.130641999999995;7.2406198999999996;6.092000484466553;1673423742.5135157;-2.3667664527893066;-21.36943817138672;94.34861755371094
76;1673423742.5528815;47.130641999999995;7.2406198999999996;6.273000240325928;1673423742.7255678;-2.511995315551758;-17.57724380493164;94.13951873779297
77;1673423742.7818546;47.130641999999995;7.24062;6.454000473022461;1673423742.9347148;-2.7219765186309814;-18.53512191772461;94.24755859375
78;1673423742.975283;47.1306419;7.24062;6.640000343322754;1673423743.1225035;-2.2731845378875732;-21.888126373291016;94.37259674072266
79;1673423743.161648;47.1306418;7.24062;6.827000141143799;1673423743.310547;-2.340526580810547;-19.522235870361328;94.28909301757812
80;1673423743.3488631;47.1306417;7.24062;7.015000343322754;1673423743.5082748;-2.444932699203491;-18.088224411010742;94.09004974365234
81;1673423743.552378;47.1306417;7.2406201;7.207000255584717;1673423743.710301;-2.439187526702881;-21.7703857421875;94.3892822265625
82;1673423743.7655349;47.1306417;7.2406201;7.397000312805176;1673423743.9182515;-2.512477159500122;-19.761770248413086;94.35331726074219
83;1673423743.9592915;47.1306417;7.24062;7.585000514984131;1673423744.144187;-2.610144853591919;-17.733863830566406;94.04435729980469
84;1673423744.1828833;47.1306418;7.24062;7.776000499725342;1673423744.3233123;-2.5456626415252686;-20.621681213378906;94.30552673339844
85;1673423744.3604565;47.1306418;7.24062;7.972000598907471;1673423744.489657;-2.5082709789276123;-20.478906631469727;94.32772064208984
86;1673423744.5257509;47.1306418;7.24062;8.167000770568848;1673423744.6940079;-2.809004068374634;-17.626850128173828;94.16761779785156
87;1673423744.740861;47.1306418;7.24062;8.360000610351562;1673423744.9026155;-2.821650743484497;-19.38223648071289;94.2770004272461
88;1673423744.9472413;47.1306419;7.24062;8.550000190734863;1673423745.1872838;-2.4094078540802;-21.262788772583008;94.3366928100586
89;1673423745.224549;47.1306419;7.24062;8.738000869750977;1673423745.3492868;-2.598644733428955;-17.610143661499023;94.22695922851562
90;1673423745.390819;47.130641999999995;7.2406201;8.920000076293945;1673423745.5350316;-2.6335525512695312;-18.50271987915039;94.14508056640625
91;1673423745.5736582;47.130641999999995;7.2406201;9.108000755310059;1673423745.7042723;-2.3915011882781982;-21.801292419433594;94.35137939453125
92;1673423745.7428563;47.1306419;7.2406201;9.29800033569336;1673423745.8869984;-2.50933837890625;-18.766054153442383;93.94794464111328
93;1673423745.9316864;47.1306419;7.2406201;9.487000465393066;1673423746.0819402;-2.7653706073760986;-17.81212615966797;94.17312622070312
94;1673423746.1278317;47.1306419;7.2406201;9.679000854492188;1673423746.2964675;-2.4791784286499023;-21.625871658325195;94.4675064086914
95;1673423746.3366141;47.1306419;7.2406201;9.868000030517578;1673423746.5032966;-2.3319151401519775;-19.57716178894043;94.2782974243164
96;1673423746.5521636;47.1306419;7.2406201;10.059000015258789;1673423746.7097082;-2.6137824058532715;-16.20252799987793;93.92089080810547
97;1673423746.744098;47.1306419;7.2406201999999995;10.281000137329102;1673423746.8970938;-2.41025710105896;-19.11004066467285;94.0745620727539
98;1673423746.9488287;47.130641999999995;7.2406201999999995;10.631000518798828;1673423747.1089888;-2.6910240650177;-22.846290588378906;94.43678283691406
99;1673423747.1539814;47.130642099999996;7.2406203;11.01400089263916;1673423747.2973819;-2.49914813041687;-18.205730438232422;94.08325958251953
100;1673423747.341327;47.1306424;7.2406203;11.405000686645508;1673423747.4814484;-2.6190404891967773;-17.2796630859375;94.19905090332031
101;1673423747.5285988;47.130642699999996;7.2406204;11.801000595092773;1673423747.6846218;-2.1756603717803955;-19.932228088378906;94.40548706054688
102;1673423747.731464;47.1306429;7.2406204;12.200000762939453;1673423747.8869338;-2.4170069694519043;-16.615922927856445;94.28628540039062
103;1673423747.928902;47.1306431;7.2406204;12.600000381469727;1673423748.0843155;-2.4535491466522217;-15.767683982849121;94.1413803100586
104;1673423748.1409245;47.1306431;7.2406204;13.004000663757324;1673423748.3002896;-2.341092348098755;-19.863563537597656;94.38093566894531
105;1673423748.3442745;47.130643;7.2406204;13.410000801086426;1673423748.5000722;-2.415508270263672;-18.314495086669922;94.29943084716797
106;1673423748.539384;47.1306428;7.2406204;13.814001083374023;1673423748.6916237;-2.7130658626556396;-16.803831100463867;93.99049377441406
107;1673423748.7395554;47.130642699999996;7.2406203;14.217000961303711;1673423748.8789744;-2.5596654415130615;-19.34490394592285;94.20709991455078
108;1673423748.9210565;47.130642599999995;7.2406203;14.623001098632812;1673423749.0709686;-2.414586067199707;-20.457338333129883;94.28715515136719
109;1673423749.1163986;47.130642599999995;7.2406203;15.030000686645508;1673423749.2682333;-2.819382905960083;-17.153690338134766;94.03710174560547
110;1673423749.3138049;47.130642599999995;7.2406203;15.443000793457031;1673423749.4716892;-2.6548051834106445;-18.130863189697266;94.1395263671875
111;1673423749.5151749;47.130642599999995;7.2406203;15.860000610351562;1673423749.700891;-2.371988296508789;-20.81268310546875;94.38780975341797
112;1673423749.7438347;47.130642599999995;7.2406203;16.277999877929688;1673423749.8902607;-2.370330572128296;-17.977867126464844;94.23455047607422
113;1673423749.9341903;47.130642599999995;7.2406203;16.687000274658203;1673423750.095556;-2.6211726665496826;-17.396745681762695;94.2439956665039
114;1673423750.1396391;47.130642599999995;7.2406203;17.097000122070312;1673423750.285448;-2.355532646179199;-20.6444091796875;94.36978912353516
115;1673423750.330354;47.130642599999995;7.2406203;17.511001586914062;1673423750.4926271;-2.51667857170105;-18.653127670288086;94.29036712646484
116;1673423750.5367272;47.130642699999996;7.2406203;17.922000885009766;1673423750.6901045;-2.6591858863830566;-16.554183959960938;94.20100402832031
117;1673423750.736066;47.130642699999996;7.2406203;18.334001541137695;1673423750.8823752;-2.453650712966919;-20.12676429748535;94.2588119506836
118;1673423750.9325833;47.130642699999996;7.2406201999999995;18.746000289916992;1673423751.084885;-2.3044910430908203;-19.20209312438965;94.3584976196289
119;1673423751.1245232;47.130642699999996;7.2406201999999995;19.1510009765625;1673423751.2790463;-2.672515869140625;-16.77692222595215;94.1278305053711
120;1673423751.3249152;47.130642599999995;7.2406201999999995;19.553001403808594;1673423751.4832182;-2.5493056774139404;-18.88553810119629;94.18622589111328
121;1673423751.5313244;47.130642599999995;7.2406201;19.959001541137695;1673423751.6885438;-2.6072425842285156;-20.50938606262207;94.3832015991211
122;1673423751.7354271;47.130642599999995;7.24062;20.36600112915039;1673423751.8966506;-2.856966257095337;-17.25321388244629;94.224365234375
123;1673423751.9367225;47.130642699999996;7.2406198999999996;20.772001266479492;1673423752.102614;-3.0891618728637695;-17.81841278076172;94.1724624633789
124;1673423752.144675;47.130642699999996;7.2406198999999996;21.179000854492188;1673423752.3050053;-2.8201189041137695;-20.572084426879883;94.32730102539062
125;1673423752.3511074;47.130642699999996;7.2406198999999996;21.582000732421875;1673423752.5010445;-2.78786039352417;-18.094776153564453;94.25625610351562
126;1673423752.5499935;47.130642699999996;7.2406198999999996;21.979000091552734;1673423752.6909826;-2.749396562576294;-16.81922149658203;94.07816314697266
127;1673423752.7418692;47.130642699999996;7.2406198999999996;22.374000549316406;1673423752.8929648;-2.448430299758911;-20.343788146972656;94.4620132446289
128;1673423752.9517112;47.130642699999996;7.24062;22.7710018157959;1673423753.0903718;-2.6892857551574707;-18.903902053833008;94.26290893554688
129;1673423753.1285753;47.1306428;7.24062;23.168001174926758;1673423753.2823946;-2.7756404876708984;-16.245704650878906;94.06610107421875
130;1673423753.3292427;47.1306429;7.2406201;23.571001052856445;1673423753.4973066;-2.51259708404541;-19.532419204711914;94.2048568725586
131;1673423753.5416355;47.1306428;7.2406201;23.977001190185547;1673423753.6923325;-2.3608815670013428;-19.17423439025879;94.21520233154297
132;1673423753.7372682;47.1306428;7.2406201;24.381000518798828;1673423753.8908598;-2.7043802738189697;-16.501754760742188;94.0208511352539
133;1673423753.934978;47.1306428;7.2406201;24.780000686645508;1673423754.086451;-2.5395562648773193;-18.684558868408203;94.32708740234375
134;1673423754.1264653;47.130642699999996;7.2406201;25.185001373291016;1673423754.2776017;-2.6142327785491943;-20.479480743408203;94.3984146118164
135;1673423754.325728;47.130642599999995;7.24062;25.589000701904297;1673423754.4915922;-2.7897183895111084;-16.650028228759766;94.10163879394531
136;1673423754.54084;47.130642699999996;7.24062;25.98900032043457;1673423754.7004874;-2.9903085231781006;-18.130285263061523;94.20606231689453
137;1673423754.7387118;47.130642699999996;7.2406198999999996;26.393001556396484;1673423754.8864117;-2.544189929962158;-20.535301208496094;94.42146301269531
138;1673423754.9362564;47.130642599999995;7.2406198999999996;26.79400062561035;1673423755.094603;-2.7575323581695557;-18.11528205871582;94.21932983398438
139;1673423755.1367815;47.130642599999995;7.2406198999999996;27.191001892089844;1673423755.2960384;-2.9083783626556396;-17.252792358398438;94.12602233886719
140;1673423755.3399525;47.1306425;7.2406198999999996;27.58500099182129;1673423755.4938152;-2.6783838272094727;-20.501380920410156;94.33845520019531
141;1673423755.5545654;47.1306425;7.2406198999999996;27.981000900268555;1673423755.6998572;-2.8986458778381348;-18.5318546295166;94.26835632324219
142;1673423755.7399;47.1306425;7.2406198999999996;28.37700080871582;1673423755.8873487;-2.955932140350342;-16.6378231048584;94.01103210449219
143;1673423755.9324143;47.130642599999995;7.2406198999999996;28.7760009765625;1673423756.0970745;-3.048166513442993;-19.49880027770996;94.40914154052734
144;1673423756.1445642;47.1306425;7.2406198999999996;29.176000595092773;1673423756.3054485;-2.5427637100219727;-19.446260452270508;94.36819458007812
145;1673423756.3558183;47.1306425;7.2406198999999996;29.57600212097168;1673423756.555119;-2.93499755859375;-17.15904426574707;94.16778564453125
146;1673423756.601035;47.1306425;7.2406198999999996;29.974000930786133;1673423756.742935;-2.803304672241211;-18.439424514770508;94.30889129638672
147;1673423756.8091402;47.1306424;7.24062;30.37700080871582;1673423756.9432056;-2.5890376567840576;-20.694252014160156;94.40013122558594
148;1673423756.984742;47.1306424;7.24062;30.780000686645508;1673423757.124004;-2.7776451110839844;-17.775012969970703;94.2321548461914
149;1673423757.166244;47.1306425;7.24062;31.183000564575195;1673423757.3013084;-3.0696663856506348;-17.2005672454834;94.2276611328125
150;1673423757.3374336;47.130642599999995;7.24062;31.589000701904297;1673423757.474908;-2.75779128074646;-20.76292610168457;94.36516571044922
151;1673423757.5183883;47.130642599999995;7.24062;31.99700164794922;1673423757.7150533;-2.6816213130950928;-18.60353660583496;94.27686309814453
152;1673423757.762089;47.130642599999995;7.2406201;32.39900207519531;1673423757.9131403;-2.838571071624756;-16.885116577148438;94.0550537109375
153;1673423757.955113;47.130642599999995;7.2406201;32.79800033569336;1673423758.101897;-2.71711802482605;-19.72002410888672;94.28958892822266
154;1673423758.1479168;47.1306425;7.2406201;33.20000076293945;1673423758.2990246;-2.598796844482422;-20.158531188964844;94.2907485961914
155;1673423758.3449018;47.130642599999995;7.2406201999999995;33.60100173950195;1673423758.4776669;-2.929567337036133;-16.177255630493164;94.04705047607422
156;1673423758.518935;47.130642699999996;7.2406201999999995;34.00300216674805;1673423758.6798353;-2.8721890449523926;-18.490489959716797;94.14557647705078
157;1673423758.7302063;47.130642699999996;7.2406201999999995;34.40500259399414;1673423758.89429;-2.629061222076416;-19.795175552368164;94.38294982910156
158;1673423758.9417372;47.130642699999996;7.2406201999999995;34.803001403808594;1673423759.0985768;-2.7660794258117676;-17.197301864624023;94.20033264160156
159;1673423759.139602;47.130642699999996;7.2406201999999995;35.20000076293945;1673423759.2788858;-2.8911256790161133;-17.90867042541504;94.15432739257812
160;1673423759.3276277;47.130642699999996;7.2406201999999995;35.605003356933594;1673423759.4941292;-2.6953701972961426;-20.469392776489258;94.36643981933594
161;1673423759.5405574;47.130642699999996;7.2406201999999995;36.009002685546875;1673423759.7034743;-2.847397804260254;-18.06770133972168;94.33158111572266
162;1673423759.7477512;47.1306428;7.2406201999999995;36.40800094604492;1673423759.9194725;-2.845250368118286;-16.695526123046875;94.25518798828125
163;1673423759.9594893;47.1306428;7.2406201999999995;36.80900192260742;1673423760.111744;-2.8828155994415283;-20.518184661865234;94.29661560058594
164;1673423760.1528778;47.1306428;7.2406201999999995;37.211002349853516;1673423760.2983754;-2.8848280906677246;-18.59287452697754;94.23665618896484
165;1673423760.3384216;47.1306428;7.2406201999999995;37.60900115966797;1673423760.4972773;-2.9034502506256104;-16.927215576171875;94.09123229980469
166;1673423760.536937;47.130642699999996;7.2406201999999995;38.00400161743164;1673423760.7024648;-2.813194990158081;-19.424087524414062;94.18425750732422
167;1673423760.7551818;47.130642699999996;7.2406201999999995;38.40500259399414;1673423760.9237347;-2.7342684268951416;-19.900178909301758;94.216064453125
168;1673423760.961784;47.1306428;7.2406201999999995;38.80800247192383;1673423761.1258812;-2.990525007247925;-16.411460876464844;94.1778564453125
169;1673423761.1678572;47.1306429;7.2406201999999995;39.21200180053711;1673423761.3180797;-3.1221933364868164;-17.671552658081055;94.30192565917969
170;1673423761.3650403;47.1306429;7.2406201;39.61800003051758;1673423761.516677;-2.813176155090332;-20.27048683166504;94.44511413574219
171;1673423761.5576682;47.1306429;7.2406201;40.022003173828125;1673423761.704454;-2.9167025089263916;-17.318050384521484;94.22332763671875
172;1673423761.7493436;47.1306428;7.24062;40.419002532958984;1673423761.8969874;-3.106795072555542;-17.59032440185547;94.25082397460938
173;1673423761.9486768;47.130642699999996;7.24062;40.823001861572266;1673423762.1014638;-2.896280527114868;-20.632827758789062;94.38844299316406
174;1673423762.145511;47.130642699999996;7.24062;41.22600173950195;1673423762.3089526;-2.9525647163391113;-18.465835571289062;94.11241912841797
175;1673423762.3548594;47.130642699999996;7.24062;41.625003814697266;1673423762.5266955;-3.1632449626922607;-16.508485794067383;94.20909118652344
176;1673423762.566942;47.1306428;7.24062;42.02300262451172;1673423762.7595007;-2.978336811065674;-20.233335494995117;94.34983825683594
177;1673423762.7986677;47.130642699999996;7.2406198999999996;42.419002532958984;1673423762.9342163;-3.103959560394287;-19.23944854736328;94.37063598632812
178;1673423762.9751987;47.130642699999996;7.2406198999999996;42.81100082397461;1673423763.1177568;-3.223449230194092;-16.59610939025879;94.04447174072266
179;1673423763.167746;47.130642699999996;7.24062;43.20000076293945;1673423763.32454;-3.129098653793335;-19.112220764160156;94.20636749267578
180;1673423763.4014382;47.130642599999995;7.24062;43.59600067138672;1673423763.5709584;-2.8482251167297363;-20.106468200683594;94.30243682861328
181;1673423763.6131477;47.130642699999996;7.24062;43.99400329589844;1673423763.7539642;-3.245065212249756;-16.713993072509766;94.11972045898438
182;1673423763.7930167;47.1306428;7.24062;44.39400100708008;1673423763.9248893;-3.213397741317749;-17.677345275878906;94.26716613769531
183;1673423763.9648993;47.1306428;7.24062;44.79600143432617;1673423764.1145391;-3.0026001930236816;-20.41180419921875;94.39746856689453
184;1673423764.1594677;47.1306428;7.24062;45.19300079345703;1673423764.3208807;-3.0286097526550293;-17.666484832763672;94.16558837890625
185;1673423764.3668275;47.1306428;7.24062;45.582000732421875;1673423764.5273135;-3.206468105316162;-17.40591812133789;94.10374450683594
186;1673423764.5692818;47.130642699999996;7.24062;45.97700119018555;1673423764.7247987;-2.976656198501587;-20.439144134521484;94.3269271850586
187;1673423764.7716866;47.130642699999996;7.24062;46.37000274658203;1673423764.9253323;-3.078120231628418;-18.38330841064453;94.15040588378906
188;1673423764.9673324;47.1306428;7.24062;46.762001037597656;1673423765.1099236;-3.294039011001587;-16.291746139526367;94.11518096923828
189;1673423765.158798;47.1306428;7.24062;47.160003662109375;1673423765.3198037;-2.899017810821533;-20.078691482543945;94.44910430908203
190;1673423765.365254;47.1306428;7.2406201;47.560001373291016;1673423765.5253313;-2.8157267570495605;-18.882434844970703;94.32685089111328
191;1673423765.5721452;47.130642699999996;7.2406201;47.958003997802734;1673423765.7233944;-3.089054822921753;-18.0079345703125;94.06310272216797
192;1673423765.7693028;47.130642599999995;7.2406201;48.3280029296875;1673423765.9069357;-3.1506452560424805;-19.951875686645508;94.2820053100586
193;1673423765.958002;47.1306425;7.2406201;48.652000427246094;1673423766.1111495;-3.05020809173584;-19.664770126342773;94.20451354980469
194;1673423766.1560445;47.1306424;7.24062;48.92900085449219;1673423766.3064523;-3.428449869155884;-16.66248893737793;94.12257385253906
195;1673423766.3474312;47.1306423;7.2406198999999996;49.16100311279297;1673423766.5051444;-2.622004270553589;-18.37603187561035;94.15609741210938
196;1673423766.5482404;47.130641999999995;7.240619799999999;49.35300064086914;1673423766.7034745;15.029685020446777;0.29538407921791077;99.04495239257812
197;1673423766.7464123;47.130641399999995;7.240619199999999;49.51000213623047;1673423766.901956;26.692800521850586;28.993806838989258;111.31021881103516
198;1673423766.944135;47.1306393;7.2406165;49.6410026550293;1673423767.1034014;30.098798751831055;44.98393249511719;119.72786712646484
199;1673423767.1463652;47.130634799999996;7.240610299999999;49.750003814697266;1673423767.2979422;18.145854949951172;47.57963180541992;127.63104248046875
200;1673423767.340003;47.1306277;7.2406004;49.807003021240234;1673423767.49526;3.5898382663726807;49.336551666259766;139.00628662109375
201;1673423767.5668795;47.130618;7.2405876;49.84700393676758;1673423767.7389512;-11.520805358886719;49.366146087646484;149.16546630859375
202;1673423767.7799988;47.1306063;7.240572299999999;49.87200164794922;1673423767.9352624;-27.606266021728516;46.40591812133789;160.72108459472656
203;1673423767.9794688;47.130592299999996;7.2405548;49.8900032043457;1673423768.1248653;-40.425689697265625;42.110450744628906;174.97642517089844
204;1673423768.1609595;47.1305762;7.2405349;49.90900421142578;1673423768.3095725;-50.40926742553711;37.72509765625;-173.9332275390625
205;1673423768.3597589;47.130558;7.2405123;49.92400360107422;1673423768.5439332;-56.19471740722656;31.541934967041016;-162.7036590576172
206;1673423768.582971;47.1305378;7.240487;49.90800094604492;1673423768.7209136;-50.99763107299805;24.420337677001953;-155.00515747070312
207;1673423768.757039;47.130516199999995;7.2404595;49.85400390625;1673423768.890476;-47.127620697021484;19.697345733642578;-149.05128479003906
208;1673423768.9359112;47.1304939;7.2404303;49.78400421142578;1673423769.1017165;-47.752098083496094;15.36926555633545;-142.72491455078125
209;1673423769.146402;47.130471199999995;7.240399999999999;49.711002349853516;1673423769.3021705;-46.460445404052734;10.958658218383789;-135.74734497070312
210;1673423769.350113;47.1304483;7.240368699999999;49.64600372314453;1673423769.515595;-44.39125442504883;4.252936840057373;-128.99107360839844
211;1673423769.5693495;47.130425599999995;7.2403369;49.60000228881836;1673423769.728652;-44.684326171875;1.52658212184906;-129.81996154785156
212;1673423769.7769005;47.1304027;7.240304699999999;49.55400085449219;1673423769.9291618;-43.555320739746094;2.595472574234009;-133.0327911376953
213;1673423769.9771178;47.1303795;7.240272399999999;49.522003173828125;1673423770.1190963;-44.332847595214844;3.5908043384552;-134.29241943359375
214;1673423770.1583652;47.1303561;7.2402403;49.51700210571289;1673423770.317579;-47.0233268737793;4.956414222717285;-134.93910217285156
215;1673423770.3554964;47.1303324;7.2402082;49.53700256347656;1673423770.5195956;-47.731239318847656;6.009401798248291;-135.08895874023438
216;1673423770.5618672;47.1303086;7.240176;49.56700134277344;1673423770.7052846;-48.21186065673828;6.796048164367676;-135.19444274902344
217;1673423770.7487845;47.130284599999996;7.2401436;49.60200119018555;1673423770.9066515;-48.017967224121094;7.075540065765381;-135.1920623779297
218;1673423770.9561338;47.1302606;7.240111;49.63800048828125;1673423771.1125276;-47.53121566772461;7.167299747467041;-135.1726531982422
219;1673423771.1603513;47.1302364;7.2400781;49.68100357055664;1673423771.3194969;-48.59642028808594;7.374687194824219;-135.2374725341797
220;1673423771.359366;47.130212199999995;7.240044999999999;49.73100280761719;1673423771.512974;-49.094547271728516;7.238323211669922;-135.12452697753906
221;1673423771.5591838;47.130187799999995;7.2400116;49.7760009765625;1673423771.7236516;-48.97072219848633;6.910439968109131;-135.00299072265625
222;1673423771.767982;47.1301634;7.2399778999999995;49.81300354003906;1673423771.9121652;-48.35540008544922;6.709772109985352;-134.9966278076172
223;1673423771.9573414;47.1301389;7.2399441;49.83700180053711;1673423772.113674;-47.328575134277344;6.5550665855407715;-134.9859161376953
224;1673423772.1569037;47.1301144;7.239910399999999;49.85300064086914;1673423772.3372147;-47.14699172973633;6.7809576988220215;-135.1793212890625
225;1673423772.385048;47.1300898;7.239876499999999;49.874000549316406;1673423772.5306182;-47.766151428222656;7.028719902038574;-135.29327392578125
226;1673423772.5755198;47.1300652;7.239842599999999;49.9010009765625;1673423772.7664456;-48.720603942871094;7.009006023406982;-135.29025268554688
227;1673423772.8095071;47.1300406;7.2398086;49.926002502441406;1673423772.9357085;-48.9085578918457;6.872613430023193;-135.23048400878906
228;1673423772.9748635;47.1300159;7.239774499999999;49.94400405883789;1673423773.1224623;-48.33561706542969;6.638882637023926;-135.151123046875
229;1673423773.1654372;47.1299911;7.239740299999999;49.954002380371094;1673423773.307782;-47.7613639831543;6.7223219871521;-135.2388916015625
230;1673423773.3601906;47.1299664;7.2397062;49.95600128173828;1673423773.500694;-47.45243835449219;6.829217433929443;-135.2388916015625
231;1673423773.5433369;47.129941699999996;7.2396723;49.95100402832031;1673423773.6998453;-47.47880935668945;6.717105388641357;-135.27359008789062
232;1673423773.7431362;47.129917;7.239638299999999;49.952003479003906;1673423773.9036405;-47.7928352355957;6.945974349975586;-135.3847198486328
233;1673423773.9467642;47.129892299999995;7.239604399999999;49.95900344848633;1673423774.1033669;-48.396087646484375;6.926136493682861;-135.32223510742188
234;1673423774.1488364;47.1298677;7.2395704;49.9630012512207;1673423774.3024294;-48.501914978027344;6.724257469177246;-135.2431182861328
235;1673423774.3634677;47.129843;7.2395363999999995;49.961002349853516;1673423774.5151896;-47.999671936035156;6.5517730712890625;-135.20838928222656
236;1673423774.5592654;47.129818199999995;7.2395023;49.9530029296875;1673423774.7140012;-47.40507507324219;6.493117809295654;-135.2250213623047
237;1673423774.7571154;47.1297935;7.2394682999999995;49.94400405883789;1673423774.9191241;-47.32798385620117;6.59791898727417;-135.32391357421875
238;1673423774.9706964;47.1297688;7.2394343;49.94000244140625;1673423775.2016764;-47.732418060302734;6.724874973297119;-135.37887573242188
239;1673423775.2359908;47.129744099999996;7.2394003;49.93600082397461;1673423775.395461;-48.043575286865234;6.654788494110107;-135.30992126464844
240;1673423775.4409049;47.1297194;7.2393664;49.93100357055664;1673423775.5706165;-47.84738540649414;6.641090393066406;-135.28988647460938
241;1673423775.609717;47.129694699999995;7.2393323999999994;49.926002502441406;1673423775.742763;-47.61492919921875;6.621565818786621;-135.28858947753906
242;1673423775.7876568;47.129669899999996;7.239298499999999;49.926002502441406;1673423775.9489355;-47.699153900146484;6.605775833129883;-135.22874450683594
243;1673423775.9928555;47.1296452;7.239264599999999;49.92400360107422;1673423776.1441011;-47.745094299316406;6.693717956542969;-135.27362060546875
244;1673423776.1892328;47.129620499999994;7.2392308;49.92500305175781;1673423776.3257523;-47.945648193359375;6.711774826049805;-135.2308807373047
245;1673423776.363381;47.1295958;7.2391969;49.926002502441406;1673423776.514705;-48.065574645996094;6.533838272094727;-135.12429809570312
246;1673423776.5548887;47.1295711;7.239163;49.923004150390625;1673423776.6962268;-47.748260498046875;6.4730706214904785;-135.10906982421875
247;1673423776.7350447;47.129546399999995;7.2391290999999995;49.9170036315918;1673423776.89753;-47.44353485107422;6.412976264953613;-135.07440185546875
248;1673423776.9419968;47.1295217;7.2390951999999995;49.915000915527344;1673423777.1027203;-47.58278274536133;6.421988010406494;-135.0546417236328
249;1673423777.1469717;47.129497;7.2390612999999995;49.9170036315918;1673423777.3002658;-47.92053985595703;6.589329242706299;-135.0876007080078
250;1673423777.3500094;47.129472299999996;7.2390275;49.922000885009766;1673423777.5152864;-48.245487213134766;6.429152011871338;-134.94285583496094
251;1673423777.5660808;47.1294477;7.2389937;49.92900085449219;1673423777.7214797;-48.2836799621582;6.574894428253174;-134.97422790527344
252;1673423777.771633;47.129422999999996;7.2389598;49.935001373291016;1673423777.9303346;-47.41640090942383;9.634682655334473;-135.61294555664062
253;1673423777.9762726;47.1293983;7.2389259;49.939002990722656;1673423778.1342177;-46.89955520629883;11.539178848266602;-135.14849853515625
254;1673423778.1752415;47.129373799999996;7.2388917;49.94300079345703;1673423778.3306375;-46.434261322021484;9.475459098815918;-133.85687255859375
255;1673423778.3804727;47.1293496;7.238857299999999;49.948001861572266;1673423778.5387313;-37.26300811767578;9.84962272644043;-133.32493591308594
256;1673423778.5728915;47.1293258;7.2388227999999994;49.97700119018555;1673423778.7169628;-20.17947006225586;11.236591339111328;-134.77435302734375
257;1673423778.7614233;47.1293028;7.2387894;50.00600051879883;1673423778.9226346;-2.0256834030151367;10.501352310180664;-136.01693725585938
258;1673423778.9655774;47.1292811;7.2387578999999995;50.02000427246094;1673423779.1165936;12.490796089172363;9.360631942749023;-136.94981384277344
259;1673423779.1561816;47.1292614;7.2387295;50.01700210571289;1673423779.308262;20.57863426208496;10.085500717163086;-136.7471923828125
260;1673423779.3603816;47.129244;7.2387048;49.99800109863281;1673423779.5382953;28.75965118408203;8.776054382324219;-136.2762908935547
261;1673423779.580589;47.129228999999995;7.2386839;49.94400405883789;1673423779.723688;27.193157196044922;17.145540237426758;-138.15255737304688
262;1673423779.7697587;47.1292166;7.2386668;49.910003662109375;1673423779.9243617;27.690275192260742;13.643911361694336;-137.45448303222656
263;1673423779.9937;47.1292068;7.2386529;49.91400146484375;1673423780.1415493;23.363649368286133;11.408581733703613;-137.33926391601562
264;1673423780.1844199;47.129199;7.2386417;49.94000244140625;1673423780.3312895;17.403377532958984;9.931136131286621;-136.8804473876953
265;1673423780.3742812;47.129192499999995;7.2386322;49.97300338745117;1673423780.5443141;10.834097862243652;12.343461036682129;-136.28370666503906
266;1673423780.5931742;47.129186999999995;7.2386238999999994;50.00100326538086;1673423780.745309;6.7825422286987305;11.134917259216309;-136.35215759277344
267;1673423780.789264;47.1291819;7.2386162999999994;50.02100372314453;1673423780.9445336;3.6284592151641846;11.551470756530762;-136.3831787109375
268;1673423780.9875605;47.129177;7.2386092;50.03400421142578;1673423781.1564643;3.4072158336639404;10.410789489746094;-136.55459594726562
269;1673423781.19263;47.1291722;7.2386025;50.044002532958984;1673423781.3375752;6.120543479919434;9.803466796875;-136.64024353027344
270;1673423781.382844;47.1291675;7.238595999999999;50.05400085449219;1673423781.5248506;9.346495628356934;9.511298179626465;-136.6300506591797
271;1673423781.5668552;47.1291629;7.2385901;50.06200408935547;1673423781.7301326;13.988302230834961;8.888280868530273;-136.07467651367188
272;1673423781.7767222;47.1291586;7.2385848;50.070003509521484;1673423781.937613;17.355737686157227;9.240782737731934;-135.6095428466797
273;1673423781.9834836;47.1291547;7.23858;50.07600402832031;1673423782.1290758;0.07406317442655563;12.57589340209961;-138.22439575195312
274;1673423782.1661623;47.129151199999995;7.238575699999999;50.10700225830078;1673423782.3073134;-20.22726058959961;12.22044563293457;-139.71551513671875
275;1673423782.3574603;47.1291471;7.2385701;50.189002990722656;1673423782.5138385;-23.510122299194336;7.6237993240356445;-138.31227111816406
276;1673423782.5524414;47.1291416;7.2385629;50.374000549316406;1673423782.7112563;-21.26011085510254;8.659699440002441;-138.1157684326172
277;1673423782.7593172;47.1291349;7.238554199999999;50.65400314331055;1673423782.9170294;-31.901826858520508;16.774394989013672;-137.43698120117188
278;1673423782.9594703;47.129127;7.238543699999999;51.018001556396484;1673423783.107607;-27.489749908447266;13.525436401367188;-135.7613067626953
279;1673423783.1505942;47.1291181;7.238531;51.40500259399414;1673423783.3065455;-24.412742614746094;11.727350234985352;-136.23245239257812
280;1673423783.3549435;47.1291083;7.2385169;51.80900192260742;1673423783.5156503;-18.567760467529297;9.429129600524902;-136.4770965576172
281;1673423783.5632172;47.1290982;7.2385018;52.21800231933594;1673423783.7272906;-14.224430084228516;7.406218528747559;-136.5396270751953
282;1673423783.7790759;47.1290878;7.238486399999999;52.62900161743164;1673423783.9366784;-9.802873611450195;8.1842041015625;-136.9851837158203
283;1673423783.9799998;47.1290773;7.238471199999999;53.03700256347656;1673423784.129163;-7.1579909324646;8.959371566772461;-137.1851348876953
284;1673423784.1761696;47.129067;7.238456299999999;53.441001892089844;1673423784.3266747;-6.004907131195068;10.506665229797363;-137.6094512939453
285;1673423784.372158;47.129056899999995;7.2384417999999995;53.84300231933594;1673423784.5353842;-6.677623748779297;10.574617385864258;-137.54660034179688
286;1673423784.5753999;47.129047;7.2384279;54.246002197265625;1673423784.7242038;-8.22958755493164;9.59014892578125;-137.35867309570312
287;1673423784.769644;47.1290372;7.238414499999999;54.64900207519531;1673423784.9188118;-9.558316230773926;7.81048583984375;-136.98666381835938
288;1673423784.9682097;47.1290275;7.2384014;55.04900360107422;1673423785.1200721;-11.069547653198242;6.648576736450195;-136.776123046875
289;1673423785.1744525;47.1290179;7.2383887;55.44700241088867;1673423785.3192937;-11.69969654083252;8.200119972229004;-137.07986450195312
290;1673423785.369787;47.1290082;7.238376;55.842002868652344;1673423785.5380445;-12.074251174926758;10.383366584777832;-137.2936248779297
291;1673423785.5841238;47.1289984;7.238363199999999;56.2400016784668;1673423785.735545;-13.029608726501465;12.400296211242676;-136.9640655517578
292;1673423785.7823927;47.1289887;7.238350199999999;56.6410026550293;1673423785.9487429;-13.727005958557129;13.249011993408203;-137.02561950683594
293;1673423785.9940112;47.1289789;7.238336899999999;57.03700256347656;1673423786.1301558;-14.191224098205566;12.66223430633545;-136.97152709960938
294;1673423786.1746693;47.128969;7.2383234;57.435001373291016;1673423786.3135388;-14.177388191223145;10.912250518798828;-136.7692108154297
295;1673423786.3574429;47.1289592;7.238309699999999;57.833003997802734;1673423786.5090368;-13.817230224609375;8.828805923461914;-136.68736267089844
296;1673423786.5525327;47.1289492;7.238296;58.23200225830078;1673423786.6964982;-12.6383056640625;7.235214710235596;-136.5731658935547
297;1673423786.7448783;47.1289391;7.2382821999999996;58.63300323486328;1673423786.912803;-11.475065231323242;8.350296020507812;-136.72518920898438
298;1673423786.9587226;47.128929;7.238268499999999;59.035003662109375;1673423787.1265638;-10.716042518615723;10.559443473815918;-137.2371368408203
299;1673423787.1780114;47.128918899999995;7.238254899999999;59.43700408935547;1673423787.3372517;-10.79208755493164;12.5159330368042;-137.41098022460938
300;1673423787.382316;47.1289089;7.2382412;59.836002349853516;1673423787.54001;-11.331538200378418;12.537796020507812;-137.32037353515625
301;1673423787.5899343;47.128899;7.2382276;60.23400115966797;1673423787.7276776;-12.20105266571045;12.43075942993164;-137.12991333007812
302;1673423787.7662196;47.128889099999995;7.238213999999999;60.63200378417969;1673423787.9202948;-12.442842483520508;10.481040954589844;-136.5708770751953
303;1673423787.9827456;47.1288793;7.238200399999999;61.03200149536133;1673423788.1237895;-12.701895713806152;9.271100997924805;-136.67950439453125
304;1673423788.1659164;47.1288694;7.238186799999999;61.43100357055664;1673423788.3156576;-12.434992790222168;7.90123176574707;-136.49156188964844
305;1673423788.3602614;47.1288596;7.238173199999999;61.83100128173828;1673423788.5289514;-12.148290634155273;7.598180294036865;-136.36497497558594
306;1673423788.5754433;47.128849699999996;7.2381595999999995;62.23200225830078;1673423788.7192101;-11.746651649475098;8.227376937866211;-136.45065307617188
307;1673423788.7610962;47.128839799999994;7.2381461;62.631004333496094;1673423788.9180272;-11.751997947692871;9.476606369018555;-136.65484619140625
308;1673423788.968174;47.1288299;7.238132599999999;63.02700424194336;1673423789.122617;-11.999832153320312;11.092169761657715;-136.833984375
309;1673423789.1838355;47.1288202;7.238118999999999;63.42100143432617;1673423789.3391755;-12.28531265258789;11.18865966796875;-136.7617950439453
310;1673423789.3803906;47.1288105;7.2381052;63.816001892089844;1673423789.5231674;-12.420276641845703;11.727538108825684;-137.02127075195312
311;1673423789.57641;47.1288008;7.2380914;64.21100616455078;1673423789.7246532;-12.73546028137207;11.415118217468262;-137.06248474121094
312;1673423789.7681324;47.128791;7.238077499999999;64.60700225830078;1673423789.9176111;-13.047324180603027;11.127574920654297;-136.95980834960938
313;1673423789.9687169;47.1287813;7.2380638;65.0050048828125;1673423790.1235964;-13.142951965332031;10.447551727294922;-136.70297241210938
314;1673423790.1665473;47.1287714;7.2380501;65.4020004272461;1673423790.3294966;-13.34040355682373;9.963424682617188;-136.74722290039062
315;1673423790.3720703;47.128761399999995;7.2380365;65.8030014038086;1673423790.5268621;-12.907273292541504;9.653656959533691;-136.69529724121094
316;1673423790.5680044;47.1287514;7.238023;66.20700073242188;1673423790.7111695;-12.588089942932129;9.698561668395996;-136.62806701660156
317;1673423790.7622974;47.128741299999994;7.2380096;66.60900115966797;1673423790.907759;-12.64968204498291;9.275103569030762;-136.60595703125
318;1673423790.9595535;47.1287312;7.237996099999999;67.01300048828125;1673423791.1148534;-12.448284149169922;9.013688087463379;-136.54385375976562
319;1673423791.1561694;47.1287212;7.2379826;67.41500091552734;1673423791.3015223;-12.340818405151367;8.474778175354004;-136.3698272705078
320;1673423791.358273;47.1287112;7.237969;67.81600189208984;1673423791.5220857;-11.939959526062012;7.9838690757751465;-136.2903594970703
321;1673423791.5746846;47.128701299999996;7.2379554;68.21600341796875;1673423791.7276208;-12.408793449401855;8.265677452087402;-136.36178588867188
322;1673423791.7760968;47.128691499999995;7.2379418;68.61300659179688;1673423791.9392939;-12.376368522644043;8.385116577148438;-136.4901885986328
323;1673423791.9832163;47.1286817;7.2379282;69.0060043334961;1673423792.134562;-12.36001968383789;8.881397247314453;-136.66729736328125
324;1673423792.1746202;47.1286719;7.2379146;69.4010009765625;1673423792.329369;-12.594893455505371;9.505184173583984;-136.94039916992188
325;1673423792.370937;47.128662;7.237901;69.79600524902344;1673423792.5170822;-12.498678207397461;10.210345268249512;-136.85342407226562
326;1673423792.5576503;47.1286521;7.2378873;70.19400024414062;1673423792.718457;-12.48178482055664;10.657821655273438;-137.13548278808594
327;1673423792.7669964;47.128642199999994;7.2378737;70.59100341796875;1673423792.9228237;-12.185182571411133;10.715081214904785;-136.94070434570312
328;1673423792.9702284;47.1286323;7.237859899999999;70.98800659179688;1673423793.1102445;-12.40282154083252;11.024359703063965;-136.81407165527344
329;1673423793.1567793;47.1286224;7.2378461;71.38500213623047;1673423793.3094878;-12.213349342346191;10.75066089630127;-136.7755126953125
330;1673423793.359069;47.128612499999996;7.2378322;71.78600311279297;1673423793.5168123;-12.408037185668945;10.954150199890137;-136.9298858642578
331;1673423793.5551536;47.1286026;7.2378184;72.18900299072266;1673423793.7034452;-12.253274917602539;11.014493942260742;-136.91082763671875
332;1673423793.7446;47.1285927;7.2378047;72.59400177001953;1673423793.9092991;-12.363882064819336;11.250687599182129;-136.88397216796875
333;1673423793.9547355;47.128582699999995;7.2377911;72.9990005493164;1673423794.1161437;-12.45995807647705;11.644123077392578;-136.89613342285156
334;1673423794.1606133;47.1285727;7.2377775;73.4010009765625;1673423794.319415;-12.623406410217285;12.1591796875;-137.1169891357422
335;1673423794.364032;47.1285628;7.237763999999999;73.802001953125;1673423794.518879;-12.560302734375;12.259296417236328;-137.19015502929688
336;1673423794.5621207;47.1285528;7.2377503999999995;74.2030029296875;1673423794.7379456;-12.341631889343262;11.945469856262207;-137.21974182128906
337;1673423794.785979;47.1285428;7.237736699999999;74.60100555419922;1673423794.9398327;-12.319371223449707;11.804020881652832;-137.1943359375
338;1673423794.986515;47.128532899999996;7.237723;74.99800109863281;1673423795.1226518;-12.682245254516602;11.602444648742676;-137.2314910888672
339;1673423795.1609;47.128523;7.2377094;75.39600372314453;1673423795.3021147;-12.81691837310791;10.987198829650879;-137.08009338378906
340;1673423795.345267;47.1285131;7.2376957;75.79500579833984;1673423795.503064;-13.054129600524902;11.591506958007812;-136.98171997070312
341;1673423795.5463164;47.1285032;7.2376821;76.19500732421875;1673423795.7068455;-13.047778129577637;11.557546615600586;-136.87046813964844
342;1673423795.7582283;47.1284932;7.237668599999999;76.59600067138672;1673423795.9139898;-13.09141731262207;11.511872291564941;-136.86924743652344
343;1673423795.9565349;47.1284832;7.2376551;76.99800109863281;1673423796.1083844;-12.945135116577148;11.702132225036621;-136.8660888671875
344;1673423796.1598022;47.128473199999995;7.2376415;77.4000015258789;1673423796.328455;-12.501996040344238;10.786632537841797;-136.94342041015625
345;1673423796.373497;47.1284633;7.2376279;77.80000305175781;1673423796.5283172;-12.416186332702637;10.699410438537598;-136.91819763183594
346;1673423796.5698621;47.1284534;7.237614199999999;78.2030029296875;1673423796.7254064;-12.643973350524902;10.244891166687012;-136.974609375
347;1673423796.7727373;47.128443499999996;7.2376005;78.6030044555664;1673423796.921038;-12.94983196258545;10.116128921508789;-136.93533325195312
348;1673423796.971341;47.1284336;7.237586899999999;79.00100708007812;1673423797.1299796;-13.44438362121582;10.112642288208008;-136.88009643554688
349;1673423797.177364;47.1284236;7.237573299999999;79.39800262451172;1673423797.331598;-13.412540435791016;9.888374328613281;-136.7272491455078
350;1673423797.372694;47.128413599999995;7.237559699999999;79.79600524902344;1673423797.563872;-12.716492652893066;9.4122953414917;-136.23858642578125
351;1673423797.604688;47.1284037;7.237546;80.19900512695312;1673423797.759351;-12.343243598937988;9.269115447998047;-136.16282653808594
352;1673423797.8013577;47.1283937;7.2375324;80.60100555419922;1673423797.9479215;-12.02558422088623;9.384421348571777;-136.27442932128906
353;1673423797.9961164;47.128383799999995;7.237518799999999;81.00100708007812;1673423798.1524992;-12.30847454071045;9.599191665649414;-136.40492248535156
354;1673423798.1945107;47.1283739;7.2375051;81.4010009765625;1673423798.3549485;-12.805594444274902;9.644661903381348;-136.68121337890625
355;1673423798.40346;47.128364;7.2374915;81.802001953125;1673423798.5522652;-13.286112785339355;9.79668140411377;-136.9915008544922
356;1673423798.599113;47.1283542;7.2374778;82.19900512695312;1673423798.732408;-13.8338041305542;9.99179458618164;-137.18714904785156
357;1673423798.7720034;47.128344299999995;7.237463999999999;82.59600067138672;1673423798.918163;-13.916719436645508;10.327549934387207;-137.3948211669922
358;1673423798.9645865;47.1283344;7.2374503;82.99400329589844;1673423799.1136835;-13.005629539489746;10.429739952087402;-137.2965545654297
359;1673423799.1581962;47.1283245;7.237436499999999;83.39100646972656;1673423799.3131433;-12.157334327697754;10.596464157104492;-137.1280517578125
360;1673423799.361239;47.128314599999996;7.2374227;83.78700256347656;1673423799.542304;-11.191372871398926;10.521559715270996;-137.0510711669922
361;1673423799.5926774;47.128304799999995;7.2374091;84.1830062866211;1673423799.7439413;-11.076335906982422;9.933463096618652;-136.7725067138672
362;1673423799.7869265;47.1282949;7.2373955;84.58100128173828;1673423799.9500675;-12.738967895507812;9.878349304199219;-136.72222900390625
363;1673423800.0038989;47.1282851;7.2373819;84.9800033569336;1673423800.15637;-14.00633716583252;9.972990989685059;-136.72425842285156
364;1673423800.2024138;47.1282752;7.2373683;85.37800598144531;1673423800.3777952;-14.432165145874023;10.1166353225708;-136.94810485839844
365;1673423800.4467182;47.128265299999995;7.2373546;85.7760009765625;1673423800.6178448;-14.2786865234375;10.513642311096191;-137.11170959472656
366;1673423800.652583;47.1282554;7.237341;86.17400360107422;1673423800.8093586;-13.206482887268066;10.65028190612793;-137.01156616210938
367;1673423800.866548;47.1282455;7.2373273;86.57300567626953;1673423800.9832761;-12.725698471069336;10.646879196166992;-136.98580932617188
368;1673423801.0193753;47.1282356;7.2373137;86.97100067138672;1673423801.1639483;-11.400362014770508;10.535585403442383;-136.93582153320312
369;1673423801.2059119;47.128225699999994;7.2373001;87.36800384521484;1673423801.3450503;-11.579842567443848;10.30395221710205;-136.91136169433594
370;1673423801.3911052;47.1282158;7.2372865;87.76400756835938;1673423801.5517445;-12.617386817932129;10.215962409973145;-137.03199768066406
371;1673423801.5966423;47.128206;7.2372729;88.15900421142578;1673423801.7578442;-13.900070190429688;10.212864875793457;-137.0547637939453
372;1673423801.801727;47.128195999999996;7.2372592;88.5530014038086;1673423801.958014;-14.530613899230957;10.295690536499023;-137.10971069335938
373;1673423802.0019507;47.1281861;7.237245499999999;88.94900512695312;1673423802.1592205;-13.66227912902832;10.554837226867676;-136.98724365234375
374;1673423802.2109487;47.1281761;7.2372318;89.34600067138672;1673423802.3574996;-12.500540733337402;10.656274795532227;-136.95010375976562
375;1673423802.404892;47.128166199999995;7.2372181;89.74300384521484;1673423802.5724275;-11.597811698913574;10.271947860717773;-136.86732482910156
376;1673423802.6143959;47.1281563;7.2372043999999995;90.14200592041016;1673423802.7590957;-11.459638595581055;10.042853355407715;-136.87001037597656
377;1673423802.7992003;47.1281463;7.237190699999999;90.54000091552734;1673423802.9484918;-11.744683265686035;10.10497760772705;-136.9701690673828
378;1673423802.995403;47.128136399999995;7.237177;90.93900299072266;1673423803.1435745;-12.828057289123535;10.012316703796387;-137.1277313232422
379;1673423803.1900597;47.1281265;7.2371633;91.33800506591797;1673423803.3268106;-13.879071235656738;10.128987312316895;-137.2487335205078
380;1673423803.3684149;47.1281165;7.2371495999999995;91.73600769042969;1673423803.5306687;-13.819746017456055;10.400897026062012;-137.20172119140625
381;1673423803.577221;47.1281065;7.237135899999999;92.13200378417969;1673423803.733979;-12.503954887390137;10.303093910217285;-136.957763671875
382;1673423803.7745292;47.1280965;7.2371221;92.52100372314453;1673423803.9279861;-11.428750038146973;10.328457832336426;-136.78184509277344
383;1673423803.9729152;47.128086499999995;7.2371085;92.91000366210938;1673423804.130659;-10.790719032287598;10.303862571716309;-136.73695373535156
384;1673423804.18511;47.1280765;7.2370947999999995;93.3030014038086;1673423804.33688;-10.951873779296875;9.988494873046875;-136.77178955078125
385;1673423804.3807158;47.1280666;7.2370813;93.69700622558594;1673423804.5323882;-12.00819206237793;9.995274543762207;-136.8965606689453
386;1673423804.574729;47.128056699999995;7.2370677;94.09200286865234;1673423804.7402582;-13.449628829956055;10.107054710388184;-137.04525756835938
387;1673423804.7954588;47.1280468;7.237054199999999;94.48700714111328;1673423804.9724598;-14.065470695495605;10.182751655578613;-137.08616638183594
388;1673423805.0204303;47.1280368;7.2370407;94.8790054321289;1673423805.1632223;-13.867663383483887;10.537697792053223;-137.1385040283203
389;1673423805.2181377;47.1280268;7.2370271;95.27100372314453;1673423805.3661816;-12.220236778259277;10.599733352661133;-136.9991455078125
390;1673423805.4093506;47.1280168;7.2370133999999995;95.66300201416016;1673423805.5542235;-11.014684677124023;10.360292434692383;-136.818603515625
391;1673423805.5967193;47.128006899999995;7.2369997999999995;96.05400085449219;1673423805.7621293;-10.932210922241211;10.030217170715332;-136.7455596923828
392;1673423805.804104;47.127997;7.2369863;96.45000457763672;1673423805.956731;-11.451648712158203;9.998286247253418;-136.67694091796875
393;1673423805.9998374;47.1279871;7.236972799999999;96.84700775146484;1673423806.1578329;-12.666082382202148;9.839038848876953;-136.82818603515625
394;1673423806.2023487;47.127977099999995;7.236959199999999;97.24400329589844;1673423806.3382614;-13.596046447753906;10.238526344299316;-137.0352020263672
395;1673423806.3765173;47.1279671;7.2369457;97.63900756835938;1673423806.5214696;-14.207493782043457;10.487634658813477;-137.1095733642578
396;1673423806.5688548;47.127957099999996;7.2369322;98.0320053100586;1673423806.7191885;-13.88354206085205;10.727910995483398;-137.125732421875
397;1673423806.7642615;47.1279472;7.2369186;98.4260025024414;1673423806.9273233;-12.69542121887207;10.705099105834961;-137.07196044921875
398;1673423806.9761574;47.1279372;7.236904999999999;98.82500457763672;1673423807.1408134;-11.371440887451172;10.687652587890625;-136.90281677246094
399;1673423807.186285;47.127927199999995;7.236891399999999;99.22500610351562;1673423807.3502657;-10.897100448608398;10.271549224853516;-136.84913635253906
400;1673423807.3991733;47.1279174;7.236877799999999;99.62400817871094;1673423807.5578358;-11.849011421203613;10.326990127563477;-136.820068359375
401;1673423807.595472;47.1279075;7.2368643;100.02200317382812;1673423807.750205;-13.18112850189209;10.10990047454834;-136.88014221191406
402;1673423807.8014853;47.1278976;7.2368508;100.42100524902344;1673423807.95041;-14.326303482055664;10.362430572509766;-136.96388244628906
403;1673423807.996816;47.127887699999995;7.2368372999999995;100.82100677490234;1673423808.171697;-14.423965454101562;10.51944637298584;-136.98956298828125
404;1673423808.2136621;47.1278777;7.2368236999999995;101.22100830078125;1673423808.3753698;-13.582930564880371;10.600467681884766;-136.934814453125
405;1673423808.4280736;47.1278678;7.2368101;101.62100219726562;1673423808.5721338;-12.36771297454834;10.533824920654297;-136.92689514160156
406;1673423808.6160538;47.1278578;7.236796399999999;102.02000427246094;1673423808.7600682;-11.556767463684082;10.496134757995605;-136.89950561523438
407;1673423808.7996387;47.1278479;7.236782799999999;102.41700744628906;1673423808.9485312;-11.282976150512695;10.308948516845703;-136.7901153564453
408;1673423808.9949343;47.127838;7.2367691999999995;102.81100463867188;1673423809.155537;-12.387629508972168;10.20587158203125;-136.79608154296875
409;1673423809.20194;47.127828099999995;7.2367557;103.2070083618164;1673423809.360688;-13.785479545593262;10.344696998596191;-136.84738159179688
410;1673423809.4051821;47.1278182;7.236742199999999;103.6050033569336;1673423809.561911;-14.482076644897461;10.383787155151367;-136.85609436035156
411;1673423809.6014872;47.1278082;7.2367285;104.0040054321289;1673423809.746487;-14.002880096435547;10.741377830505371;-136.9595489501953
412;1673423809.7909703;47.127798299999995;7.2367148;104.406005859375;1673423809.9535685;-12.836875915527344;10.496326446533203;-136.9234161376953
413;1673423809.9999692;47.1277884;7.236701099999999;104.8060073852539;1673423810.153741;-11.740031242370605;10.51912784576416;-136.82412719726562
414;1673423810.1991715;47.1277784;7.2366874999999995;105.20600128173828;1673423810.3578262;-11.389460563659668;10.402152061462402;-136.7845001220703
415;1673423810.4062204;47.127768499999995;7.236673799999999;105.60700225830078;1673423810.5599906;-11.733630180358887;10.295451164245605;-136.83218383789062
416;1673423810.6063948;47.1277586;7.236660199999999;106.01000213623047;1673423810.7821777;-13.213882446289062;10.24948787689209;-136.91844177246094
