;pos_time;latitude;longitude;altitude;alt_time;pitch;roll;yaw
0;1673425841.1664176;47.1306425;7.240619799999999;-0.006000000052154064;1673425841.246499;-0.08005174994468689;-0.4786490797996521;90.34784698486328
1;1673425841.3537436;47.1306425;7.2406197;-0.0020000000949949026;1673425841.4283316;-0.07612840831279755;-0.2931276559829712;90.35608673095703
2;1673425841.5570004;47.1306424;7.2406197;-0.0010000000474974513;1673425841.6679919;0.16311821341514587;-0.23374894261360168;90.28662109375
3;1673425841.7648776;47.1306424;7.2406197;-0.003000000026077032;1673425841.8406582;-0.09046349674463272;-0.2964005172252655;90.49411010742188
4;1673425841.9496403;47.1306424;7.2406197;-0.0020000000949949026;1673425842.0272741;0.047615788877010345;-0.27849653363227844;90.48783874511719
5;1673425842.1371624;47.1306424;7.2406197;-0.0020000000949949026;1673425842.2193189;0.21959497034549713;-0.29772502183914185;90.60545349121094
6;1673425842.3350158;47.1306424;7.2406196;-0.003000000026077032;1673425842.415772;-0.023629972711205482;-0.19148917496204376;90.43059539794922
7;1673425842.5259237;47.1306424;7.2406197;-0.006000000052154064;1673425842.6016378;-0.2164597362279892;-0.3300281763076782;90.5140609741211
8;1673425842.7193258;47.1306424;7.2406197;-0.007000000216066837;1673425842.8095367;-0.020158812403678894;-0.0871054008603096;90.44485473632812
9;1673425842.9334764;47.1306424;7.240619799999999;-0.004000000189989805;1673425843.0160446;-0.04857863113284111;-0.3067884147167206;90.321533203125
10;1673425843.1354957;47.1306424;7.240619799999999;-0.004000000189989805;1673425843.2268848;0.08289926499128342;-0.25840917229652405;90.45947265625
11;1673425843.349446;47.1306424;7.240619799999999;-0.005000000353902578;1673425843.423243;-0.1504524201154709;-0.16096146404743195;90.59193420410156
12;1673425843.5410988;47.1306424;7.240619799999999;-0.007000000216066837;1673425843.6247675;-0.05513478070497513;-0.14081214368343353;90.3299331665039
13;1673425843.737503;47.1306424;7.2406198999999996;-0.009000000543892384;1673425843.824031;-0.26232871413230896;-0.19202302396297455;90.43055725097656
14;1673425843.9368918;47.1306424;7.24062;0.0;1673425844.0205345;-0.04606888070702553;-2.0263619422912598;90.57466125488281
15;1673425844.1341612;47.1306424;7.24062;-0.0010000000474974513;1673425844.2195985;-0.10767047107219696;-1.3311831951141357;90.52432250976562
16;1673425844.3297033;47.1306424;7.2406201;-0.0010000000474974513;1673425844.404121;-0.15497764945030212;-1.3990124464035034;90.39643859863281
17;1673425844.5331478;47.1306425;7.2406201;0.0;1673425844.6364195;-0.2861458659172058;-1.464572787284851;90.64728546142578
18;1673425844.7618961;47.1306424;7.2406201999999995;0.0;1673425844.8436198;-0.16319771111011505;-1.2317131757736206;90.47356414794922
19;1673425844.9494998;47.1306425;7.2406201999999995;0.0010000000474974513;1673425845.0261743;-0.15522423386573792;-2.265378713607788;90.68341064453125
20;1673425845.151263;47.1306425;7.2406201;0.0010000000474974513;1673425845.2396433;-0.2024914026260376;-2.2384321689605713;90.61395263671875
21;1673425845.351832;47.1306425;7.2406201999999995;0.0020000000949949026;1673425845.463409;-0.053316354751586914;-1.9497239589691162;90.7054443359375
22;1673425845.5800366;47.1306425;7.2406201999999995;0.003000000026077032;1673425845.6549516;-0.20685383677482605;-1.3837265968322754;90.66986083984375
23;1673425845.7963078;47.1306425;7.2406201999999995;0.009000000543892384;1673425845.869233;-0.08010010421276093;-0.765513002872467;90.54535675048828
24;1673425845.9900653;47.130642599999995;7.2406201;0.01100000087171793;1673425846.0667653;-0.006079668644815683;-0.7264222502708435;90.50070190429688
25;1673425846.1846468;47.130642699999996;7.2406201;0.01100000087171793;1673425846.2908096;-0.21280449628829956;-0.8196287751197815;90.67395782470703
26;1673425846.3893125;47.1306428;7.2406201;0.012000000104308128;1673425846.4745317;-0.24926403164863586;-0.9711292386054993;90.63724517822266
27;1673425846.6399598;47.1306428;7.2406201;0.012000000104308128;1673425846.7034342;0.03715470805764198;-0.5750918388366699;89.26705932617188
28;1673425846.8169742;47.130643;7.2406201999999995;0.014000000432133675;1673425846.8849587;0.09224167466163635;-0.3475341796875;88.46833801269531
29;1673425847.0668318;47.1306436;7.2406201999999995;0.01900000125169754;1673425847.1328044;-0.11047260463237762;0.9590558409690857;89.23542022705078
30;1673425847.2201989;47.1306447;7.2406203;0.026000000536441803;1673425847.300523;-0.12584014236927032;1.3256211280822754;92.74463653564453
31;1673425847.3992443;47.1306465;7.2406204;0.04000000283122063;1673425847.4802852;0.04382484406232834;3.9044859409332275;97.17887878417969
32;1673425847.587911;47.130648799999996;7.2406204999999995;0.05300000309944153;1673425847.665787;0.07130292057991028;8.316688537597656;101.35256958007812
33;1673425847.7851396;47.1306516;7.2406206;0.06200000271201134;1673425847.8560033;-0.16749952733516693;11.753829002380371;105.00749206542969
34;1673425847.970745;47.130654899999996;7.2406207;0.06800000369548798;1673425848.0569792;-1.7498846054077148;16.474754333496094;105.74229431152344
35;1673425848.1784315;47.130658499999996;7.240620799999999;0.07700000703334808;1673425848.2571433;-1.9666591882705688;18.469135284423828;103.07704162597656
36;1673425848.3727553;47.1306624;7.2406212;0.08700000494718552;1673425848.4745193;-1.6302871704101562;20.747360229492188;100.70197296142578
37;1673425848.60461;47.130666299999994;7.2406217999999996;0.10000000149011612;1673425848.675717;-1.116086721420288;22.492910385131836;98.7422866821289
38;1673425848.7769446;47.1306702;7.2406226;0.11400000751018524;1673425848.856559;-0.5097129940986633;23.878080368041992;97.3058090209961
39;1673425848.983251;47.130674;7.240623599999999;0.1300000101327896;1673425849.0648143;0.28549879789352417;25.75010108947754;96.12714385986328
40;1673425849.1732397;47.1306775;7.240624599999999;0.1510000079870224;1673425849.2559476;1.093611240386963;27.560657501220703;95.17864990234375
41;1673425849.365842;47.1306807;7.2406258;0.1730000078678131;1673425849.4496038;1.9074137210845947;29.29065704345703;94.41920471191406
42;1673425849.5830116;47.130683499999996;7.2406269;0.1940000057220459;1673425849.6710436;2.8153610229492188;31.112947463989258;93.7646484375
43;1673425849.776807;47.130685799999995;7.2406279;0.21400001645088196;1673425849.8469656;3.661224603652954;32.960018157958984;93.17384338378906
44;1673425849.9586458;47.130687599999995;7.2406289;0.23100000619888306;1673425850.040254;4.614422798156738;34.75657272338867;92.69991302490234
45;1673425850.1521518;47.1306887;7.2406296999999995;0.24800001084804535;1673425850.229798;5.444627285003662;36.69144821166992;92.2845458984375
46;1673425850.3486385;47.1306892;7.240630299999999;0.2710000276565552;1673425850.4439027;6.52934455871582;38.76316833496094;91.93144989013672
47;1673425850.5635066;47.130688899999996;7.2406307;0.29600000381469727;1673425850.6442294;7.512341022491455;40.62076950073242;91.54475402832031
48;1673425850.7532191;47.1306879;7.2406308;0.3240000009536743;1673425850.8519819;8.61960220336914;42.61375427246094;91.11986541748047
49;1673425850.987258;47.130686;7.2406307;0.34700000286102295;1673425851.103621;9.854599952697754;44.48398971557617;90.582763671875
50;1673425851.202402;47.1306832;7.2406302;0.36500000953674316;1673425851.2768831;11.331114768981934;46.34755325317383;89.99065399169922
51;1673425851.3898287;47.1306793;7.2406293999999995;0.37700000405311584;1673425851.4666636;11.346173286437988;43.590293884277344;89.08934020996094
52;1673425851.5820434;47.1306747;7.240628399999999;0.38600000739097595;1673425851.6530163;10.607718467712402;39.02570343017578;88.15827178955078
53;1673425851.7754815;47.1306697;7.240627099999999;0.3920000195503235;1673425851.8554702;9.395444869995117;33.928558349609375;87.40160369873047
54;1673425851.965919;47.130664499999995;7.2406258999999995;0.406000018119812;1673425852.0408063;8.141719818115234;28.224294662475586;86.36529541015625
55;1673425852.1635978;47.130659699999995;7.2406247;0.4440000355243683;1673425852.257157;7.089932918548584;25.09743881225586;86.04362487792969
56;1673425852.378598;47.130655399999995;7.240623599999999;0.48600003123283386;1673425852.45027;6.031009197235107;21.1699275970459;86.02717590332031
57;1673425852.5651205;47.130652;7.240622699999999;0.5230000019073486;1673425852.651707;5.3736162185668945;19.758668899536133;86.16173553466797
58;1673425852.7578175;47.130649399999996;7.240622;0.5600000023841858;1673425852.8354485;5.052274227142334;20.400691986083984;86.3756332397461
59;1673425852.954194;47.130647499999995;7.240621399999999;0.6040000319480896;1673425853.0339668;5.023056983947754;21.397747039794922;86.51049041748047
60;1673425853.14852;47.130646399999996;7.240621;0.6540000438690186;1673425853.2277167;5.373839855194092;21.09300422668457;86.28942108154297
61;1673425853.3516116;47.130645699999995;7.240620799999999;0.7140000462532043;1673425853.4372125;5.796090602874756;24.66689682006836;86.24520111083984
62;1673425853.5431128;47.1306455;7.2406207;0.784000039100647;1673425853.6344845;6.608847618103027;27.019594192504883;86.2457504272461
63;1673425853.7533267;47.1306455;7.2406207;0.8660000562667847;1673425853.8455207;6.902095794677734;26.829355239868164;86.20030975341797
64;1673425853.9644248;47.1306455;7.2406207;0.9580000638961792;1673425854.0430858;7.492250919342041;28.760852813720703;86.31189727783203
65;1673425854.1547732;47.1306454;7.2406207;1.0600000619888306;1673425854.2437427;7.768013954162598;29.728708267211914;86.39705657958984
66;1673425854.3736384;47.1306453;7.2406207;1.1730000972747803;1673425854.4602752;7.610177516937256;28.025169372558594;86.32011413574219
67;1673425854.5807827;47.130645;7.2406207;1.2990000247955322;1673425854.658867;7.615964412689209;28.788877487182617;86.34723663330078
68;1673425854.775428;47.1306447;7.2406207;1.4420000314712524;1673425854.8498135;7.712953090667725;29.023136138916016;86.40990447998047
69;1673425854.9651294;47.1306443;7.2406206;1.596000075340271;1673425855.0385866;7.136204719543457;26.669620513916016;87.30471801757812
70;1673425855.1493256;47.130643899999995;7.2406204999999995;1.7600001096725464;1673425855.2362027;6.903231620788574;27.27281379699707;87.3769760131836
71;1673425855.3547776;47.1306435;7.2406204;1.9310001134872437;1673425855.4440186;6.965580940246582;27.4945125579834;87.4631118774414
72;1673425855.5539205;47.130643199999994;7.2406203;2.1080000400543213;1673425855.644419;6.621776580810547;25.551740646362305;87.37678527832031
73;1673425855.7581701;47.1306429;7.2406201999999995;2.2910001277923584;1673425855.8387547;6.685672760009766;26.41946029663086;87.54589080810547
74;1673425855.9516478;47.1306428;7.2406201;2.4760000705718994;1673425856.0316732;6.632007598876953;27.326595306396484;87.64962768554688
75;1673425856.1529016;47.130642699999996;7.2406201;2.6590001583099365;1673425856.2359064;6.548736095428467;25.48419952392578;87.66101837158203
76;1673425856.343508;47.130642599999995;7.2406201;2.8380000591278076;1673425856.4380224;6.7018585205078125;26.69362449645996;87.60755157470703
77;1673425856.5561535;47.130642599999995;7.2406201;3.0200002193450928;1673425856.635548;6.820144176483154;27.667829513549805;87.609619140625
78;1673425856.7500072;47.130642599999995;7.2406201999999995;3.202000141143799;1673425856.833951;6.930734634399414;25.9432315826416;87.5159912109375
79;1673425856.9480286;47.130642599999995;7.2406201999999995;3.390000104904175;1673425857.0284376;7.03925895690918;27.199398040771484;87.5639877319336
80;1673425857.141132;47.130642699999996;7.2406203;3.5860002040863037;1673425857.2325816;7.26261043548584;28.323135375976562;87.5986328125
81;1673425857.3551548;47.130642699999996;7.2406203;3.7810001373291016;1673425857.4408507;6.9904022216796875;26.602807998657227;87.6257553100586
82;1673425857.5439992;47.130642699999996;7.2406203;3.9720001220703125;1673425857.6240394;6.97292947769165;27.251853942871094;87.52570343017578
83;1673425857.7512884;47.130642699999996;7.2406203;4.1620001792907715;1673425857.846744;6.98955774307251;28.135337829589844;87.63145446777344
84;1673425857.9699626;47.130642599999995;7.2406203;4.3470001220703125;1673425858.048921;6.836095809936523;26.350038528442383;87.57083892822266
85;1673425858.1749985;47.130642699999996;7.2406201999999995;4.5360002517700195;1673425858.255077;6.716914653778076;27.070098876953125;87.54641723632812
86;1673425858.4427588;47.130642699999996;7.2406203;4.728000164031982;1673425858.5091543;7.077909469604492;28.337158203125;87.70634460449219
87;1673425858.6125944;47.130642699999996;7.2406203;4.921000003814697;1673425858.6872115;6.966561794281006;26.516254425048828;87.5755844116211
88;1673425858.8077333;47.130642699999996;7.2406204;5.11400032043457;1673425858.8923714;7.161964416503906;26.90680694580078;87.60257720947266
89;1673425859.011933;47.130642699999996;7.2406204;5.304000377655029;1673425859.0916681;7.000466823577881;28.377887725830078;87.65525817871094
90;1673425859.2097313;47.130642699999996;7.2406204;5.494000434875488;1673425859.2961664;7.004281997680664;26.82162094116211;87.57268524169922
91;1673425859.411849;47.130642699999996;7.2406203;5.687000274658203;1673425859.4874573;6.9993438720703125;26.90626335144043;87.6171646118164
92;1673425859.5869927;47.1306428;7.2406204;5.88100004196167;1673425859.6598864;7.212687015533447;28.46286964416504;87.65636444091797
93;1673425859.769751;47.130642699999996;7.2406204;6.075000286102295;1673425859.84751;7.048313617706299;26.945964813232422;87.5443115234375
94;1673425859.959741;47.130642699999996;7.2406203;6.26800012588501;1673425860.0459907;6.914397239685059;26.607574462890625;87.49700927734375
95;1673425860.1645668;47.130642599999995;7.2406203;6.460000514984131;1673425860.2425702;7.043226718902588;28.1907901763916;87.63838195800781
96;1673425860.3761477;47.130642599999995;7.2406203;6.652000427246094;1673425860.4596574;6.904454708099365;27.06450080871582;87.59845733642578
97;1673425860.593041;47.130642599999995;7.2406203;6.844000339508057;1673425860.6997783;6.809858798980713;26.52434539794922;87.6246566772461
98;1673425860.821521;47.1306425;7.2406203;7.035000324249268;1673425860.8932695;6.929326057434082;28.180402755737305;87.62899780273438
99;1673425861.0131745;47.1306425;7.2406201999999995;7.2300004959106445;1673425861.088938;6.894289970397949;27.198625564575195;87.64360046386719
100;1673425861.1981413;47.1306424;7.2406201999999995;7.428000450134277;1673425861.282616;6.874948024749756;26.109832763671875;87.53519439697266
101;1673425861.4091897;47.1306424;7.2406201999999995;7.627000331878662;1673425861.4753537;6.953228950500488;27.687349319458008;87.57889556884766
102;1673425861.6296427;47.1306424;7.2406203;7.824000358581543;1673425861.7000275;6.93309211730957;27.480819702148438;87.55143737792969
103;1673425861.8018005;47.1306424;7.2406201999999995;8.018000602722168;1673425861.8912194;6.933217525482178;26.25555419921875;87.55674743652344
104;1673425862.005299;47.1306424;7.2406201999999995;8.214000701904297;1673425862.0738068;6.966024875640869;28.03375816345215;87.61141204833984
105;1673425862.171886;47.1306424;7.2406203;8.414999961853027;1673425862.265188;6.940849781036377;27.51470375061035;87.6125259399414
106;1673425862.383134;47.1306423;7.2406203;8.617000579833984;1673425862.467502;6.79336404800415;26.219905853271484;87.5302963256836
107;1673425862.5758464;47.1306423;7.2406203;8.818000793457031;1673425862.652107;6.9767303466796875;27.65183448791504;87.61416625976562
108;1673425862.7729907;47.1306423;7.2406203;9.019000053405762;1673425862.8574095;7.017740249633789;27.83436393737793;87.53675842285156
109;1673425862.968278;47.1306424;7.2406203;9.218000411987305;1673425863.0524623;6.795645713806152;26.210769653320312;87.55350494384766
110;1673425863.1799269;47.1306424;7.2406203;9.419000625610352;1673425863.2630904;7.060026168823242;27.72934341430664;87.50918579101562
111;1673425863.3807197;47.1306424;7.2406203;9.623000144958496;1673425863.4614987;7.049270153045654;27.868778228759766;87.56267547607422
112;1673425863.575723;47.1306424;7.2406203;9.827000617980957;1673425863.6690314;7.004689693450928;26.23222541809082;87.59183502197266
113;1673425863.7808423;47.1306425;7.2406203;10.033000946044922;1673425863.8673098;6.91917610168457;27.30855941772461;87.53795623779297
114;1673425863.9854028;47.1306424;7.2406203;10.26400089263916;1673425864.0685484;6.928496360778809;26.029674530029297;87.32454681396484
115;1673425864.1833797;47.1306422;7.2406203;10.611000061035156;1673425864.299395;6.900870323181152;27.795568466186523;87.72284698486328
116;1673425864.458156;47.1306419;7.2406201999999995;11.000000953674316;1673425864.5897555;6.997509956359863;27.13123321533203;87.72193145751953
117;1673425864.6731474;47.1306416;7.24062;11.396000862121582;1673425864.7346463;6.52689790725708;26.69996452331543;87.71311950683594
118;1673425864.847467;47.1306413;7.24062;11.803000450134277;1673425864.920809;6.484103679656982;25.048622131347656;87.67950439453125
119;1673425865.03546;47.130641;7.2406198999999996;12.212000846862793;1673425865.110925;6.328282833099365;24.582176208496094;87.6637954711914
120;1673425865.22604;47.130640799999995;7.240619799999999;12.623000144958496;1673425865.2988803;6.391452789306641;25.624082565307617;87.74537658691406
121;1673425865.406719;47.130640799999995;7.240619799999999;13.03700065612793;1673425865.4814239;6.278587818145752;24.562803268432617;87.60782623291016
122;1673425865.5976186;47.130640899999996;7.2406197;13.44800090789795;1673425865.678143;6.257568836212158;24.675554275512695;87.60159301757812
123;1673425865.7792563;47.130641;7.2406197;13.856000900268555;1673425865.8607507;6.52855920791626;26.769329071044922;87.67049407958984
124;1673425865.9714615;47.1306412;7.2406197;14.266000747680664;1673425866.0476246;6.306439399719238;25.903858184814453;87.59090423583984
125;1673425866.1520443;47.130641399999995;7.2406197;14.676000595092773;1673425866.231444;6.373412609100342;25.71404457092285;87.5473861694336
126;1673425866.3692434;47.1306416;7.2406197;15.082000732421875;1673425866.4654493;6.601903915405273;27.35009002685547;87.64874267578125
127;1673425866.6215615;47.1306418;7.2406197;15.488000869750977;1673425866.6968153;6.7948150634765625;26.914390563964844;87.5901107788086
128;1673425866.8118052;47.1306419;7.240619799999999;15.892001152038574;1673425866.8915644;6.710628032684326;26.207727432250977;87.56222534179688
129;1673425867.004399;47.130641999999995;7.240619799999999;16.291000366210938;1673425867.070891;6.873660564422607;27.391420364379883;87.5843505859375
130;1673425867.184067;47.130641999999995;7.2406198999999996;16.69700050354004;1673425867.272687;6.826071739196777;26.574674606323242;87.56722259521484
131;1673425867.3785644;47.1306419;7.2406198999999996;17.104000091552734;1673425867.4632564;6.73593282699585;25.670249938964844;87.52554321289062
132;1673425867.5818694;47.130641999999995;7.2406198999999996;17.509000778198242;1673425867.668178;6.855983257293701;27.252235412597656;87.59468078613281
133;1673425867.788579;47.130641999999995;7.2406198999999996;17.916000366210938;1673425867.871895;6.859210014343262;26.5039119720459;87.48533630371094
134;1673425868.005299;47.130641999999995;7.2406198999999996;18.32200050354004;1673425868.07937;6.567403316497803;25.714126586914062;87.51993560791016
135;1673425868.1970077;47.130641999999995;7.2406198999999996;18.72100067138672;1673425868.277987;6.824678897857666;27.009992599487305;87.620361328125
136;1673425868.3963423;47.130641999999995;7.2406198999999996;19.121000289916992;1673425868.4809155;6.588463306427002;26.494165420532227;87.60266876220703
137;1673425868.6015692;47.130641999999995;7.2406198999999996;19.5210018157959;1673425868.6793115;6.69706392288208;25.571409225463867;87.52490234375
138;1673425868.7803423;47.130641999999995;7.2406198999999996;19.922000885009766;1673425868.8601193;6.844299793243408;27.21595573425293;87.64876556396484
139;1673425868.9883964;47.130642099999996;7.2406198999999996;20.32200050354004;1673425869.0711336;6.639148712158203;26.582918167114258;87.64533996582031
140;1673425869.1839428;47.130642099999996;7.2406198999999996;20.72100067138672;1673425869.2674792;6.671270847320557;25.70963478088379;87.63249969482422
141;1673425869.3920908;47.130642099999996;7.2406198999999996;21.119001388549805;1673425869.4796386;6.651619911193848;27.130708694458008;87.63707733154297
142;1673425869.590347;47.130642099999996;7.2406198999999996;21.514001846313477;1673425869.6699545;6.792303562164307;26.590049743652344;87.59442901611328
143;1673425869.7905474;47.130642099999996;7.2406198999999996;21.91400146484375;1673425869.8791394;6.563300609588623;25.635677337646484;87.52474975585938
144;1673425869.995705;47.1306422;7.2406198999999996;22.316001892089844;1673425870.076187;6.757474899291992;27.279985427856445;87.62531280517578
145;1673425870.1924877;47.1306422;7.2406198999999996;22.71900177001953;1673425870.29126;6.644637107849121;26.83877944946289;87.54637145996094
146;1673425870.4150808;47.1306423;7.2406198999999996;23.123001098632812;1673425870.4884849;6.638970851898193;25.660493850708008;87.58634185791016
147;1673425870.6062899;47.1306423;7.24062;23.523000717163086;1673425870.6886015;6.750185966491699;27.281156539916992;87.59673309326172
148;1673425870.7918425;47.1306423;7.24062;23.917001724243164;1673425870.866581;6.7314019203186035;26.752016067504883;87.55713653564453
149;1673425870.9828784;47.1306423;7.24062;24.317001342773438;1673425871.064011;6.653251647949219;25.660470962524414;87.57508850097656
150;1673425871.1836317;47.1306423;7.24062;24.718000411987305;1673425871.2610774;6.755082130432129;27.18731689453125;87.63217163085938
151;1673425871.3746634;47.1306424;7.24062;25.1200008392334;1673425871.4558418;6.828833103179932;26.85862159729004;87.63375854492188
152;1673425871.5760007;47.1306424;7.24062;25.525001525878906;1673425871.6570153;6.708400726318359;25.628129959106445;87.55428314208984
153;1673425871.772578;47.1306424;7.2406201;25.931001663208008;1673425871.854723;6.78094482421875;27.135967254638672;87.53501892089844
154;1673425871.983335;47.1306424;7.2406201;26.336000442504883;1673425872.0678496;6.76633882522583;26.68142318725586;87.54659271240234
155;1673425872.2217472;47.1306424;7.2406201;26.73400115966797;1673425872.3098516;6.582301139831543;25.648496627807617;87.57408905029297
156;1673425872.425946;47.1306424;7.2406201;27.13500213623047;1673425872.5035918;6.814779281616211;26.982038497924805;87.600341796875
157;1673425872.6366515;47.1306424;7.2406201;27.540000915527344;1673425872.7109175;6.74100399017334;26.939523696899414;87.61298370361328
158;1673425872.8159547;47.1306424;7.2406201;27.94300079345703;1673425872.9004264;6.714678764343262;25.66075325012207;87.64599609375
159;1673425873.0269656;47.1306424;7.2406201999999995;28.34600067138672;1673425873.109312;6.861236572265625;27.137542724609375;87.62333679199219
160;1673425873.2205658;47.1306425;7.2406201999999995;28.749000549316406;1673425873.2982402;6.867893695831299;27.040969848632812;87.62501525878906
161;1673425873.4053361;47.1306425;7.2406201999999995;29.144001007080078;1673425873.4817266;6.5725483894348145;25.804250717163086;87.55682373046875
162;1673425873.6006556;47.1306425;7.2406201999999995;29.538002014160156;1673425873.6821027;6.7062578201293945;26.956411361694336;87.5779800415039
163;1673425873.7884107;47.1306425;7.2406201;29.934001922607422;1673425873.875627;6.727652549743652;27.233858108520508;87.65222930908203
164;1673425873.9908366;47.1306425;7.2406201999999995;30.33100128173828;1673425874.068081;6.69653844833374;25.81064796447754;87.59721374511719
165;1673425874.189698;47.1306425;7.2406201999999995;30.729001998901367;1673425874.2837057;6.776439666748047;26.747333526611328;87.61217498779297
166;1673425874.3847752;47.1306424;7.2406201999999995;31.128002166748047;1673425874.4712193;6.919161796569824;27.13279151916504;87.64366912841797
167;1673425874.5860538;47.1306424;7.2406201999999995;31.530000686645508;1673425874.671522;6.786323547363281;25.671850204467773;87.54388427734375
168;1673425874.7932022;47.1306424;7.2406201999999995;31.924001693725586;1673425874.8768275;6.868756294250488;26.48651123046875;87.46576690673828
169;1673425875.0004928;47.1306424;7.2406201;32.319000244140625;1673425875.074227;6.622085094451904;27.227455139160156;87.61597442626953
170;1673425875.18992;47.1306424;7.24062;32.7130012512207;1673425875.2761664;6.663342475891113;25.567922592163086;87.5829086303711
171;1673425875.3922186;47.1306424;7.24062;33.10900115966797;1673425875.4705567;6.701014995574951;26.3537540435791;87.51299285888672
172;1673425875.5932772;47.1306424;7.24062;33.509002685546875;1673425875.6729019;6.636312007904053;27.150684356689453;87.56932830810547
173;1673425875.7911136;47.1306424;7.2406198999999996;33.915000915527344;1673425875.876888;6.4767279624938965;25.8312931060791;87.60804748535156
174;1673425875.9988444;47.1306424;7.2406198999999996;34.3129997253418;1673425876.0824876;6.655059814453125;26.461997985839844;87.61714172363281
175;1673425876.189787;47.1306423;7.2406198999999996;34.7130012512207;1673425876.2774456;6.604400634765625;27.292129516601562;87.55831146240234
176;1673425876.4138253;47.1306423;7.2406198999999996;35.1140022277832;1673425876.5016048;6.710721492767334;25.50678062438965;87.58879852294922
177;1673425876.616392;47.1306423;7.240619799999999;35.51700210571289;1673425876.6939085;6.527624130249023;26.501604080200195;87.57322692871094
178;1673425876.7994263;47.1306424;7.240619799999999;35.92000198364258;1673425876.871892;6.828463554382324;27.197860717773438;87.58114624023438
179;1673425876.9808295;47.1306424;7.240619799999999;36.32400131225586;1673425877.0598922;6.603025913238525;25.730070114135742;87.5386962890625
180;1673425877.193036;47.1306424;7.240619799999999;36.72600173950195;1673425877.3080056;6.684498310089111;26.58353042602539;87.62371063232422
181;1673425877.4698567;47.1306424;7.240619799999999;37.12200164794922;1673425877.5299344;6.637990474700928;27.20856475830078;87.60711669921875
182;1673425877.6281197;47.1306424;7.240619799999999;37.522003173828125;1673425877.7040293;6.559796333312988;25.856088638305664;87.56639862060547
183;1673425877.8101196;47.1306424;7.240619799999999;37.92300033569336;1673425877.8926897;6.5741658210754395;26.4714298248291;87.60345458984375
184;1673425878.0048716;47.1306424;7.2406197;38.32400131225586;1673425878.0796213;6.603628158569336;27.508798599243164;87.64399719238281
185;1673425878.2032108;47.1306425;7.2406197;38.724002838134766;1673425878.292449;6.483790397644043;26.07054901123047;87.56266784667969
186;1673425878.4157922;47.1306425;7.2406197;39.12300109863281;1673425878.499455;6.564189434051514;26.45506477355957;87.51227569580078
187;1673425878.6066008;47.1306425;7.2406197;39.5160026550293;1673425878.688236;6.59275484085083;27.274322509765625;87.62754821777344
188;1673425878.8208084;47.1306425;7.240619799999999;39.915000915527344;1673425878.948845;6.62993860244751;25.892976760864258;87.50350952148438
189;1673425879.0604553;47.1306425;7.240619799999999;40.31700134277344;1673425879.1293452;6.873962879180908;26.17304229736328;87.6164321899414
190;1673425879.2302632;47.1306425;7.2406198999999996;40.72200012207031;1673425879.3245447;6.8550567626953125;27.466073989868164;87.63263702392578
191;1673425879.426216;47.1306425;7.2406198999999996;41.12800216674805;1673425879.496634;6.820573329925537;25.938114166259766;87.61390686035156
192;1673425879.5907094;47.1306425;7.240619799999999;41.53000259399414;1673425879.66758;6.650933265686035;26.143388748168945;87.57135009765625
193;1673425879.7861207;47.1306425;7.240619799999999;41.93000030517578;1673425879.8684404;6.814136981964111;27.376497268676758;87.61750793457031
194;1673425879.989755;47.1306425;7.240619799999999;42.323001861572266;1673425880.0729675;6.769088268280029;26.001052856445312;87.54994201660156
195;1673425880.1852744;47.1306425;7.240619799999999;42.717002868652344;1673425880.2672186;6.422965049743652;26.0489559173584;87.55181121826172
196;1673425880.4089537;47.1306425;7.2406197;43.11300277709961;1673425880.4896936;6.582103729248047;27.395771026611328;87.64949798583984
197;1673425880.597866;47.130642599999995;7.2406197;43.5150032043457;1673425880.6782997;6.492745399475098;26.523950576782227;87.62871551513672
198;1673425880.7931263;47.130642599999995;7.2406196;43.9170036315918;1673425880.8734016;6.57896614074707;25.949459075927734;87.60286712646484
199;1673425880.9849184;47.130642599999995;7.2406196;44.31700134277344;1673425881.0669901;6.56171989440918;27.571664810180664;87.63127136230469
200;1673425881.1863909;47.130642599999995;7.2406196;44.7140007019043;1673425881.2684853;6.631134510040283;26.346132278442383;87.48817443847656
201;1673425881.388861;47.130642599999995;7.2406197;45.11300277709961;1673425881.4851325;6.780702590942383;26.083635330200195;87.54606628417969
202;1673425881.6001964;47.130642699999996;7.2406197;45.5150032043457;1673425881.6755788;6.729319095611572;27.412181854248047;87.63219451904297
203;1673425881.7849097;47.130642699999996;7.2406197;45.9170036315918;1673425881.875727;6.678078651428223;26.61553955078125;87.54561614990234
204;1673425882.0016527;47.130642599999995;7.2406197;46.316001892089844;1673425882.0819566;6.672635555267334;25.890796661376953;87.5543441772461
205;1673425882.196729;47.130642599999995;7.2406196;46.7140007019043;1673425882.279829;6.6730170249938965;27.40636444091797;87.6103515625
206;1673425882.3979068;47.1306425;7.2406196;47.11600112915039;1673425882.4832962;6.581517219543457;26.43968391418457;87.55365753173828
207;1673425882.5971887;47.1306425;7.2406196;47.5150032043457;1673425882.6768572;6.517826557159424;25.970495223999023;87.55377960205078
208;1673425882.7776542;47.1306425;7.2406196;47.915000915527344;1673425882.863325;6.503297805786133;27.271474838256836;87.79192352294922
209;1673425882.9805784;47.1306425;7.2406196;48.285003662109375;1673425883.0641448;6.524524688720703;27.15933609008789;87.67440795898438
210;1673425883.1975725;47.130642599999995;7.2406196;48.60200119018555;1673425883.2838972;6.661642551422119;26.50080680847168;87.58663940429688
211;1673425883.4048011;47.130642699999996;7.2406197;48.87300109863281;1673425883.4848702;6.808652400970459;28.004356384277344;87.65174102783203
212;1673425883.5931044;47.130643;7.240619799999999;49.099002838134766;1673425883.6715462;6.964665412902832;27.468242645263672;87.61328125
213;1673425883.7966383;47.130643299999996;7.2406198999999996;49.27900314331055;1673425883.8806703;10.032344818115234;30.15817642211914;89.47956085205078
214;1673425884.0007186;47.1306435;7.240619799999999;49.43600082397461;1673425884.0844371;20.962217330932617;43.755897521972656;101.6430892944336
215;1673425884.1941574;47.130643;7.2406184;49.58100128173828;1673425884.2683609;21.520668029785156;55.17262268066406;112.51741027832031
216;1673425884.3895416;47.1306413;7.240614399999999;49.70000076293945;1673425884.475533;14.44979190826416;59.70838165283203;121.47352600097656
217;1673425884.6026485;47.1306382;7.2406074;49.76700210571289;1673425884.685301;-1.5901850461959839;50.52123260498047;130.6397705078125
218;1673425884.7960048;47.130634199999996;7.2405982;49.801002502441406;1673425884.8770049;-13.321208953857422;48.611698150634766;139.02847290039062
219;1673425885.0080395;47.1306297;7.2405874;49.820003509521484;1673425885.0954483;-25.350650787353516;45.506961822509766;149.71131896972656
220;1673425885.2024174;47.1306246;7.2405753;49.840003967285156;1673425885.275798;-39.469791412353516;41.6611328125;162.2338409423828
221;1673425885.3945706;47.1306188;7.2405618;49.85900115966797;1673425885.4817352;-49.99909210205078;35.382591247558594;175.60662841796875
222;1673425885.617325;47.1306121;7.2405466999999994;49.85100173950195;1673425885.6966567;-48.422542572021484;23.715171813964844;-174.90281677246094
223;1673425885.8125377;47.1306048;7.2405307;49.81300354003906;1673425885.8961098;-47.08592224121094;19.010828018188477;-170.14324951171875
224;1673425886.014987;47.1305972;7.2405140999999995;49.768001556396484;1673425886.118051;-48.952552795410156;14.80411148071289;-162.8964080810547
225;1673425886.2276585;47.1305893;7.2404971;49.72600173950195;1673425886.312699;-46.51553726196289;8.225632667541504;-154.7564239501953
226;1673425886.425028;47.1305814;7.240479799999999;49.691001892089844;1673425886.5027082;-45.533817291259766;3.2722744941711426;-148.69439697265625
227;1673425886.609105;47.1305735;7.2404623;49.65700149536133;1673425886.6906996;-41.12850570678711;-1.5793670415878296;-153.39926147460938
228;1673425886.8004816;47.1305658;7.2404452;49.59800338745117;1673425886.8800082;-30.030160903930664;1.8672512769699097;-168.91612243652344
229;1673425886.9838734;47.1305584;7.2404296;49.531002044677734;1673425887.061027;-26.461973190307617;4.759331226348877;179.0342254638672
230;1673425887.173549;47.1305518;7.2404157;49.4900016784668;1673425887.2641962;-32.44192123413086;11.583185195922852;168.7733612060547
231;1673425887.3849807;47.1305456;7.240403499999999;49.49500274658203;1673425887.4726784;-40.59769821166992;19.270936965942383;158.99612426757812
232;1673425887.591112;47.1305392;7.2403929;49.548004150390625;1673425887.6714218;-42.261314392089844;34.73332595825195;147.80825805664062
233;1673425887.788532;47.1305318;7.2403834;49.60000228881836;1673425887.8776007;-32.87383270263672;40.53173065185547;140.69528198242188
234;1673425887.9947026;47.1305238;7.240374399999999;49.63900375366211;1673425888.0749063;-20.8508358001709;38.51685333251953;131.9189910888672
235;1673425888.1961923;47.1305155;7.2403657;49.678001403808594;1673425888.281184;-15.392754554748535;43.15437316894531;121.05728149414062
236;1673425888.3936973;47.130507099999996;7.2403575;49.72500228881836;1673425888.4717772;-10.33068561553955;43.454673767089844;122.77787780761719
237;1673425888.5878167;47.130498599999996;7.2403493;49.76100158691406;1673425888.6709776;-9.655360221862793;43.22948455810547;127.54426574707031
238;1673425888.8009565;47.130490099999996;7.240340799999999;49.79900360107422;1673425888.8861744;-12.355764389038086;47.17607498168945;129.9834442138672
239;1673425889.0044982;47.130481499999995;7.2403317;49.83500289916992;1673425889.0829804;-14.865195274353027;50.209716796875;132.1975555419922
240;1673425889.2005172;47.130472499999996;7.240321499999999;49.87800216674805;1673425889.2840474;-17.809478759765625;49.183353424072266;134.0658416748047
241;1673425889.4114954;47.1304631;7.2403105;49.91800308227539;1673425889.4969833;-21.0803279876709;50.20344161987305;133.88356018066406
242;1673425889.598187;47.1304534;7.2402988;49.939002990722656;1673425889.6792824;-22.00958251953125;47.75483322143555;134.22267150878906
243;1673425889.8111625;47.130443299999996;7.2402866999999995;49.948001861572266;1673425889.9032068;-21.9660701751709;45.105125427246094;133.5969696044922
244;1673425890.0153933;47.130433;7.240274599999999;49.95600128173828;1673425890.099598;-21.92143440246582;44.36422348022461;131.23365783691406
245;1673425890.2213445;47.1304224;7.2402625;49.961002349853516;1673425890.304518;-21.822511672973633;41.8111686706543;128.19468688964844
246;1673425890.438056;47.130411699999996;7.2402511;49.94400405883789;1673425890.5159874;-16.408586502075195;34.967254638671875;130.95220947265625
247;1673425890.6480913;47.130401299999996;7.2402402;49.89600372314453;1673425890.7316232;-12.813825607299805;22.27471923828125;141.81459045410156
248;1673425890.890406;47.1303917;7.2402299999999995;49.83700180053711;1673425890.9652364;-14.563860893249512;19.032852172851562;155.3070526123047
249;1673425891.0721629;47.1303835;7.2402203;49.80900192260742;1673425891.147006;-29.629365921020508;28.3190860748291;168.04891967773438
250;1673425891.2527063;47.1303761;7.2402105;49.85000228881836;1673425891.3676503;-46.772216796875;36.3037109375;-179.28500366210938
251;1673425891.5353863;47.1303688;7.240198899999999;49.89800262451172;1673425891.602018;-47.77973937988281;23.94550323486328;-162.27444458007812
252;1673425891.7068856;47.1303616;7.2401849;49.927001953125;1673425891.7971916;-45.616336822509766;17.169931411743164;-157.68753051757812
253;1673425891.8825035;47.1303547;7.2401694999999995;49.94600296020508;1673425891.9549992;-47.515220642089844;8.46920394897461;-150.9507598876953
254;1673425892.0608282;47.1303479;7.2401532;49.970001220703125;1673425892.1405838;-48.694297790527344;-2.596082925796509;-151.9791259765625
255;1673425892.2483137;47.1303408;7.2401368999999995;49.97100067138672;1673425892.3339314;-40.713382720947266;1.0687016248703003;-167.93821716308594
256;1673425892.4478178;47.1303334;7.240121599999999;49.954002380371094;1673425892.527145;-36.88690185546875;6.271953105926514;179.42868041992188
257;1673425892.643237;47.1303262;7.2401079;49.94000244140625;1673425892.7125733;-38.310882568359375;12.134114265441895;169.13687133789062
258;1673425892.8233073;47.1303189;7.2400959;49.94200134277344;1673425892.9106143;-38.5916862487793;19.525779724121094;158.3845672607422
259;1673425893.034996;47.130311299999995;7.2400854;49.95900344848633;1673425893.1155944;-40.31003952026367;30.894439697265625;147.8223876953125
260;1673425893.2286887;47.1303033;7.240075999999999;49.97800064086914;1673425893.3098989;-33.522151947021484;36.67546081542969;139.3844757080078
261;1673425893.438542;47.1302947;7.2400673;49.99500274658203;1673425893.5100555;-24.795005798339844;39.096534729003906;130.60382080078125
262;1673425893.637123;47.130285799999996;7.2400594;50.01400375366211;1673425893.7173345;-20.79388427734375;44.694305419921875;121.3853530883789
263;1673425893.8300216;47.1302765;7.2400519999999995;50.031002044677734;1673425893.91176;-16.964603424072266;41.6965217590332;124.10084533691406
264;1673425894.0297644;47.130266999999996;7.240044999999999;50.038002014160156;1673425894.112297;-18.89674186706543;42.29708480834961;127.44932556152344
265;1673425894.2300582;47.1302573;7.240037999999999;50.04600143432617;1673425894.307961;-24.51455307006836;43.80527114868164;130.7281951904297
266;1673425894.4168813;47.130247399999995;7.240031;50.04900360107422;1673425894.4947588;-28.14254379272461;37.72649002075195;143.20875549316406
267;1673425894.6024947;47.1302373;7.2400237999999995;50.05000305175781;1673425894.687493;-39.54667663574219;34.647056579589844;157.35235595703125
268;1673425894.8186686;47.130227;7.2400158999999995;50.06300354003906;1673425894.9051707;-48.33184051513672;24.45003318786621;173.5349884033203
269;1673425895.0240088;47.130216399999995;7.240007299999999;50.05900192260742;1673425895.105568;-45.95797348022461;14.348029136657715;-178.1571044921875
270;1673425895.2419329;47.1302056;7.2399983;50.04500198364258;1673425895.3224874;-45.212100982666016;10.258271217346191;-173.55467224121094
271;1673425895.4469104;47.1301948;7.239989199999999;50.04600143432617;1673425895.571202;-47.23640823364258;6.48515510559082;-166.60018920898438
272;1673425895.6852255;47.1301839;7.2399797999999995;50.05900192260742;1673425895.7889483;-50.476951599121094;5.190922737121582;-160.3877410888672
273;1673425895.8868434;47.130173;7.23997;50.06100082397461;1673425895.9553115;-46.90971374511719;4.245079040527344;-151.582275390625
274;1673425896.051776;47.1301622;7.2399594;50.040000915527344;1673425896.1315444;-39.581199645996094;4.822408676147461;-142.00247192382812
275;1673425896.2638407;47.1301521;7.2399479;50.00400161743164;1673425896.3434715;-35.12150573730469;0.02623635344207287;-132.99639892578125
276;1673425896.4603643;47.1301432;7.239935699999999;49.987003326416016;1673425896.535275;-41.80192947387695;-4.852797031402588;-133.23060607910156
277;1673425896.6511564;47.1301351;7.2399227999999995;50.00400161743164;1673425896.7314913;-50.8477897644043;-8.680102348327637;-135.9920654296875
278;1673425896.840689;47.130126999999995;7.2399089;50.025001525878906;1673425896.9203799;-49.99622344970703;-9.500544548034668;-137.81788635253906
279;1673425897.0323184;47.130118499999995;7.2398945999999995;50.048004150390625;1673425897.1311715;-49.94245910644531;-9.454850196838379;-138.53131103515625
280;1673425897.2658691;47.1301098;7.239879999999999;50.06100082397461;1673425897.3405337;-48.86016082763672;-9.284111976623535;-138.6436004638672
281;1673425897.467512;47.1301008;7.2398653;50.070003509521484;1673425897.5427554;-48.09624099731445;-8.769230842590332;-138.982177734375
282;1673425897.6581566;47.1300916;7.239850499999999;50.07500076293945;1673425897.7343595;-47.8289909362793;-8.31875991821289;-138.98403930664062
283;1673425897.836803;47.1300822;7.239835599999999;50.077003479003906;1673425897.9210317;-46.87718200683594;-8.126202583312988;-138.88442993164062
284;1673425898.041056;47.1300728;7.2398206;50.0780029296875;1673425898.116548;-46.607975006103516;-8.194241523742676;-138.85475158691406
285;1673425898.2373862;47.1300634;7.2398055;50.07600402832031;1673425898.3111174;-47.13314437866211;-8.680380821228027;-138.89036560058594
286;1673425898.4347727;47.1300539;7.2397905;50.07500076293945;1673425898.5234315;-46.81828308105469;-9.049949645996094;-138.9669647216797
287;1673425898.6388018;47.130044399999996;7.2397754999999995;50.077003479003906;1673425898.7199383;-46.79762268066406;-9.294057846069336;-139.08184814453125
288;1673425898.8317988;47.1300348;7.239760599999999;50.082000732421875;1673425898.9133663;-47.485965728759766;-10.221135139465332;-139.04031372070312
289;1673425899.033957;47.130024999999996;7.239745699999999;50.090003967285156;1673425899.1145535;-47.473899841308594;-8.91849136352539;-139.70455932617188
290;1673425899.2313077;47.130015199999995;7.239731;50.09100341796875;1673425899.312867;-45.6932373046875;-7.893507480621338;-139.29336547851562
291;1673425899.447317;47.130005399999995;7.2397162999999995;50.082000732421875;1673425899.5327773;-45.53694534301758;-8.292695045471191;-138.9453125
292;1673425899.6379848;47.1299956;7.2397015;50.079002380371094;1673425899.7225313;-46.17721939086914;-8.816086769104004;-139.02040100097656
293;1673425899.8410566;47.1299859;7.2396869;50.082000732421875;1673425899.9228303;-46.72222900390625;-9.050395011901855;-139.21351623535156
294;1673425900.0365102;47.129976199999994;7.239672199999999;50.0890007019043;1673425900.1203036;-47.29043960571289;-9.183309555053711;-139.3345489501953
295;1673425900.2360091;47.1299664;7.2396576999999995;50.09400177001953;1673425900.3194008;-46.876914978027344;-9.131438255310059;-139.375244140625
296;1673425900.444842;47.1299565;7.2396432;50.09800338745117;1673425900.5316122;-46.669761657714844;-9.10673999786377;-139.4098663330078
297;1673425900.6582868;47.1299467;7.2396287;50.10100173950195;1673425900.7355936;-46.855587005615234;-9.100191116333008;-139.39625549316406
298;1673425900.8516092;47.129936799999996;7.2396142;50.09800338745117;1673425900.9273233;-46.45440673828125;-9.034967422485352;-139.43716430664062
299;1673425901.0393329;47.1299269;7.2395999;50.09600067138672;1673425901.1190612;-46.12028884887695;-8.966727256774902;-139.47802734375
300;1673425901.2261174;47.129917;7.2395856;50.09700393676758;1673425901.308386;-46.739044189453125;-9.046874046325684;-139.43089294433594
301;1673425901.432706;47.129906999999996;7.2395713;50.099002838134766;1673425901.5210133;-46.80924606323242;-8.995674133300781;-139.47947692871094
302;1673425901.6356254;47.1298971;7.2395571;50.10200119018555;1673425901.7125392;-46.49562072753906;-8.950325965881348;-139.4814453125
303;1673425901.8177807;47.1298871;7.2395428;50.10400390625;1673425901.8975434;-46.764862060546875;-8.917638778686523;-139.49244689941406
304;1673425902.0098343;47.129877199999996;7.2395286;50.099002838134766;1673425902.1096213;-46.44437026977539;-8.866598129272461;-139.54689025878906
305;1673425902.2380745;47.1298673;7.2395144;50.09700393676758;1673425902.323707;-46.03740310668945;-8.77860164642334;-139.55032348632812
306;1673425902.4446006;47.1298573;7.239500199999999;50.09600067138672;1673425902.5317109;-46.60063171386719;-8.917015075683594;-139.5139923095703
307;1673425902.6574733;47.129847399999996;7.239485999999999;50.09300231933594;1673425902.7439592;-46.68356704711914;-8.87278938293457;-139.5819854736328
308;1673425902.8559194;47.1298375;7.2394719;50.092002868652344;1673425902.983712;-46.472015380859375;-8.780166625976562;-139.63568115234375
309;1673425903.0790913;47.1298276;7.2394577;50.092002868652344;1673425903.1549883;-46.83003234863281;-8.832655906677246;-139.63890075683594
310;1673425903.285626;47.1298177;7.2394435999999995;50.09300231933594;1673425903.3738441;-46.768035888671875;-8.818231582641602;-139.68679809570312
311;1673425903.485767;47.129807799999995;7.2394294;50.0880012512207;1673425903.564334;-46.328060150146484;-8.746045112609863;-139.74855041503906
312;1673425903.6774576;47.1297979;7.2394153;50.082000732421875;1673425903.7861342;-46.343116760253906;-8.717275619506836;-139.7692413330078
313;1673425903.8944457;47.129788;7.2394012;50.08100128173828;1673425903.9654021;-46.319053649902344;-8.670077323913574;-139.80648803710938
314;1673425904.0741813;47.129778099999996;7.2393871;50.082000732421875;1673425904.1524541;-46.65611267089844;-8.725475311279297;-139.8266143798828
315;1673425904.2685108;47.1297682;7.239373;50.0880012512207;1673425904.3429403;-47.44804000854492;-8.790932655334473;-139.88063049316406
316;1673425904.4470725;47.1297582;7.2393588;50.09100341796875;1673425904.5237398;-47.0933837890625;-8.671791076660156;-139.98329162597656
317;1673425904.6404479;47.129748299999996;7.239344699999999;50.08700180053711;1673425904.7146373;-46.27180480957031;-8.474339485168457;-140.06069946289062
318;1673425904.8316154;47.1297383;7.2393304999999994;50.08400344848633;1673425904.9410903;-46.37889862060547;-8.500324249267578;-140.01824951171875
319;1673425905.0854697;47.1297283;7.2393164;50.082000732421875;1673425905.182319;-46.554588317871094;-8.516498565673828;-140.0615692138672
320;1673425905.293627;47.129718399999994;7.239302299999999;50.082000732421875;1673425905.371136;-46.48655319213867;-8.496825218200684;-140.1426544189453
321;1673425905.481504;47.1297084;7.2392882;50.08500289916992;1673425905.5560803;-47.21167755126953;-8.56896686553955;-140.15663146972656
322;1673425905.6671803;47.129698499999996;7.239274099999999;50.0880012512207;1673425905.7476304;-47.054847717285156;-8.485209465026855;-140.23562622070312
323;1673425905.855568;47.1296885;7.2392598999999995;50.0890007019043;1673425905.9438899;-46.640533447265625;-8.346691131591797;-140.33253479003906
324;1673425906.0618777;47.1296785;7.2392458;50.082000732421875;1673425906.1348538;-46.75243377685547;-8.29631233215332;-140.38845825195312
325;1673425906.2524471;47.1296685;7.2392316999999995;50.07100296020508;1673425906.3556776;-45.95185470581055;-8.147140502929688;-140.4312286376953
326;1673425906.4595158;47.1296585;7.2392176;50.066001892089844;1673425906.5364034;-45.92180252075195;-8.107327461242676;-140.48672485351562
327;1673425906.6411712;47.129648499999995;7.2392034;50.064002990722656;1673425906.7277253;-46.95065689086914;-8.216455459594727;-140.54791259765625
328;1673425906.8404372;47.1296385;7.2391893;50.064002990722656;1673425906.954974;-46.72119140625;-8.104002952575684;-140.6836700439453
329;1673425907.0720499;47.129628499999995;7.2391752;50.064002990722656;1673425907.1468055;-46.615386962890625;-8.059511184692383;-140.73733520507812
330;1673425907.251114;47.1296186;7.2391611;50.06200408935547;1673425907.3307328;-46.98707580566406;-8.019970893859863;-140.76199340820312
331;1673425907.45797;47.1296086;7.239147;50.05800247192383;1673425907.5485563;-46.35793685913086;-7.9105377197265625;-140.8187713623047
332;1673425907.6694477;47.1295986;7.2391328999999995;50.05900192260742;1673425907.7477107;-46.27260971069336;-7.820040225982666;-140.9050750732422
333;1673425907.8643398;47.1295886;7.2391188;50.06500244140625;1673425907.9591959;-47.156009674072266;-7.941452980041504;-141.01376342773438
334;1673425908.066187;47.129578599999995;7.2391048;50.077003479003906;1673425908.1408987;-47.722381591796875;-11.616398811340332;-143.86766052246094
335;1673425908.2549384;47.1295684;7.2390909;50.083003997802734;1673425908.3364952;-45.792198181152344;-5.6664276123046875;-155.78738403320312
336;1673425908.4473844;47.129557999999996;7.2390778;50.08100128173828;1673425908.5309906;-45.1982421875;6.485988616943359;-162.1109619140625
337;1673425908.6517844;47.129547599999995;7.2390652;50.066001892089844;1673425908.73591;-39.86402893066406;3.7729010581970215;-147.96591186523438
338;1673425908.8645701;47.1295377;7.239052399999999;50.0410041809082;1673425908.9552794;-39.679542541503906;-1.5254647731781006;-137.16326904296875
339;1673425909.0602434;47.1295286;7.239039;50.0420036315918;1673425909.1321995;-46.481727600097656;-5.02338981628418;-137.5128936767578
340;1673425909.2628074;47.1295198;7.239025;50.066001892089844;1673425909.3379798;-52.09934616088867;-6.898853302001953;-140.2091064453125
341;1673425909.4595652;47.1295108;7.2390104;50.08700180053711;1673425909.5437155;-50.273868560791016;-11.96655559539795;-142.98472595214844
342;1673425909.647714;47.129501399999995;7.2389958;50.092002868652344;1673425909.723402;-46.433555603027344;-8.061179161071777;-154.11558532714844
343;1673425909.8390954;47.129491599999994;7.2389822;50.07200241088867;1673425909.9230435;-41.941368103027344;-1.9654422998428345;-164.1833038330078
344;1673425910.0487545;47.1294817;7.238969699999999;50.05900192260742;1673425910.1314342;-40.49258804321289;5.190054893493652;-173.2842254638672
345;1673425910.2461276;47.129472;7.2389582;50.05000305175781;1673425910.3275359;-41.084720611572266;12.679972648620605;177.5465850830078
346;1673425910.4432483;47.1294624;7.2389475;50.04900360107422;1673425910.5481796;-43.34843444824219;22.434797286987305;172.8275909423828
347;1673425910.7148664;47.1294526;7.238937;50.06300354003906;1673425910.7928722;-48.41335678100586;26.132850646972656;-173.21600341796875
348;1673425910.9005055;47.1294427;7.2389255;50.06200408935547;1673425910.9742608;-45.161075592041016;16.487712860107422;-157.78363037109375
349;1673425911.067733;47.1294332;7.2389125;50.047000885009766;1673425911.1393409;-42.884971618652344;9.461089134216309;-149.273193359375
350;1673425911.263563;47.1294244;7.2388984;50.02800369262695;1673425911.3508444;-42.69956588745117;1.8586469888687134;-141.30799865722656
351;1673425911.4639292;47.1294161;7.238883599999999;50.022003173828125;1673425911.5847826;-44.66971969604492;-7.030195236206055;-135.67379760742188
352;1673425911.7176182;47.1294081;7.238868399999999;50.03900146484375;1673425911.807883;-51.57561111450195;-15.41904354095459;-139.41134643554688
353;1673425911.8988276;47.1293996;7.2388533;50.04900360107422;1673425911.974704;-46.52685546875;-8.51568603515625;-155.8334503173828
354;1673425912.0824833;47.1293905;7.238839199999999;50.047000885009766;1673425912.1930652;-43.824398040771484;-4.1508307456970215;-165.22621154785156
355;1673425912.311222;47.1293812;7.2388265;50.035003662109375;1673425912.4065654;-40.417442321777344;3.7688496112823486;-175.19210815429688
356;1673425912.514262;47.129371899999995;7.2388153;50.022003173828125;1673425912.5870216;-41.20146179199219;12.185847282409668;175.9416961669922
357;1673425912.696035;47.1293626;7.238804999999999;50.0150032043457;1673425912.7696006;-39.49205017089844;19.531293869018555;166.76025390625
358;1673425912.876724;47.1293533;7.2387954;50.01900100708008;1673425912.9465601;-35.40111541748047;28.621164321899414;157.32762145996094
359;1673425913.0636091;47.129343999999996;7.2387862;50.02300262451172;1673425913.1385436;-33.92151641845703;36.22934341430664;151.5528106689453
360;1673425913.264132;47.1293346;7.238776799999999;50.035003662109375;1673425913.347556;-33.3636474609375;39.76028823852539;165.3897705078125
361;1673425913.501948;47.1293252;7.2387662;50.03900146484375;1673425913.6032586;-37.835784912109375;34.902427673339844;-175.86953735351562
362;1673425913.707697;47.1293163;7.2387536;50.03300094604492;1673425913.8044493;-39.16935348510742;28.787452697753906;-166.09117126464844
363;1673425913.9640687;47.1293084;7.2387391999999995;50.031002044677734;1673425914.0238447;-42.5129280090332;18.224477767944336;-157.5269012451172
364;1673425914.1321914;47.1293011;7.238723299999999;50.035003662109375;1673425914.2103288;-48.44204330444336;3.157240629196167;-149.4569549560547
365;1673425914.3272846;47.1292938;7.2387067;50.0410041809082;1673425914.4031482;-47.30866241455078;-9.954054832458496;-154.9626007080078
366;1673425914.5239017;47.129286;7.2386909;50.0160026550293;1673425914.5958812;-39.23527908325195;-15.277950286865234;-168.3275909423828
367;1673425914.6936603;47.1292781;7.2386775;49.97700119018555;1673425914.7708719;-30.94168472290039;-19.31254005432129;177.9801483154297
368;1673425914.8816237;47.1292707;7.2386678;49.93600082397461;1673425914.95541;-29.215370178222656;-20.577590942382812;168.2181396484375
369;1673425915.080141;47.129264299999996;7.238662499999999;49.89800262451172;1673425915.1834056;-29.608055114746094;-22.445661544799805;160.0788116455078
370;1673425915.2974086;47.129259;7.238661199999999;49.88300323486328;1673425915.3740964;-37.719871520996094;-10.637138366699219;152.31832885742188
371;1673425915.4782605;47.1292547;7.2386634;49.88600158691406;1673425915.5519807;-43.08607864379883;4.184173107147217;141.71502685546875
372;1673425915.75769;47.1292504;7.238668499999999;49.919002532958984;1673425915.8201694;-43.12861251831055;14.739729881286621;149.60894775390625
373;1673425915.9445822;47.1292456;7.2386751;49.97200393676758;1673425916.0112128;-41.721168518066406;5.427358627319336;165.48741149902344
374;1673425916.1120865;47.1292402;7.238682099999999;50.022003173828125;1673425916.18105;-42.299293518066406;0.7188995480537415;175.38575744628906
375;1673425916.286994;47.1292344;7.2386892;50.06200408935547;1673425916.3587828;-39.81375503540039;-3.1375670433044434;-175.08644104003906
376;1673425916.4594543;47.129228399999995;7.238696;50.095001220703125;1673425916.533885;-35.346405029296875;-2.6495249271392822;-166.24549865722656
377;1673425916.6460562;47.129222399999996;7.238702099999999;50.11300277709961;1673425916.7430236;-37.31990432739258;4.172870635986328;-157.29612731933594
378;1673425916.8665054;47.1292167;7.2387067;50.125003814697266;1673425916.9479415;-41.58000183105469;16.947662353515625;-148.93621826171875
379;1673425917.0607822;47.1292116;7.2387084999999995;50.12900161743164;1673425917.1385324;-50.57905197143555;26.90025520324707;-140.64451599121094
380;1673425917.2825341;47.1292076;7.2387057;50.10000228881836;1673425917.3621917;-46.557090759277344;23.263721466064453;-127.50057983398438
381;1673425917.4762664;47.1292052;7.2386987;50.04500198364258;1673425917.5516498;-33.84011459350586;9.374643325805664;-117.12158966064453
382;1673425917.6764572;47.1292045;7.2386889;50.00400161743164;1673425917.7541583;-42.770877838134766;0.21136808395385742;-120.03932189941406
383;1673425917.8719811;47.129204699999995;7.238677;50.00100326538086;1673425917.99689;-49.17909240722656;-14.102884292602539;-122.73094940185547
384;1673425918.1118271;47.1292043;7.2386634;50.02800369262695;1673425918.215143;-45.09599304199219;-16.482952117919922;-131.8477783203125
385;1673425918.3200543;47.129202899999996;7.2386493;50.053001403808594;1673425918.3953087;-38.95503234863281;-24.401763916015625;-136.52569580078125
386;1673425918.5082257;47.129200499999996;7.2386363;50.07500076293945;1673425918.6375244;-36.98465347290039;-28.242525100708008;-139.7348175048828
387;1673425918.7342536;47.129197;7.2386254;50.09600067138672;1673425918.802461;-41.813262939453125;-23.336580276489258;-142.0009765625
388;1673425918.9129245;47.129192599999996;7.2386162999999994;50.11600112915039;1673425918.9887738;-44.116455078125;-17.315410614013672;-144.69668579101562
389;1673425919.1018705;47.1291873;7.2386083;50.13200378417969;1673425919.1913092;-39.38228988647461;-12.146076202392578;-145.09373474121094
390;1673425919.303771;47.1291815;7.2386009;50.13900375366211;1673425919.3863828;-27.168270111083984;-10.355659484863281;-146.46629333496094
391;1673425919.5052118;47.1291759;7.238594099999999;50.13900375366211;1673425919.5811543;-23.048992156982422;-14.769516944885254;-144.27090454101562
392;1673425919.7426221;47.1291709;7.238588399999999;50.13600158691406;1673425919.8318987;-26.136924743652344;-12.908764839172363;-145.78306579589844
393;1673425919.9527507;47.1291665;7.2385836999999995;50.13300323486328;1673425920.0191908;-24.520824432373047;-11.48792552947998;-145.83494567871094
394;1673425920.1435263;47.1291626;7.2385797;50.130001068115234;1673425920.2118108;-23.74346160888672;-10.849493026733398;-145.6485137939453
395;1673425920.355811;47.1291593;7.2385763999999995;50.12200164794922;1673425920.4453585;-24.32516860961914;-9.684226989746094;-145.2494659423828
396;1673425920.5727282;47.1291565;7.238573499999999;50.143001556396484;1673425920.633243;-39.36305236816406;-6.842787265777588;-138.86184692382812
397;1673425920.7206638;47.129153599999995;7.238569999999999;50.24500274658203;1673425920.7944608;-50.05572509765625;-10.874924659729004;-135.0210418701172
398;1673425920.8935878;47.1291498;7.2385646999999995;50.42100143432617;1673425920.9702744;-48.148738861083984;-10.271607398986816;-137.21896362304688
399;1673425921.0859833;47.1291448;7.2385576;50.63200378417969;1673425921.1618598;-26.587114334106445;-2.260976791381836;-138.2832489013672
400;1673425921.2815309;47.1291399;7.2385497;50.8910026550293;1673425921.3582718;-20.415802001953125;-3.858672857284546;-137.76602172851562
401;1673425921.4794161;47.1291358;7.238542;51.2140007019043;1673425921.556679;-39.959068298339844;-13.054230690002441;-136.4656219482422
402;1673425921.6724334;47.129131699999995;7.238534199999999;51.59400177001953;1673425921.7541075;-55.5008659362793;-16.771080017089844;-136.7183074951172
403;1673425921.871231;47.1291264;7.238525699999999;51.93700408935547;1673425921.9605236;-50.42108917236328;-12.217918395996094;-139.53334045410156
404;1673425922.0723698;47.1291197;7.2385163;52.25700378417969;1673425922.1563222;-50.923099517822266;-12.651350975036621;-139.752197265625
405;1673425922.2748735;47.129112;7.2385063;52.55800247192383;1673425922.351242;-47.33908462524414;-11.851500511169434;-139.46075439453125
406;1673425922.4747915;47.129103699999995;7.2384958;52.84300231933594;1673425922.562116;-46.21886444091797;-11.40469741821289;-139.08828735351562
407;1673425922.6872659;47.1290949;7.2384851;53.1150016784668;1673425922.7761743;-47.759765625;-11.50646686553955;-138.3458709716797
408;1673425922.8761542;47.1290859;7.2384739;53.36900329589844;1673425922.9520082;-44.27067947387695;-10.58657169342041;-138.2861328125
409;1673425923.0717447;47.1290765;7.2384623999999995;53.61300277709961;1673425923.1596093;-36.57005310058594;-8.675477027893066;-138.27059936523438
410;1673425923.2879486;47.1290675;7.2384509999999995;53.8640022277832;1673425923.3677077;-31.94950294494629;-6.836978435516357;-138.306640625
411;1673425923.4774876;47.129059;7.2384397;54.14200210571289;1673425923.5585277;-34.55093002319336;-7.928229808807373;-137.6086883544922
412;1673425923.6839051;47.129051;7.2384287;54.44700241088867;1673425923.7602847;-38.84599685668945;-10.534591674804688;-137.5069122314453
413;1673425923.875526;47.1290434;7.238417699999999;54.77800369262695;1673425923.9560325;-45.76218795776367;-13.112630844116211;-137.46568298339844
414;1673425924.082911;47.1290354;7.2384065;55.1150016784668;1673425924.1575205;-48.57124328613281;-13.099187850952148;-137.90660095214844
415;1673425924.2664485;47.1290269;7.2383951;55.44600296020508;1673425924.355975;-44.63753128051758;-11.199713706970215;-138.43577575683594
416;1673425924.4699378;47.129017999999995;7.238383499999999;55.76700210571289;1673425924.5614645;-39.316368103027344;-8.900603294372559;-138.61155700683594
417;1673425924.6876526;47.1290092;7.2383717999999995;56.08400344848633;1673425924.7665462;-35.647865295410156;-9.437024116516113;-137.99575805664062
418;1673425924.8880458;47.1290007;7.2383602;56.41200256347656;1673425924.9659324;-39.94192123413086;-9.41133975982666;-138.27252197265625
419;1673425925.0835478;47.1289924;7.2383488;56.75100326538086;1673425925.1690419;-40.88755416870117;-11.355525970458984;-137.88931274414062
