;pos_time;latitude;longitude;altitude;alt_time;pitch;roll;yaw
0;1673427395.1019042;47.1306424;7.24062;0.015000000596046448;1673427395.1370485;-0.6947904229164124;0.1915173977613449;90.90076446533203
1;1673427395.2803617;47.1306424;7.24062;0.014000000432133675;1673427395.3219194;-0.5960189700126648;0.1656935214996338;90.9979019165039
2;1673427395.4825525;47.1306424;7.24062;0.01100000087171793;1673427395.52453;-0.44075286388397217;-0.016553733497858047;91.14813995361328
3;1673427395.6887689;47.1306424;7.24062;0.01100000087171793;1673427395.7317216;-0.3858301341533661;0.36990585923194885;91.1672134399414
4;1673427395.8862433;47.1306423;7.24062;0.01100000087171793;1673427395.9360216;-0.5129594802856445;0.3467084467411041;91.0296859741211
5;1673427396.0915573;47.1306423;7.24062;0.007000000216066837;1673427396.1355608;-0.12491341680288315;0.2613653242588043;90.97460174560547
6;1673427396.2946243;47.1306423;7.240619799999999;0.003000000026077032;1673427396.332831;-0.489496111869812;0.46244001388549805;90.95281219482422
7;1673427396.4819813;47.1306424;7.2406197;-0.0010000000474974513;1673427396.5254974;-0.3299514353275299;0.19016943871974945;91.1377944946289
8;1673427396.6870182;47.1306424;7.2406196;-0.007000000216066837;1673427396.7309248;-0.47884926199913025;0.33866700530052185;91.13095092773438
9;1673427396.892014;47.1306423;7.240619499999999;-0.01100000087171793;1673427396.9312065;-0.5478577613830566;0.3620578348636627;90.94805145263672
10;1673427397.08353;47.1306423;7.240619499999999;-0.01100000087171793;1673427397.1228042;-0.7477549314498901;0.23713727295398712;91.12622833251953
11;1673427397.2814057;47.1306424;7.2406196;-0.010000000707805157;1673427397.3234153;-0.6334884762763977;0.40769368410110474;90.96293640136719
12;1673427397.489376;47.1306424;7.2406196;-0.00800000037997961;1673427397.5315073;-0.5080657601356506;0.16846977174282074;91.21660614013672
13;1673427397.7006834;47.1306424;7.2406196;-0.009000000543892384;1673427397.74499;-0.3278733193874359;0.3321770131587982;91.18306732177734
14;1673427397.8853517;47.1306424;7.2406196;0.0010000000474974513;1673427397.931257;-0.4256042242050171;-1.2540439367294312;91.2683334350586
15;1673427398.0886867;47.1306424;7.2406196;0.0020000000949949026;1673427398.1316655;-0.3103793263435364;-0.761027991771698;90.97504425048828
16;1673427398.2899566;47.1306424;7.2406196;0.003000000026077032;1673427398.3321133;-0.5505055785179138;-0.7608250379562378;91.20222473144531
17;1673427398.4843504;47.1306424;7.2406196;0.004000000189989805;1673427398.5278313;-0.628028154373169;-0.7897343039512634;91.02084350585938
18;1673427398.6741633;47.1306424;7.2406196;0.004000000189989805;1673427398.713725;-0.37776613235473633;-0.7964197993278503;91.07066345214844
19;1673427398.883661;47.1306424;7.2406196;0.0020000000949949026;1673427398.927955;-0.49248725175857544;-1.043153166770935;90.90625762939453
20;1673427399.1097822;47.1306424;7.2406196;0.0020000000949949026;1673427399.1513557;-0.5835047960281372;-1.8358744382858276;90.8260269165039
21;1673427399.3069265;47.1306425;7.2406196;0.0010000000474974513;1673427399.3432004;-0.15025418996810913;-1.419167160987854;90.74832916259766
22;1673427399.505101;47.1306425;7.2406196;0.0;1673427399.542189;-0.4452334940433502;-1.0253708362579346;90.5172348022461
23;1673427399.69576;47.130642599999995;7.2406196;0.0;1673427399.7392442;-0.4973476231098175;0.2272135466337204;89.90925598144531
24;1673427399.8961506;47.130642599999995;7.2406197;0.003000000026077032;1673427399.9393716;0.14946582913398743;-0.456706702709198;89.7725601196289
25;1673427400.084541;47.130642599999995;7.2406197;0.00800000037997961;1673427400.1236124;-0.011343343183398247;-1.0013186931610107;88.9907455444336
26;1673427400.2832456;47.1306428;7.2406196;0.009000000543892384;1673427400.3259096;0.02988821268081665;-1.021999478340149;87.71881866455078
27;1673427400.47925;47.130643;7.240619499999999;0.012000000104308128;1673427400.5204208;0.6008824706077576;-0.5767695903778076;84.99836730957031
28;1673427400.6773582;47.130643299999996;7.2406194;0.01100000087171793;1673427400.7195215;0.09636888653039932;-0.31948089599609375;79.51438903808594
29;1673427400.8708224;47.130644;7.240619;-0.007000000216066837;1673427400.9133058;0.3991796374320984;-0.030536983162164688;69.42704010009766
30;1673427401.0786006;47.130645;7.2406184;-0.021000001579523087;1673427401.1250212;0.12536963820457458;-0.27979353070259094;53.67280197143555
31;1673427401.281826;47.1306466;7.2406174;-0.02200000174343586;1673427401.3275945;1.5127990245819092;0.9328266382217407;36.826316833496094
32;1673427401.484498;47.1306489;7.240615399999999;-0.023000001907348633;1673427401.5270057;3.87469744682312;3.97078275680542;30.633573532104492
33;1673427401.6819751;47.130651799999995;7.2406128;-0.01600000075995922;1673427401.719422;5.549082279205322;7.773838996887207;30.258638381958008
34;1673427401.881145;47.1306553;7.240609399999999;-0.0020000000949949026;1673427401.9238517;5.700240135192871;11.506010055541992;33.768798828125
35;1673427402.0775785;47.1306592;7.2406054;0.012000000104308128;1673427402.118147;5.780401229858398;15.240389823913574;37.351844787597656
36;1673427402.281572;47.1306632;7.240601;0.029000001028180122;1673427402.327024;5.633569240570068;17.321455001831055;40.19683074951172
37;1673427402.4749017;47.1306673;7.240596399999999;0.04500000178813934;1673427402.515618;5.152927398681641;19.561321258544922;42.46376037597656
38;1673427402.674895;47.1306714;7.2405918;0.0650000050663948;1673427402.7188714;4.779631614685059;21.780460357666016;44.3117561340332
39;1673427402.889132;47.1306753;7.2405873;0.0860000029206276;1673427402.9345615;4.368886947631836;23.881832122802734;45.875770568847656
40;1673427403.0807226;47.130679;7.240583099999999;0.11100000888109207;1673427403.1213884;4.039999485015869;25.838157653808594;47.075111389160156
41;1673427403.2920883;47.1306824;7.2405791;0.13500000536441803;1673427403.3273861;3.8159141540527344;28.127134323120117;47.98666763305664
42;1673427403.4804862;47.1306855;7.2405756;0.164000004529953;1673427403.5244377;3.56827449798584;30.105012893676758;48.71439743041992
43;1673427403.6803675;47.130688199999994;7.2405725;0.1990000158548355;1673427403.7278872;3.4106392860412598;32.17444610595703;49.302913665771484
44;1673427403.884274;47.1306904;7.24057;0.23400001227855682;1673427403.9346473;3.269209623336792;34.11125564575195;49.73478698730469
45;1673427404.0740194;47.1306921;7.2405681;0.2710000276565552;1673427404.1231909;3.333127498626709;36.40080642700195;50.09635543823242
46;1673427404.28318;47.130693199999996;7.2405669999999995;0.3140000104904175;1673427404.3290896;3.432164430618286;38.47902297973633;50.34937286376953
47;1673427404.4922564;47.1306936;7.240566599999999;0.36000001430511475;1673427404.535289;3.6490941047668457;40.523048400878906;50.59384536743164
48;1673427404.681277;47.1306933;7.2405669999999995;0.4050000309944153;1673427404.7250035;3.8090763092041016;42.618412017822266;50.66008377075195
49;1673427404.8977547;47.1306922;7.2405683;0.453000009059906;1673427404.9388063;4.100148677825928;44.75056457519531;50.73612976074219
50;1673427405.090856;47.1306903;7.240570399999999;0.5010000467300415;1673427405.1304443;4.517262935638428;46.79007339477539;50.67692947387695
51;1673427405.275441;47.1306874;7.240573599999999;0.5570000410079956;1673427405.3140497;5.265021324157715;48.93606185913086;50.556304931640625
52;1673427405.4728708;47.1306836;7.240577699999999;0.6170000433921814;1673427405.5144143;5.958871364593506;49.38195037841797;50.24696731567383
53;1673427405.6750326;47.1306789;7.240582799999999;0.6690000295639038;1673427405.717573;5.691222667694092;44.86964797973633;49.848724365234375
54;1673427405.8679593;47.130673699999996;7.2405881999999995;0.7150000333786011;1673427405.9085197;5.092169284820557;39.12242126464844;49.313663482666016
55;1673427406.0642524;47.130668299999996;7.2405938999999995;0.7540000081062317;1673427406.1087115;4.551644325256348;33.1131706237793;48.789581298828125
56;1673427406.2635179;47.1306631;7.2405992999999995;0.784000039100647;1673427406.3119733;3.860217809677124;27.37520408630371;48.49714660644531
57;1673427406.4855034;47.130658499999996;7.2406041;0.8090000152587891;1673427406.5304296;3.0847294330596924;22.613834381103516;48.347007751464844
58;1673427406.685639;47.1306545;7.240608099999999;0.8240000605583191;1673427406.7268736;2.590038299560547;19.668079376220703;48.36865234375
59;1673427406.8913682;47.1306514;7.2406112;0.8410000205039978;1673427406.936172;2.46293044090271;19.06356430053711;48.531715393066406
60;1673427407.103091;47.1306491;7.240613499999999;0.8630000352859497;1673427407.142128;2.321661949157715;19.346227645874023;48.7015495300293
61;1673427407.2895916;47.130647599999996;7.2406147999999995;0.893000066280365;1673427407.3321052;2.2776429653167725;21.305343627929688;49.009368896484375
62;1673427407.4986985;47.1306467;7.2406156;0.9350000619888306;1673427407.5392554;2.6269683837890625;24.79181480407715;49.219181060791016
63;1673427407.6959774;47.1306461;7.2406159;0.987000048160553;1673427407.7405958;2.5831525325775146;25.404647827148438;49.23508834838867
64;1673427407.899566;47.130645799999996;7.240615999999999;1.0509999990463257;1673427407.9411;2.2378339767456055;26.8375186920166;49.15729904174805
65;1673427408.0972188;47.1306456;7.240615999999999;1.127000093460083;1673427408.1427882;2.361616611480713;29.895923614501953;49.19438171386719
66;1673427408.29193;47.1306455;7.240615999999999;1.2100000381469727;1673427408.332484;2.74361252784729;29.86595344543457;49.200740814208984
67;1673427408.4938495;47.1306453;7.2406162;1.308000087738037;1673427408.5309837;2.7663986682891846;29.218656539916992;49.16695785522461
68;1673427408.6897733;47.130645;7.2406165;1.4180001020431519;1673427408.7362065;2.91351056098938;30.216041564941406;49.170616149902344
69;1673427408.8956804;47.1306447;7.2406169;1.5390000343322754;1673427408.9427404;3.085881233215332;29.85311508178711;49.272823333740234
70;1673427409.1023407;47.1306444;7.2406172;1.6740000247955322;1673427409.1497233;2.279078722000122;28.31023597717285;50.86172103881836
71;1673427409.3039525;47.130644;7.2406177;1.8220001459121704;1673427409.344002;2.5461785793304443;28.865842819213867;51.008941650390625
72;1673427409.4803553;47.1306436;7.2406182;1.9820001125335693;1673427409.5278478;2.933997869491577;28.38486099243164;51.0887565612793
73;1673427409.68285;47.130643299999996;7.2406187;2.1590001583099365;1673427409.721018;2.6999669075012207;26.86524200439453;51.122154235839844
74;1673427409.8969111;47.130643;7.240619;2.3420000076293945;1673427409.9434354;2.76870059967041;27.52092742919922;51.10997772216797
75;1673427410.0885673;47.130642699999996;7.2406193;2.5240001678466797;1673427410.1320655;2.9405436515808105;27.516775131225586;51.182865142822266
76;1673427410.28724;47.1306425;7.240619499999999;2.7080001831054688;1673427410.3274624;2.596942186355591;26.339176177978516;51.09128189086914
77;1673427410.4842968;47.1306424;7.2406196;2.8930001258850098;1673427410.5279248;2.484140157699585;27.23967742919922;51.11730194091797
78;1673427410.687926;47.1306423;7.2406197;3.078000068664551;1673427410.7374036;2.8066351413726807;27.875022888183594;51.01549530029297
79;1673427410.8897834;47.1306423;7.2406197;3.265000104904175;1673427410.9321172;2.486687421798706;26.612504959106445;50.99651336669922
80;1673427411.0886612;47.1306423;7.2406196;3.453000068664551;1673427411.1301916;2.1798744201660156;27.627737045288086;51.114990234375
81;1673427411.2906377;47.1306423;7.2406196;3.6430001258850098;1673427411.331218;2.351928234100342;28.640268325805664;51.228633880615234
82;1673427411.4948823;47.1306423;7.240619499999999;3.8330001831054688;1673427411.5351682;2.4638988971710205;27.423847198486328;51.20560836791992
83;1673427411.6952279;47.1306424;7.2406196;4.021000385284424;1673427411.7357655;2.4106717109680176;27.886856079101562;51.17747497558594
84;1673427411.8907042;47.1306424;7.2406196;4.208000183105469;1673427411.9357927;2.757303237915039;28.869993209838867;51.09397888183594
85;1673427412.100168;47.1306424;7.2406197;4.392000198364258;1673427412.145605;2.9105381965637207;27.4832706451416;50.983978271484375
86;1673427412.312732;47.1306425;7.2406197;4.577000141143799;1673427412.359743;2.6373236179351807;27.68625831604004;51.01768112182617
87;1673427412.5170243;47.1306425;7.2406197;4.764000415802002;1673427412.5629113;2.900836944580078;28.795310974121094;51.09037399291992
88;1673427412.7122915;47.130642599999995;7.240619799999999;4.951000213623047;1673427412.7548091;2.935229778289795;27.831600189208984;51.148826599121094
89;1673427412.912863;47.130642599999995;7.2406197;5.138000011444092;1673427412.954869;2.530006170272827;27.477928161621094;51.11909866333008
90;1673427413.0992234;47.130642599999995;7.240619799999999;5.327000141143799;1673427413.1398532;2.793950080871582;28.70745086669922;51.10508728027344
91;1673427413.3064008;47.130642599999995;7.240619799999999;5.517000198364258;1673427413.346307;3.0787906646728516;27.7249755859375;51.02827835083008
92;1673427413.5045128;47.130642599999995;7.240619799999999;5.704000473022461;1673427413.5446408;2.753965377807617;27.328203201293945;51.02494430541992
93;1673427413.7090533;47.130642599999995;7.240619799999999;5.89300012588501;1673427413.7551465;2.741698741912842;28.74432373046875;51.06085968017578
94;1673427413.893228;47.130642599999995;7.240619799999999;6.083000183105469;1673427413.9317071;2.8252742290496826;28.02289390563965;51.146141052246094
95;1673427414.1282196;47.130642599999995;7.240619799999999;6.271000385284424;1673427414.173237;2.617257595062256;27.563961029052734;51.1007080078125
96;1673427414.3586154;47.130642599999995;7.240619799999999;6.462000370025635;1673427414.3990648;2.7413277626037598;28.67702865600586;51.11445999145508
97;1673427414.5755877;47.1306425;7.240619799999999;6.65500020980835;1673427414.612669;3.0072824954986572;28.155288696289062;51.09367370605469
98;1673427414.7516649;47.1306425;7.240619799999999;6.850000381469727;1673427414.7889495;2.592193841934204;27.019506454467773;51.09367752075195
99;1673427414.9249315;47.1306425;7.240619799999999;7.0460004806518555;1673427414.9644072;2.74206280708313;28.49580955505371;51.16392135620117
100;1673427415.1055508;47.1306425;7.240619799999999;7.240000247955322;1673427415.1426702;2.8376007080078125;28.146995544433594;51.13749313354492
101;1673427415.293526;47.1306425;7.240619799999999;7.435000419616699;1673427415.3362463;2.686300039291382;27.353595733642578;51.10519027709961
102;1673427415.5088146;47.1306424;7.240619799999999;7.629000186920166;1673427415.5488694;2.5183706283569336;28.262800216674805;51.175437927246094
103;1673427415.7096696;47.1306423;7.240619799999999;7.823000431060791;1673427415.750944;2.837590456008911;28.261301040649414;51.039161682128906
104;1673427415.9090123;47.1306423;7.240619799999999;8.018000602722168;1673427415.9555638;2.5424773693084717;27.00247573852539;51.04788589477539
105;1673427416.1443107;47.1306423;7.240619799999999;8.214000701904297;1673427416.1843262;2.3244802951812744;28.127817153930664;51.0352783203125
106;1673427416.3259726;47.1306423;7.240619799999999;8.409000396728516;1673427416.3643596;2.754218339920044;28.36612319946289;51.13112258911133
107;1673427416.5122797;47.1306423;7.240619799999999;8.608000755310059;1673427416.5565553;2.533567190170288;27.21662712097168;51.114479064941406
108;1673427416.713594;47.1306423;7.240619799999999;8.812000274658203;1673427416.7532585;2.5286548137664795;28.063928604125977;51.10099792480469
109;1673427416.9168596;47.1306423;7.240619799999999;9.01400089263916;1673427416.959834;2.8543460369110107;28.31109046936035;51.0662727355957
110;1673427417.1237507;47.1306423;7.240619799999999;9.217000007629395;1673427417.1686826;2.765211582183838;27.125144958496094;51.12773513793945
111;1673427417.3205214;47.1306423;7.240619799999999;9.421000480651855;1673427417.3582065;2.6348586082458496;28.12241554260254;51.188873291015625
112;1673427417.5018857;47.1306423;7.240619799999999;9.624000549316406;1673427417.5430405;2.8143677711486816;28.540597915649414;51.146549224853516
113;1673427417.692511;47.1306423;7.240619799999999;9.825000762939453;1673427417.742948;2.5647239685058594;27.073932647705078;51.06306457519531
114;1673427417.90241;47.1306423;7.240619799999999;10.030000686645508;1673427417.948871;2.6620309352874756;27.94873809814453;51.04768753051758
115;1673427418.1082468;47.1306423;7.240619799999999;10.258000373840332;1673427418.1512556;2.9520480632781982;26.604257583618164;50.76385498046875
116;1673427418.2977276;47.1306422;7.24062;10.601000785827637;1673427418.3388784;3.116795539855957;27.80518341064453;50.95616149902344
117;1673427418.4874015;47.130641999999995;7.2406201999999995;10.996000289916992;1673427418.5309877;2.6230854988098145;28.082883834838867;51.11249542236328
118;1673427418.6819944;47.1306418;7.2406204;11.4010009765625;1673427418.7224402;2.8232791423797607;27.275623321533203;51.240882873535156
119;1673427418.8950408;47.130641499999996;7.2406206;11.800000190734863;1673427418.9365788;2.591829776763916;26.267080307006836;51.23719024658203
120;1673427419.0959098;47.1306413;7.2406207;12.196001052856445;1673427419.136447;2.276334047317505;25.463653564453125;51.139503479003906
121;1673427419.294239;47.1306412;7.2406207;12.594000816345215;1673427419.3403277;2.232217788696289;26.29911994934082;51.152191162109375
122;1673427419.49851;47.1306411;7.2406207;12.99000072479248;1673427419.54479;2.34281325340271;25.761640548706055;51.195858001708984
123;1673427419.6984425;47.1306412;7.2406204999999995;13.382000923156738;1673427419.739994;2.009573459625244;25.894428253173828;51.1292724609375
124;1673427419.9019637;47.130641399999995;7.2406203;13.771000862121582;1673427419.9440658;2.327730894088745;27.342355728149414;51.213104248046875
125;1673427420.1448154;47.130641499999996;7.2406201;14.156001091003418;1673427420.2200017;2.4664084911346436;26.909400939941406;51.14282989501953
126;1673427420.3552556;47.1306417;7.24062;14.534000396728516;1673427420.3894095;2.4595892429351807;26.760011672973633;51.11542892456055
127;1673427420.5249195;47.1306418;7.2406198999999996;14.917000770568848;1673427420.5640352;2.588376998901367;28.146448135375977;51.14020919799805
128;1673427420.7131748;47.130641999999995;7.240619799999999;15.302000999450684;1673427420.7588575;2.7302896976470947;27.560632705688477;51.140892028808594
129;1673427420.9215698;47.130641999999995;7.2406197;15.687000274658203;1673427420.9607978;2.496674060821533;27.07379150390625;51.08772277832031
130;1673427421.1222556;47.130642099999996;7.2406196;16.077001571655273;1673427421.1637814;2.6507112979888916;28.339262008666992;51.105979919433594
131;1673427421.3611097;47.130642099999996;7.2406196;16.4689998626709;1673427421.399172;2.603968381881714;27.39702606201172;51.07441329956055
132;1673427421.5764465;47.130641999999995;7.2406196;16.854000091552734;1673427421.612778;2.4886045455932617;26.72060775756836;51.1656494140625
133;1673427421.7419019;47.130641999999995;7.2406197;17.2450008392334;1673427421.7766378;2.5062644481658936;27.9062442779541;51.146759033203125
134;1673427421.9265091;47.130641999999995;7.2406197;17.637001037597656;1673427421.9685025;2.750431537628174;26.938940048217773;51.130897521972656
135;1673427422.115815;47.130641999999995;7.2406197;18.030000686645508;1673427422.1564004;2.285740613937378;26.63895606994629;51.08009719848633
136;1673427422.3121772;47.130641999999995;7.240619799999999;18.416000366210938;1673427422.35963;2.6698248386383057;27.59568977355957;51.06688690185547
137;1673427422.5002117;47.130642099999996;7.240619799999999;18.804000854492188;1673427422.5464454;2.96043062210083;26.917184829711914;51.079139709472656
138;1673427422.6971307;47.130642099999996;7.240619799999999;19.19500160217285;1673427422.7365174;2.4516332149505615;26.499807357788086;51.1118049621582
139;1673427422.8827004;47.130642099999996;7.240619799999999;19.582000732421875;1673427422.9311657;2.6955583095550537;27.730676651000977;51.13982009887695
140;1673427423.0970433;47.130642099999996;7.240619799999999;19.97300148010254;1673427423.143958;2.6717426776885986;27.17374610900879;51.09294128417969
141;1673427423.2890618;47.130642099999996;7.2406197;20.365001678466797;1673427423.3356304;2.40686297416687;26.633270263671875;51.11050033569336
142;1673427423.510673;47.130642099999996;7.2406197;20.75400161743164;1673427423.551463;2.4855449199676514;27.956417083740234;51.115821838378906
143;1673427423.721763;47.130642099999996;7.2406197;21.1460018157959;1673427423.76678;2.5075461864471436;27.214027404785156;51.0615348815918
144;1673427423.9197648;47.130642099999996;7.2406197;21.540000915527344;1673427423.9598262;2.2737996578216553;26.653514862060547;51.10292434692383
145;1673427424.1151876;47.130642099999996;7.2406197;21.931001663208008;1673427424.153316;2.446235179901123;27.567283630371094;51.17534255981445
146;1673427424.3220787;47.130642099999996;7.2406197;22.32400131225586;1673427424.359717;2.6557230949401855;27.31047821044922;51.20027160644531
147;1673427424.5133343;47.130642099999996;7.2406197;22.718000411987305;1673427424.5551226;2.387913942337036;26.692800521850586;51.100154876708984
148;1673427424.71171;47.130642099999996;7.2406197;23.11400032043457;1673427424.7652092;2.574650526046753;27.694583892822266;51.146705627441406
149;1673427424.9321566;47.130642099999996;7.240619799999999;23.512001037597656;1673427424.9744012;2.5997002124786377;27.216196060180664;51.10759735107422
150;1673427425.1160762;47.130642099999996;7.240619799999999;23.908000946044922;1673427425.16151;2.627662181854248;26.507688522338867;51.11994552612305
151;1673427425.3215325;47.130642099999996;7.240619799999999;24.309001922607422;1673427425.3679392;2.6697802543640137;27.744842529296875;51.102020263671875
152;1673427425.5364866;47.130642099999996;7.2406198999999996;24.703001022338867;1673427425.5904057;2.7987804412841797;26.808944702148438;51.1139030456543
153;1673427425.7749894;47.130642099999996;7.2406198999999996;25.099000930786133;1673427425.812078;2.5842559337615967;26.399307250976562;51.03982162475586
154;1673427425.9500089;47.130642099999996;7.2406198999999996;25.4950008392334;1673427425.9853125;2.555556297302246;27.669219970703125;51.083282470703125
155;1673427426.138905;47.130642099999996;7.2406198999999996;25.89200210571289;1673427426.176026;2.7120680809020996;26.814144134521484;51.14568328857422
156;1673427426.3233001;47.1306422;7.240619799999999;26.28900146484375;1673427426.3672514;2.440227508544922;26.69980239868164;51.08974075317383
157;1673427426.5271592;47.1306422;7.240619799999999;26.687002182006836;1673427426.5683062;2.438786745071411;28.030935287475586;51.07136154174805
158;1673427426.7101102;47.1306422;7.240619799999999;27.078001022338867;1673427426.751307;2.6981139183044434;26.86794662475586;51.08815383911133
159;1673427426.9050043;47.1306422;7.240619799999999;27.47300148010254;1673427426.9470503;2.360020160675049;26.804033279418945;51.07997512817383
160;1673427427.1119752;47.1306422;7.240619799999999;27.86800193786621;1673427427.1559029;2.5889735221862793;27.725162506103516;51.08509063720703
161;1673427427.3169158;47.1306423;7.240619799999999;28.261001586914062;1673427427.3630512;2.6525096893310547;26.87183952331543;51.1302604675293
162;1673427427.5250034;47.1306423;7.2406197;28.658000946044922;1673427427.5792367;2.484675884246826;26.82938575744629;51.08842086791992
163;1673427427.7280588;47.1306423;7.240619799999999;29.054000854492188;1673427427.769253;2.66978120803833;27.870349884033203;51.06188201904297
164;1673427427.9368496;47.1306423;7.2406197;29.44700050354004;1673427427.9759214;2.689748764038086;27.021696090698242;51.09067153930664
165;1673427428.1161542;47.1306423;7.240619799999999;29.836002349853516;1673427428.155743;2.535398483276367;26.647001266479492;51.153892517089844
166;1673427428.314414;47.1306423;7.240619799999999;30.23200225830078;1673427428.3531852;2.669793128967285;27.6398983001709;51.149898529052734
167;1673427428.5054812;47.1306423;7.240619799999999;30.631000518798828;1673427428.5482264;2.7927396297454834;27.0577449798584;51.09919357299805
168;1673427428.6992273;47.1306423;7.2406197;31.032001495361328;1673427428.741778;2.3880727291107178;26.722551345825195;51.05611038208008
169;1673427428.896367;47.1306423;7.2406197;31.4320011138916;1673427428.940402;2.5759880542755127;27.904491424560547;51.16399383544922
170;1673427429.1088572;47.1306423;7.2406197;31.83100128173828;1673427429.1494312;2.712906837463379;27.030818939208984;51.119354248046875
171;1673427429.3084698;47.1306422;7.2406197;32.224002838134766;1673427429.3552601;2.5173118114471436;26.468795776367188;51.08468246459961
172;1673427429.502303;47.1306422;7.240619799999999;32.62000274658203;1673427429.5430987;2.6042401790618896;27.616838455200195;51.153316497802734
173;1673427429.6997974;47.1306423;7.240619799999999;33.01700210571289;1673427429.7517934;2.7943825721740723;27.00872230529785;51.16210174560547
174;1673427429.9238799;47.1306423;7.2406197;33.41699981689453;1673427429.9742186;2.614656686782837;26.780933380126953;51.05574035644531
175;1673427430.1517665;47.1306423;7.2406197;33.814002990722656;1673427430.1966624;2.6813087463378906;27.794986724853516;51.107784271240234
176;1673427430.3513277;47.1306423;7.2406197;34.21200180053711;1673427430.3904483;2.7077417373657227;27.10155487060547;51.15601348876953
177;1673427430.5586855;47.1306423;7.2406196;34.60900115966797;1673427430.5947978;2.547119617462158;26.690683364868164;51.12578201293945
178;1673427430.7414498;47.1306423;7.2406196;35.00200271606445;1673427430.776668;2.601548910140991;27.738969802856445;51.10314178466797
179;1673427430.9239302;47.1306423;7.2406196;35.400001525878906;1673427430.9626334;2.7763688564300537;27.32942771911621;51.18791198730469
180;1673427431.1116626;47.1306423;7.2406196;35.801002502441406;1673427431.1522322;2.3657572269439697;26.70950698852539;51.031375885009766
181;1673427431.3238726;47.1306422;7.2406196;36.204002380371094;1673427431.3674493;2.576122283935547;27.64456558227539;50.996337890625
182;1673427431.5333753;47.1306422;7.2406196;36.604000091552734;1673427431.5859594;2.5658352375030518;27.33951187133789;51.147911071777344
183;1673427431.7361267;47.1306422;7.240619499999999;37.0;1673427431.7828834;2.3700246810913086;26.343814849853516;51.02803421020508
184;1673427431.941821;47.1306422;7.240619499999999;37.3900032043457;1673427431.9786103;2.548022747039795;27.574003219604492;51.143741607666016
185;1673427432.1286871;47.1306423;7.240619499999999;37.78300094604492;1673427432.1641004;2.7643516063690186;27.178117752075195;51.112213134765625
186;1673427432.317842;47.1306423;7.240619499999999;38.178001403808594;1673427432.3652732;2.432307481765747;26.703981399536133;51.01085662841797
187;1673427432.5426838;47.1306423;7.2406194;38.579002380371094;1673427432.5803993;2.582136392593384;27.833415985107422;51.141944885253906
188;1673427432.7277079;47.1306422;7.2406194;38.98400115966797;1673427432.7714233;2.660773515701294;26.944175720214844;51.10297393798828
189;1673427432.943467;47.1306422;7.2406194;39.38800048828125;1673427432.9869547;2.4491302967071533;26.650421142578125;51.12154006958008
190;1673427433.1281111;47.1306422;7.2406194;39.78700256347656;1673427433.1622558;2.395585775375366;27.758127212524414;51.18403625488281
191;1673427433.3278852;47.1306422;7.2406194;40.17900085449219;1673427433.3759215;2.628180980682373;27.017282485961914;51.123538970947266
192;1673427433.5586593;47.1306422;7.2406194;40.57200241088867;1673427433.6026309;2.407755136489868;26.769617080688477;51.1409797668457
193;1673427433.7558968;47.1306422;7.2406194;40.967002868652344;1673427433.7989714;2.6249616146087646;27.632720947265625;51.11466598510742
194;1673427433.9420881;47.130642099999996;7.2406194;41.361000061035156;1673427433.988518;2.5841379165649414;26.876638412475586;51.13910675048828
195;1673427434.1553133;47.130642099999996;7.2406194;41.75600051879883;1673427434.2001874;2.4257311820983887;26.619123458862305;51.13167190551758
196;1673427434.3526735;47.130642099999996;7.2406194;42.152000427246094;1673427434.397826;2.5748727321624756;27.646198272705078;51.08564376831055
197;1673427434.5514398;47.130642099999996;7.240619499999999;42.5420036315918;1673427434.5963695;2.6916284561157227;26.962697982788086;51.0859260559082
198;1673427434.7464752;47.1306422;7.240619499999999;42.9370002746582;1673427434.7885687;2.584153175354004;26.601364135742188;51.0679817199707
199;1673427434.9434922;47.1306422;7.2406194;43.336002349853516;1673427434.9866862;2.6600658893585205;27.683433532714844;51.09881591796875
200;1673427435.1474726;47.1306422;7.2406194;43.73600387573242;1673427435.1911688;2.6888926029205322;27.09225082397461;51.06699752807617
201;1673427435.3437066;47.1306422;7.2406194;44.134002685546875;1673427435.3972366;2.478726387023926;26.725160598754883;51.05242919921875
202;1673427435.5622184;47.1306422;7.2406194;44.52900314331055;1673427435.6022165;2.652583122253418;27.773544311523438;51.133846282958984
203;1673427435.7566822;47.1306422;7.2406194;44.919002532958984;1673427435.7938023;2.75234055519104;27.112842559814453;51.09170913696289
204;1673427435.9834063;47.1306422;7.240619499999999;45.307003021240234;1673427436.0197008;2.393810272216797;26.497425079345703;51.041934967041016
205;1673427436.1521957;47.130642099999996;7.240619499999999;45.698001861572266;1673427436.1882994;2.7727932929992676;27.574289321899414;51.103214263916016
206;1673427436.3361342;47.130642099999996;7.240619499999999;46.09100341796875;1673427436.3815687;2.6059529781341553;27.095781326293945;51.145503997802734
207;1673427436.5291111;47.1306422;7.2406194;46.48600387573242;1673427436.565326;2.4055187702178955;26.654714584350586;51.15040969848633
208;1673427436.7129247;47.1306422;7.2406194;46.884002685546875;1673427436.7599032;2.526545763015747;27.956815719604492;51.12657165527344
209;1673427436.928607;47.130642099999996;7.240619499999999;47.28000259399414;1673427436.9735959;2.7784032821655273;27.114505767822266;51.12398910522461
210;1673427437.144574;47.130642099999996;7.240619499999999;47.673004150390625;1673427437.208144;2.461487054824829;26.56239891052246;51.087989807128906
211;1673427437.3593588;47.130642099999996;7.240619499999999;48.06100082397461;1673427437.40491;2.5429935455322266;27.70696258544922;51.09091567993164
212;1673427437.5468593;47.1306422;7.2406194;48.400001525878906;1673427437.5889823;2.776806354522705;27.60000228881836;51.2542839050293
213;1673427437.736497;47.1306423;7.2406193;48.68800354003906;1673427437.776327;2.453932046890259;27.790218353271484;51.134239196777344
214;1673427437.9367344;47.1306425;7.2406191;48.93100357055664;1673427437.9837255;2.8323564529418945;28.572410583496094;51.088356018066406
215;1673427438.1573722;47.130642699999996;7.240619;49.134002685546875;1673427438.1994889;2.8527791500091553;28.476734161376953;51.07162857055664
216;1673427438.350851;47.1306429;7.2406188;49.30000305175781;1673427438.3914058;6.794798374176025;29.565898895263672;51.66310119628906
217;1673427438.5501149;47.130643;7.2406182999999995;49.44400405883789;1673427438.5938408;29.577634811401367;31.552675247192383;61.118072509765625
218;1673427438.7381322;47.130641999999995;7.2406162;49.57600402832031;1673427438.7821865;42.85347366333008;37.0500602722168;72.41384887695312
219;1673427438.9333665;47.1306393;7.240610599999999;49.685001373291016;1673427438.9759161;49.438899993896484;41.73356628417969;79.36639404296875
220;1673427439.136738;47.130634799999996;7.2406014999999995;49.73400115966797;1673427439.1774197;35.7374267578125;40.38939666748047;86.2364273071289
221;1673427439.3375971;47.130629;7.2405892;49.743003845214844;1673427439.3788106;25.637983322143555;43.18423843383789;97.4085922241211
222;1673427439.5503914;47.1306224;7.2405744;49.749000549316406;1673427439.5896316;15.62999439239502;46.40365219116211;108.38507843017578
223;1673427439.7557611;47.130615299999995;7.2405572;49.7400016784668;1673427439.79578;1.7747036218643188;46.5987663269043;117.35536193847656
224;1673427439.9580846;47.130607399999995;7.2405384999999995;49.72600173950195;1673427440.0030107;-10.958980560302734;47.023433685302734;126.2698745727539
225;1673427440.1691513;47.1305988;7.2405186;49.715003967285156;1673427440.2131124;-22.18681526184082;45.41557312011719;137.60797119140625
226;1673427440.3657892;47.1305895;7.2404974;49.70100402832031;1673427440.4010832;-36.05527877807617;42.64942932128906;149.91651916503906
227;1673427440.5602646;47.130579499999996;7.240474799999999;49.68700408935547;1673427440.6015766;-44.45895004272461;35.295040130615234;163.42919921875
228;1673427440.7538087;47.1305688;7.240450999999999;49.647003173828125;1673427440.7950277;-37.78334045410156;22.52522850036621;166.4054412841797
229;1673427440.9541094;47.130558;7.2404269999999995;49.56300354003906;1673427440.991742;-20.796518325805664;14.228896141052246;156.66810607910156
230;1673427441.1407871;47.1305482;7.240404099999999;49.46000289916992;1673427441.18302;-12.325606346130371;11.356658935546875;142.59791564941406
231;1673427441.3407476;47.1305395;7.2403822;49.41100311279297;1673427441.3784046;-27.954877853393555;22.49224281311035;132.27491760253906
232;1673427441.5302691;47.1305312;7.2403615;49.43100357055664;1673427441.570988;-33.92236328125;38.133819580078125;128.4865264892578
233;1673427441.7273755;47.130522;7.2403417;49.47500228881836;1673427441.7714734;-38.38018035888672;44.339664459228516;130.59471130371094
234;1673427441.921363;47.1305116;7.240322399999999;49.52100372314453;1673427441.9615943;-37.587501525878906;42.54383087158203;136.22642517089844
235;1673427442.124231;47.1305001;7.2403032;49.56900405883789;1673427442.1723309;-37.46006774902344;39.242034912109375;138.76795959472656
236;1673427442.3369298;47.130488;7.240284099999999;49.59300231933594;1673427442.3789687;-34.25719451904297;33.62572479248047;137.6289520263672
237;1673427442.56647;47.1304756;7.2402653;49.60100173950195;1673427442.6162426;-35.222068786621094;30.66361427307129;135.13287353515625
238;1673427442.7601194;47.1304629;7.2402473;49.617000579833984;1673427442.8008356;-40.502838134765625;28.970699310302734;133.69203186035156
239;1673427442.962495;47.130449999999996;7.2402307;49.63900375366211;1673427443.0054047;-43.780853271484375;25.72489356994629;133.52609252929688
240;1673427443.1669207;47.1304367;7.240215699999999;49.65500259399414;1673427443.2120852;-44.82183837890625;17.088825225830078;134.59640502929688
241;1673427443.3553684;47.1304235;7.2402028;49.663002014160156;1673427443.3945935;-43.784271240234375;1.3834412097930908;135.2235870361328
242;1673427443.5411928;47.130411099999996;7.2401931;49.673004150390625;1673427443.5794036;-40.75395584106445;-10.687678337097168;132.62974548339844
243;1673427443.735254;47.1304004;7.240187199999999;49.695003509521484;1673427443.7809887;-40.8524284362793;-18.369098663330078;133.39930725097656
244;1673427443.9496002;47.130391599999996;7.2401848;49.715003967285156;1673427443.9916036;-36.249881744384766;-22.47757339477539;132.28965759277344
245;1673427444.1443539;47.1303851;7.2401852;49.73800277709961;1673427444.1869752;-34.072410583496094;-21.341140747070312;130.49020385742188
246;1673427444.3476608;47.130380699999996;7.2401881999999995;49.7650032043457;1673427444.4135358;-36.61016082763672;-25.612829208374023;132.38165283203125
247;1673427444.5604713;47.1303783;7.240193799999999;49.80900192260742;1673427444.6022434;-39.93632888793945;-21.105501174926758;128.83755493164062
248;1673427444.7652478;47.130377599999996;7.2402017999999995;49.880001068115234;1673427444.8063946;-40.68433380126953;-10.087255477905273;127.48400115966797
249;1673427444.9694524;47.1303777;7.2402114;49.945003509521484;1673427445.035111;-32.0881233215332;-2.7169201374053955;136.1979522705078
250;1673427445.1700091;47.130378099999994;7.2402209;49.98800277709961;1673427445.2100239;-27.057653427124023;1.8544673919677734;149.69586181640625
251;1673427445.3429382;47.1303787;7.2402294;50.0150032043457;1673427445.3820148;-26.449953079223633;5.719545841217041;160.97377014160156
252;1673427445.534077;47.130379;7.2402361;50.03700256347656;1673427445.5752983;-27.86964225769043;7.015381336212158;170.2898406982422
253;1673427445.732046;47.1303791;7.2402405;50.052001953125;1673427445.7756884;-32.45448303222656;5.305324077606201;179.83248901367188
254;1673427445.9357426;47.1303787;7.240242599999999;50.066001892089844;1673427445.9848156;-38.35948181152344;1.7174806594848633;-170.4501953125
255;1673427446.1359587;47.1303774;7.240241999999999;50.08700180053711;1673427446.1784797;-44.64798355102539;-2.3229782581329346;-161.18136596679688
256;1673427446.3419702;47.130375;7.240238499999999;50.10900115966797;1673427446.3855743;-51.23001480102539;-4.934867858886719;-152.82101440429688
257;1673427446.5421364;47.1303711;7.240232;50.12000274658203;1673427446.5836828;-58.43889617919922;-5.8615264892578125;-143.83636474609375
258;1673427446.747598;47.130365499999996;7.2402219;50.11100387573242;1673427446.7892435;-52.626556396484375;-10.241602897644043;-136.49185180664062
259;1673427446.941305;47.1303586;7.2402085;50.092002868652344;1673427446.9828613;-51.52880096435547;-15.164058685302734;-134.13929748535156
260;1673427447.1512904;47.1303506;7.240192599999999;50.083003997802734;1673427447.2025847;-51.40375900268555;-14.606403350830078;-137.5106658935547
261;1673427447.3486502;47.1303415;7.240174799999999;50.08400344848633;1673427447.388821;-52.17782974243164;-15.860697746276855;-139.84201049804688
262;1673427447.5584826;47.130331299999995;7.2401557;50.077003479003906;1673427447.604579;-49.35063934326172;-12.733590126037598;-141.22781372070312
263;1673427447.757967;47.130320499999996;7.2401357;50.064002990722656;1673427447.7956493;-48.97856521606445;-14.78952407836914;-140.12582397460938
264;1673427447.9370193;47.130309;7.2401149;50.04900360107422;1673427447.9747603;-49.06781768798828;-14.984322547912598;-140.0230255126953
265;1673427448.1188402;47.1302971;7.2400936;50.040000915527344;1673427448.1608613;-47.47593688964844;-15.313887596130371;-139.75331115722656
266;1673427448.3415978;47.1302848;7.2400718;50.0260009765625;1673427448.3842037;-47.05131149291992;-16.13090705871582;-139.98480224609375
267;1673427448.5797267;47.1302722;7.2400497999999995;50.01700210571289;1673427448.6148722;-47.88615036010742;-17.924232482910156;-146.4730224609375
268;1673427448.7591076;47.130259099999996;7.240028199999999;50.0150032043457;1673427448.8017385;-48.32213592529297;-11.903525352478027;-158.13641357421875
269;1673427448.9521043;47.1302455;7.240007599999999;50.01000213623047;1673427449.0039341;-47.999176025390625;-5.4716267585754395;-166.78770446777344
270;1673427449.166831;47.130231699999996;7.2399876999999995;50.00200271606445;1673427449.2071445;-45.77754211425781;1.382513403892517;-175.46229553222656
271;1673427449.3518336;47.1302179;7.2399683999999995;49.987003326416016;1673427449.389657;-43.853912353515625;7.628189563751221;175.8348388671875
272;1673427449.5357156;47.1302041;7.2399496999999995;49.97300338745117;1673427449.5793397;-40.99129104614258;13.750750541687012;166.89718627929688
273;1673427449.7314267;47.1301906;7.2399315;49.952003479003906;1673427449.7717533;-36.47944259643555;17.949668884277344;158.01657104492188
274;1673427449.9384017;47.1301774;7.2399138999999995;49.926002502441406;1673427449.9809198;-32.459754943847656;19.576303482055664;148.59132385253906
275;1673427450.1288183;47.130164699999995;7.239897099999999;49.893001556396484;1673427450.1710448;-30.329002380371094;19.797618865966797;138.02186584472656
276;1673427450.3247209;47.1301527;7.2398812999999995;49.871002197265625;1673427450.3721116;-34.682804107666016;21.71835708618164;127.88206481933594
277;1673427450.5415204;47.1301409;7.239867299999999;49.88500213623047;1673427450.5886493;-45.24302291870117;26.098379135131836;121.52213287353516
278;1673427450.7460258;47.1301291;7.2398558;49.9160041809082;1673427450.7878587;-46.479122161865234;4.270280361175537;127.96660614013672
279;1673427450.9477665;47.130117899999995;7.2398476;49.948001861572266;1673427450.9898448;-49.59749221801758;-16.27436065673828;133.54066467285156
280;1673427451.1699057;47.130108199999995;7.2398437;49.952003479003906;1673427451.2115722;-48.04229736328125;-21.762556076049805;135.72059631347656
281;1673427451.3736136;47.1301002;7.2398437;49.92100143432617;1673427451.4087496;-30.425048828125;-21.84542465209961;141.64242553710938
282;1673427451.5461235;47.130094199999995;7.2398463;49.90800094604492;1673427451.5818036;-22.152862548828125;-31.522933959960938;159.62747192382812
283;1673427451.748691;47.130089999999996;7.2398511;49.94900131225586;1673427451.7918134;-20.435482025146484;-32.618019104003906;169.60690307617188
284;1673427451.9410307;47.1300873;7.239857499999999;49.9900016784668;1673427451.9806108;-13.498516082763672;-28.576135635375977;-177.73834228515625
285;1673427452.1308358;47.1300855;7.2398646;50.02000427246094;1673427452.1754737;-23.732421875;-23.717357635498047;-166.05751037597656
286;1673427452.3294725;47.130084;7.2398713;50.04900360107422;1673427452.3751287;-41.35221862792969;-16.980117797851562;-157.45375061035156
287;1673427452.541897;47.1300816;7.2398763;50.06300354003906;1673427452.5892942;-50.94215393066406;-11.952132225036621;-149.49301147460938
288;1673427452.7451618;47.1300775;7.2398777;50.07400131225586;1673427452.7878253;-58.48564147949219;-4.891392230987549;-140.85755920410156
289;1673427452.9545252;47.1300722;7.2398748;50.0420036315918;1673427452.995312;-48.17703628540039;-6.22391939163208;-129.30885314941406
290;1673427453.1556687;47.130066299999996;7.2398675;49.99800109863281;1673427453.1998265;-45.89605712890625;-7.753554344177246;-130.26620483398438
291;1673427453.3558729;47.13006;7.239856499999999;49.97600173950195;1673427453.3981235;-45.40564727783203;-7.115481853485107;-135.87782287597656
292;1673427453.5383887;47.1300532;7.2398425;49.987003326416016;1673427453.5799322;-50.97595977783203;-10.387890815734863;-139.07366943359375
293;1673427453.7451334;47.130045599999995;7.239826099999999;50.00400161743164;1673427453.7888255;-50.454654693603516;-8.27971076965332;-140.9984588623047
294;1673427453.952549;47.130036999999994;7.2398076;50.03700256347656;1673427453.9947815;-52.12200927734375;-11.341581344604492;-140.4427490234375
295;1673427454.1481562;47.1300276;7.2397874;50.060001373291016;1673427454.1904395;-52.696292877197266;-12.81533432006836;-140.17355346679688
296;1673427454.3501964;47.1300173;7.2397662;50.073001861572266;1673427454.3956404;-52.754600524902344;-14.800962448120117;-139.5970916748047
297;1673427454.5534592;47.130006099999996;7.239744099999999;50.07200241088867;1673427454.596079;-52.091312408447266;-14.38957691192627;-139.476806640625
298;1673427454.7505906;47.1299943;7.2397214;50.05900192260742;1673427454.7914386;-47.6415901184082;-13.802748680114746;-139.3181610107422
299;1673427454.9535003;47.129982;7.239698199999999;50.04300308227539;1673427454.9999275;-45.6534423828125;-14.313030242919922;-139.2870635986328
300;1673427455.1566272;47.129969599999995;7.2396747999999995;50.02700424194336;1673427455.198293;-45.81266403198242;-16.28011131286621;-139.16226196289062
301;1673427455.354624;47.129957;7.2396515;50.01300048828125;1673427455.388882;-46.02782440185547;-16.878887176513672;-139.92823791503906
302;1673427455.5337467;47.129944099999996;7.239628199999999;50.00300216674805;1673427455.574897;-45.41848373413086;-15.801411628723145;-140.4183349609375
303;1673427455.7303376;47.129931;7.2396050999999995;49.993003845214844;1673427455.7743895;-44.68485641479492;-15.2319974899292;-140.1832733154297
304;1673427455.9336257;47.129917899999995;7.2395821;49.98600387573242;1673427455.9756505;-44.14400100708008;-15.702959060668945;-140.06863403320312
305;1673427456.1319635;47.1299048;7.2395591999999995;49.98500061035156;1673427456.1760838;-44.791263580322266;-16.288166046142578;-140.303955078125
306;1673427456.3295758;47.1298916;7.2395365;49.98200225830078;1673427456.3726788;-45.45698165893555;-16.78374481201172;-140.5599365234375
307;1673427456.545593;47.129878299999994;7.239514;49.97900390625;1673427456.589108;-44.87274169921875;-17.896167755126953;-141.02700805664062
308;1673427456.7408235;47.1298648;7.2394918;49.97800064086914;1673427456.7835486;-45.78297805786133;-19.14759063720703;-148.8056182861328
309;1673427456.9445953;47.129850999999995;7.2394704999999995;49.97900390625;1673427456.9846566;-46.09707260131836;-12.477417945861816;-160.3963165283203
310;1673427457.142326;47.129837099999996;7.2394503;49.98200225830078;1673427457.1878095;-45.80323791503906;-7.440646171569824;-169.07969665527344
311;1673427457.3426502;47.129822999999995;7.2394313;49.983001708984375;1673427457.3882914;-45.15580749511719;-1.06316339969635;-177.865478515625
312;1673427457.552062;47.129808999999995;7.2394133;49.98500061035156;1673427457.5986643;-44.04035568237305;6.4944562911987305;173.29563903808594
313;1673427457.7630727;47.129795099999996;7.2393962;49.98600387573242;1673427457.7997923;-41.8153190612793;13.12700366973877;164.86195373535156
314;1673427457.9518347;47.1297813;7.2393797;49.98100280761719;1673427457.991519;-39.3256721496582;18.21624755859375;156.20079040527344
315;1673427458.1462054;47.129767799999996;7.2393638;49.9640007019043;1673427458.187729;-34.92924499511719;18.38006591796875;147.45787048339844
316;1673427458.3541982;47.1297547;7.2393487;49.93700408935547;1673427458.3957329;-35.78370666503906;7.19874906539917;142.30276489257812
317;1673427458.5523353;47.1297423;7.239335499999999;49.9640007019043;1673427458.59486;-30.06768035888672;-15.96345043182373;150.90260314941406
318;1673427458.7580671;47.1297316;7.239325;50.00400161743164;1673427458.7984548;-15.907950401306152;-28.241357803344727;163.57315063476562
319;1673427458.955194;47.1297232;7.2393171999999995;50.044002532958984;1673427458.9954858;-6.893897533416748;-29.329326629638672;176.16021728515625
320;1673427459.1529996;47.129717;7.2393117;50.073001861572266;1673427459.2114067;-12.843084335327148;-25.828683853149414;-173.1381072998047
321;1673427459.3795962;47.129712399999995;7.2393079;50.105003356933594;1673427459.4236596;-34.72346496582031;-17.646148681640625;-165.24041748046875
322;1673427459.5707679;47.1297079;7.2393047;50.13800048828125;1673427459.611464;-54.26313781738281;-6.3609514236450195;-156.51295471191406
323;1673427459.748676;47.129701999999995;7.2392996;50.14600372314453;1673427459.789313;-60.692134857177734;-0.4702850580215454;-147.42884826660156
324;1673427459.9538662;47.129694799999996;7.2392905999999995;50.12000274658203;1673427459.9985275;-51.83929443359375;1.2189970016479492;-137.96389770507812
325;1673427460.152665;47.1296872;7.239277899999999;50.079002380371094;1673427460.189308;-43.48793411254883;-5.900814056396484;-132.855224609375
326;1673427460.3508039;47.129679499999995;7.239262399999999;50.064002990722656;1673427460.39383;-48.59016418457031;-11.87600326538086;-136.27163696289062
327;1673427460.5557115;47.1296712;7.2392445;50.06800079345703;1673427460.6040714;-50.46430969238281;-13.166854858398438;-141.3094940185547
328;1673427460.8079264;47.129661999999996;7.239225299999999;50.08100128173828;1673427460.8391585;-52.992618560791016;-17.16546630859375;-142.48744201660156
329;1673427460.9739027;47.1296515;7.2392053;50.09600067138672;1673427461.010705;-52.92367172241211;-15.489208221435547;-143.48794555664062
330;1673427461.191462;47.129640099999996;7.239184799999999;50.09700393676758;1673427461.2314649;-51.12660598754883;-16.440229415893555;-146.19056701660156
331;1673427461.3874211;47.129627799999994;7.239164199999999;50.09100341796875;1673427461.4270012;-51.79370880126953;-12.493471145629883;-155.4376220703125
332;1673427461.5739484;47.1296147;7.239144;50.079002380371094;1673427461.6156483;-49.30154037475586;-5.228511810302734;-165.23118591308594
333;1673427461.7649713;47.129601099999995;7.2391242;50.06800079345703;1673427461.8132582;-48.09526062011719;0.9592264890670776;-173.419189453125
334;1673427461.9730043;47.1295873;7.2391051;50.051002502441406;1673427462.0145953;-45.533958435058594;7.818369388580322;177.8754119873047
335;1673427462.1568348;47.1295734;7.239086299999999;50.03200149536133;1673427462.2092223;-41.49141311645508;13.563985824584961;169.34849548339844
336;1673427462.4183354;47.1295596;7.239067899999999;50.00800323486328;1673427462.4799902;-37.28712844848633;18.584667205810547;160.454833984375
337;1673427462.6142104;47.1295462;7.2390498999999995;49.97700119018555;1673427462.653252;-31.10321807861328;21.034255981445312;150.99705505371094
338;1673427462.8116295;47.1295333;7.2390322;49.93600082397461;1673427462.8616886;-24.59644317626953;22.1085262298584;140.2781524658203
339;1673427462.9834316;47.1295211;7.2390152;49.91100311279297;1673427463.0152133;-22.37250328063965;29.309341430664062;128.84922790527344
340;1673427463.15183;47.1295095;7.2389988;49.93800354003906;1673427463.20015;-25.669570922851562;43.9821891784668;120.35411834716797
341;1673427463.3685663;47.1294975;7.238982699999999;49.97300338745117;1673427463.4108818;-29.924102783203125;43.21287155151367;125.21121215820312
342;1673427463.5577471;47.1294848;7.2389668;50.00700378417969;1673427463.5994053;-41.54767990112305;38.1652717590332;131.31687927246094
343;1673427463.7592247;47.1294714;7.2389513999999995;50.035003662109375;1673427463.7988546;-45.74734878540039;18.691986083984375;137.37701416015625
344;1673427463.9705741;47.1294579;7.2389377999999995;50.022003173828125;1673427464.0118756;-45.38084030151367;-6.35651159286499;135.62188720703125
345;1673427464.1511598;47.1294453;7.238927599999999;49.98600387573242;1673427464.1950927;-44.39838409423828;-15.495288848876953;132.79080200195312
346;1673427464.3575556;47.129434599999996;7.2389212999999994;49.93100357055664;1673427464.4066067;-33.89262771606445;-16.53362464904785;136.35455322265625
347;1673427464.571858;47.129425999999995;7.238918;49.88500213623047;1673427464.6117625;-22.949905395507812;-24.201757431030273;153.50814819335938
348;1673427464.7865484;47.129419399999996;7.2389171;49.89500427246094;1673427464.8266044;-22.540334701538086;-36.88517379760742;163.7979278564453
349;1673427464.9729185;47.1294146;7.2389193;49.93800354003906;1673427465.0149412;-24.110258102416992;-40.656532287597656;170.80007934570312
350;1673427465.166154;47.1294112;7.238924099999999;49.974002838134766;1673427465.2146437;-26.588150024414062;-36.4004020690918;-175.2758331298828
351;1673427465.3638284;47.129408299999994;7.2389307;50.00800323486328;1673427465.403895;-37.04048156738281;-27.571943283081055;-162.9002227783203
352;1673427465.5558846;47.129404799999996;7.238937399999999;50.040000915527344;1673427465.5993946;-46.345619201660156;-16.700788497924805;-154.87408447265625
353;1673427465.7601557;47.129399899999996;7.2389418;50.066001892089844;1673427465.811472;-55.74502944946289;-5.8182549476623535;-146.35792541503906
354;1673427465.991614;47.1293939;7.238942;50.06900405883789;1673427466.0331469;-58.782379150390625;1.929521083831787;-135.37857055664062
355;1673427466.1889012;47.1293873;7.238936799999999;50.02300262451172;1673427466.2323856;-43.675228118896484;4.950982570648193;-125.57597351074219
356;1673427466.3902562;47.1293813;7.2389274;49.961002349853516;1673427466.4308302;-33.81256866455078;0.8605505228042603;-128.00108337402344
357;1673427466.6072123;47.1293759;7.2389147;49.932003021240234;1673427466.6501906;-44.334861755371094;1.0080169439315796;-135.5575714111328
358;1673427466.796109;47.129370699999996;7.238899;49.94600296020508;1673427466.8357086;-48.57183074951172;-5.4078288078308105;-137.28936767578125
359;1673427466.9967887;47.1293649;7.2388805;49.992000579833984;1673427467.0361278;-56.21476745605469;-10.532366752624512;-139.16531372070312
360;1673427467.1800053;47.1293576;7.2388597;50.03600311279297;1673427467.2208726;-56.8769645690918;-10.21264934539795;-140.9578094482422
361;1673427467.3541212;47.1293491;7.238837299999999;50.06900405883789;1673427467.3941493;-53.205230712890625;-11.66256046295166;-141.33786010742188
362;1673427467.5624127;47.1293395;7.238813899999999;50.0880012512207;1673427467.608923;-54.564971923828125;-13.813652038574219;-141.45335388183594
363;1673427467.7875009;47.129328799999996;7.238789799999999;50.09400177001953;1673427467.8558528;-53.866065979003906;-13.05655288696289;-142.6510009765625
364;1673427467.9890509;47.129317199999996;7.238765399999999;50.09300231933594;1673427468.026912;-50.88813400268555;-13.67716121673584;-143.69732666015625
365;1673427468.1789777;47.1293049;7.2387407999999995;50.08000183105469;1673427468.222084;-48.26386260986328;-15.75583553314209;-144.72483825683594
366;1673427468.3748078;47.129292;7.2387169;50.06200408935547;1673427468.4203107;-45.0887565612793;-19.48703384399414;-146.39077758789062
367;1673427468.5714862;47.1292787;7.2386937;50.04500198364258;1673427468.6106715;-43.17701721191406;-26.961681365966797;-147.56005859375
368;1673427468.7652004;47.1292651;7.2386724;50.018001556396484;1673427468.8062332;-36.947181701660156;-33.22069549560547;-153.49354553222656
369;1673427468.9616065;47.1292514;7.2386536999999995;49.96800231933594;1673427469.003793;-28.345624923706055;-29.818801879882812;-166.5719451904297
370;1673427469.1652584;47.1292386;7.2386383;49.913002014160156;1673427469.2098672;-26.47355079650879;-27.79521369934082;-174.6705322265625
371;1673427469.3706338;47.1292269;7.238626099999999;49.88300323486328;1673427469.4152288;-30.27039337158203;-29.526479721069336;-176.42144775390625
372;1673427469.586445;47.129216299999996;7.2386173;49.88800048828125;1673427469.6312976;-27.954132080078125;-37.83498001098633;-165.84791564941406
373;1673427469.7762008;47.129206499999995;7.2386118999999995;49.9010009765625;1673427469.8222213;-15.582027435302734;-40.08363342285156;-154.3834991455078
374;1673427469.9919176;47.129197399999995;7.2386089;49.926002502441406;1673427470.027093;-9.10297966003418;-38.49559783935547;-146.09669494628906
375;1673427470.1820664;47.1291891;7.2386079;49.97600173950195;1673427470.2198503;-18.974918365478516;-17.459688186645508;-142.556396484375
376;1673427470.3943293;47.1291817;7.2386066;50.02000427246094;1673427470.431956;-28.35513687133789;-10.578374862670898;-137.72360229492188
377;1673427470.5860474;47.129174899999995;7.238603599999999;50.053001403808594;1673427470.6286132;-22.905675888061523;-10.821059226989746;-135.09698486328125
378;1673427470.784527;47.129168899999996;7.2385991999999995;50.073001861572266;1673427470.825071;-13.518917083740234;-15.314382553100586;-133.1748504638672
379;1673427470.988495;47.1291637;7.2385939;50.086002349853516;1673427471.0358894;-4.088071346282959;-19.142614364624023;-132.7615203857422
380;1673427471.1918988;47.1291596;7.2385886;50.09300231933594;1673427471.2483966;-4.080504417419434;-14.873059272766113;-131.64369201660156
381;1673427471.4142506;47.1291564;7.238583299999999;50.10000228881836;1673427471.4494987;-5.254879951477051;-19.564411163330078;-131.5653839111328
382;1673427471.5996757;47.129154;7.2385779999999995;50.124000549316406;1673427471.6392918;-17.821380615234375;-20.450237274169922;-134.6626739501953
383;1673427471.7809312;47.129151799999995;7.2385724;50.23800277709961;1673427471.8205314;-39.77808380126953;-19.070457458496094;-137.0830841064453
384;1673427471.9725266;47.1291483;7.2385651;50.439002990722656;1673427472.016128;-44.57305145263672;-21.39531898498535;-138.8146514892578
385;1673427472.1722698;47.129143299999996;7.238556;50.68600082397461;1673427472.2157896;-36.371055603027344;-14.836295127868652;-140.68768310546875
386;1673427472.3807206;47.1291374;7.2385455;50.97300338745117;1673427472.4237485;-28.502838134765625;-15.48763370513916;-139.6084747314453
387;1673427472.5748088;47.129131099999995;7.2385341;51.316001892089844;1673427472.6159024;-38.36272048950195;-30.799861907958984;-136.6946563720703
388;1673427472.765862;47.1291236;7.2385227;51.69900131225586;1673427472.807;-43.476661682128906;-29.360795974731445;-139.07447814941406
389;1673427472.983149;47.1291146;7.2385113;52.08100128173828;1673427473.027615;-39.548255920410156;-25.014062881469727;-140.42088317871094
390;1673427473.1748962;47.1291048;7.238499699999999;52.458003997802734;1673427473.2200677;-38.922943115234375;-24.327014923095703;-139.17398071289062
391;1673427473.3756626;47.1290944;7.2384879;52.83000183105469;1673427473.4211009;-35.52823257446289;-22.529409408569336;-137.7943878173828
392;1673427473.5829613;47.129083699999995;7.2384758;53.19700241088867;1673427473.623299;-33.48695373535156;-20.796245574951172;-137.47035217285156
393;1673427473.768158;47.129073;7.2384634;53.57200241088867;1673427473.8093376;-32.395416259765625;-20.132883071899414;-136.8058624267578
394;1673427473.9692974;47.1290623;7.2384507;53.954002380371094;1673427474.0115647;-30.951875686645508;-19.644487380981445;-136.53433227539062
395;1673427474.1780777;47.1290519;7.2384376999999995;54.34100341796875;1673427474.2193482;-30.466453552246094;-19.66503143310547;-136.45205688476562
396;1673427474.37851;47.129041799999996;7.2384246;54.72900390625;1673427474.4260626;-30.347103118896484;-19.941625595092773;-136.46763610839844
397;1673427474.58376;47.1290318;7.2384113;55.11700439453125;1673427474.629823;-30.44797706604004;-20.41672134399414;-136.52537536621094
398;1673427474.7882702;47.1290221;7.2383977999999995;55.50300216674805;1673427474.8293593;-30.658414840698242;-21.160930633544922;-136.5612030029297
399;1673427474.9841964;47.129012499999995;7.238384399999999;55.88500213623047;1673427475.02684;-30.887657165527344;-21.761987686157227;-136.6646270751953
400;1673427475.1828456;47.129003;7.2383709;56.272003173828125;1673427475.225145;-31.167844772338867;-22.185972213745117;-136.72064208984375
401;1673427475.3811805;47.1289935;7.238357499999999;56.656002044677734;1673427475.4225948;-31.325031280517578;-22.480304718017578;-136.79148864746094
402;1673427475.584737;47.128983999999996;7.238344199999999;57.04300308227539;1673427475.6235032;-31.594430923461914;-22.621360778808594;-136.80032348632812
403;1673427475.7797096;47.1289746;7.238330899999999;57.42900085449219;1673427475.8233314;-31.669462203979492;-22.610671997070312;-136.87881469726562
404;1673427475.985404;47.128965;7.2383177;57.814002990722656;1673427476.028402;-31.692459106445312;-22.52248191833496;-136.8994903564453
405;1673427476.172838;47.1289555;7.2383045;58.195003509521484;1673427476.2149603;-31.745071411132812;-22.553464889526367;-136.89112854003906
406;1673427476.3843937;47.1289459;7.2382914;58.58100128173828;1673427476.4281614;-31.813119888305664;-22.3387393951416;-136.9346923828125
407;1673427476.5823011;47.1289362;7.2382782;58.967002868652344;1673427476.6264064;-31.628921508789062;-22.37723731994629;-136.88858032226562
408;1673427476.8029497;47.1289266;7.238264999999999;59.35200119018555;1673427476.8383331;-31.68163299560547;-22.252511978149414;-136.89707946777344
409;1673427476.969348;47.128917;7.2382519;59.73100280761719;1673427477.006607;-31.76009178161621;-22.24015235900879;-136.8939666748047
410;1673427477.1687555;47.128907299999995;7.238238699999999;60.1150016784668;1673427477.2147648;-31.787063598632812;-22.081613540649414;-136.9147186279297
411;1673427477.3852916;47.128897599999995;7.2382256;60.50400161743164;1673427477.4233851;-31.80390739440918;-22.062829971313477;-136.88119506835938
412;1673427477.5641856;47.128887999999996;7.2382124;60.88600158691406;1673427477.602307;-31.805831909179688;-22.25467300415039;-136.89622497558594
413;1673427477.7570107;47.1288784;7.2381991999999995;61.268001556396484;1673427477.800147;-31.850727081298828;-22.177093505859375;-136.86834716796875
414;1673427477.9732225;47.1288687;7.2381858999999995;61.650001525878906;1673427478.0194817;-31.880224227905273;-22.212642669677734;-136.89857482910156
415;1673427478.1783476;47.128859;7.2381727;62.03400421142578;1673427478.2257595;-31.88252830505371;-22.250957489013672;-136.89654541015625
416;1673427478.3943803;47.1288493;7.2381594;62.4160041809082;1673427478.4389346;-31.929847717285156;-22.192211151123047;-136.91592407226562
417;1673427478.5926383;47.1288396;7.2381461;62.801002502441406;1673427478.6358035;-31.92656707763672;-22.170780181884766;-136.8907928466797
