;pos_time;latitude;longitude;altitude;alt_time;pitch;roll;yaw
0;1673422587.100751;47.1306423;7.2406201999999995;-0.005000000353902578;1673422587.1729856;-0.03471292555332184;-0.2384134829044342;90.1968765258789
1;1673422587.3088086;47.1306423;7.2406201999999995;-0.006000000052154064;1673422587.3766983;-0.08508332073688507;0.08596900850534439;90.2606201171875
2;1673422587.5042071;47.1306423;7.2406201999999995;-0.00800000037997961;1673422587.5676434;0.049631912261247635;0.20332209765911102;90.07474517822266
3;1673422587.7151434;47.1306423;7.2406201;-0.009000000543892384;1673422587.7851603;-0.09086821228265762;0.012887952849268913;90.25873565673828
4;1673422587.9136167;47.1306424;7.2406201;-0.007000000216066837;1673422587.9756975;0.0219818577170372;-0.03432871401309967;90.3411636352539
5;1673422588.1136734;47.1306424;7.2406201;-0.009000000543892384;1673422588.1761467;0.03291020914912224;0.18818017840385437;90.10946655273438
6;1673422588.2964199;47.1306424;7.24062;-0.01100000087171793;1673422588.3784132;0.20648758113384247;-0.033085718750953674;90.27177429199219
7;1673422588.517361;47.1306424;7.24062;-0.012000000104308128;1673422588.5852904;-0.044944632798433304;-0.022864894941449165;90.19678497314453
8;1673422588.713851;47.1306424;7.2406198999999996;-0.0020000000949949026;1673422588.7724206;-0.022571297362446785;0.06596933305263519;90.09220886230469
9;1673422588.8995807;47.1306424;7.240619799999999;-0.004000000189989805;1673422588.9630728;0.01958318240940571;0.04140216484665871;90.0898666381836
10;1673422589.0961099;47.1306425;7.2406197;-0.007000000216066837;1673422589.164454;-0.10268542170524597;-0.07391021400690079;90.20321655273438
11;1673422589.308843;47.1306425;7.2406196;-0.010000000707805157;1673422589.3904843;0.08754651993513107;0.10438551753759384;90.18785858154297
12;1673422589.5243526;47.1306425;7.240619499999999;-0.013000000268220901;1673422589.5895858;0.15490029752254486;-8.417704520979896e-05;90.3543472290039
13;1673422589.7115824;47.1306425;7.2406194;-0.014000000432133675;1673422589.7688553;0.04454987496137619;-0.1703876554965973;90.31742095947266
14;1673422589.8976545;47.1306424;7.2406193;-0.017000000923871994;1673422589.9656174;0.14753864705562592;0.25892171263694763;90.21367645263672
15;1673422590.1036248;47.1306424;7.2406193;-0.014000000432133675;1673422590.1686583;0.04163394123315811;0.0936383605003357;90.35868072509766
16;1673422590.3104901;47.1306424;7.2406193;0.0;1673422590.371759;-0.03221080079674721;-0.4453394114971161;90.13680267333984
17;1673422590.500594;47.1306424;7.2406193;0.003000000026077032;1673422590.5586634;-0.04924944415688515;0.3358441889286041;90.0486831665039
18;1673422590.7075028;47.1306424;7.2406194;0.0020000000949949026;1673422590.7776525;-0.0637480616569519;-0.47467756271362305;90.2659912109375
19;1673422590.935385;47.1306424;7.2406194;-0.003000000026077032;1673422590.9976397;0.04201585799455643;-0.3632303774356842;90.34645080566406
20;1673422591.1221216;47.1306424;7.2406194;-0.005000000353902578;1673422591.186628;-0.09639104455709457;0.5346848964691162;90.171875
21;1673422591.319607;47.1306424;7.2406194;-0.005000000353902578;1673422591.3824284;0.28207534551620483;-0.1494588851928711;90.23723602294922
22;1673422591.4997976;47.1306425;7.240619499999999;-0.005000000353902578;1673422591.5619607;0.20436115562915802;-0.008644546382129192;90.21556854248047
23;1673422591.7067587;47.1306425;7.240619499999999;-0.0020000000949949026;1673422591.772714;0.17834985256195068;-0.2563302218914032;90.23597717285156
24;1673422591.9065804;47.1306424;7.2406196;0.0;1673422591.9654906;-0.07082616537809372;-0.2138235718011856;90.34345245361328
25;1673422592.0868518;47.1306424;7.2406196;-0.0010000000474974513;1673422592.1504402;-0.2334648221731186;-0.09364934265613556;90.29337310791016
26;1673422592.2835069;47.1306424;7.2406196;-0.005000000353902578;1673422592.3514485;-0.9984913468360901;-0.48160073161125183;90.82183837890625
27;1673422592.5077486;47.1306424;7.2406197;0.0020000000949949026;1673422592.5696542;-0.003641451010480523;-1.4849028587341309;91.17386627197266
28;1673422592.685493;47.1306424;7.240619799999999;0.014000000432133675;1673422592.752624;0.43865373730659485;2.5780138969421387;90.82829284667969
29;1673422592.886393;47.1306424;7.24062;0.05000000074505806;1673422592.9504356;-0.15940351784229279;-0.9537237286567688;90.95787048339844
30;1673422593.1033912;47.1306425;7.24062;0.10600000619888306;1673422593.1823444;0.550881564617157;-2.0486347675323486;91.29035949707031
31;1673422593.3135357;47.130642599999995;7.24062;0.1720000058412552;1673422593.3792505;0.9113883972167969;2.3226664066314697;90.95782470703125
32;1673422593.5190609;47.130642599999995;7.2406198999999996;0.2600000202655792;1673422593.5903094;1.3924932479858398;0.912627100944519;91.11140441894531
33;1673422593.7231724;47.130642599999995;7.2406198999999996;0.3680000305175781;1673422593.7934847;1.0667837858200073;-3.048879623413086;90.98108673095703
34;1673422593.9215257;47.1306425;7.240619799999999;0.49000000953674316;1673422593.9845724;-0.06822538375854492;0.9064740538597107;90.70641326904297
35;1673422594.1086423;47.1306423;7.2406197;0.625;1673422594.1980138;-0.6174214482307434;0.9233967065811157;90.47612762451172
36;1673422594.3308673;47.1306423;7.2406196;0.7770000100135803;1673422594.4021976;-0.41688522696495056;-3.43003249168396;90.92317199707031
37;1673422594.580017;47.1306423;7.240619499999999;0.940000057220459;1673422594.669372;-0.38191768527030945;0.08885837346315384;90.89259338378906
38;1673422594.798817;47.1306424;7.2406194;1.1080000400543213;1673422594.849141;0.10634449869394302;1.973088264465332;90.83533477783203
39;1673422594.962548;47.1306424;7.2406194;1.290000081062317;1673422595.024114;0.49783769249916077;-2.4479942321777344;91.03901672363281
40;1673422595.1534946;47.1306424;7.240619499999999;1.4780000448226929;1673422595.2214086;0.6016975045204163;-1.271978735923767;92.23260498046875
41;1673422595.3449152;47.1306423;7.240619499999999;1.6680001020431519;1673422595.405483;-0.061048880219459534;1.941053032875061;91.81082916259766
42;1673422595.5294814;47.1306422;7.240619499999999;1.8630000352859497;1673422595.593916;-0.5965266823768616;-2.3781440258026123;92.01459503173828
43;1673422595.7201414;47.1306423;7.240619499999999;2.058000087738037;1673422595.7855837;-0.4960922598838806;-1.5464752912521362;91.98027038574219
44;1673422595.9132073;47.1306424;7.2406194;2.249000072479248;1673422595.9719784;-0.08420772105455399;2.893693447113037;91.74754333496094
45;1673422596.110616;47.1306425;7.240619499999999;2.445000171661377;1673422596.1785817;0.23401358723640442;0.6621997356414795;91.85749816894531
46;1673422596.3108888;47.1306425;7.240619499999999;2.6450002193450928;1673422596.3807626;0.7640791535377502;-2.7515766620635986;91.8889389038086
47;1673422596.51121;47.1306423;7.2406196;2.8410000801086426;1673422596.579092;0.7949938774108887;1.2853472232818604;91.66749572753906
48;1673422596.7153263;47.1306422;7.2406196;3.0420000553131104;1673422596.7802908;0.12693339586257935;-0.04557725787162781;92.0313491821289
49;1673422596.9157617;47.1306422;7.2406196;3.242000102996826;1673422596.9814684;-0.3998163640499115;-3.0685229301452637;92.19119262695312
50;1673422597.114844;47.1306422;7.240619499999999;3.446000099182129;1673422597.185661;-0.5454257726669312;0.9752154350280762;92.00743103027344
51;1673422597.3145273;47.1306422;7.240619499999999;3.6450002193450928;1673422597.3750858;-0.21385863423347473;0.8406985402107239;91.6343994140625
52;1673422597.5115657;47.1306423;7.2406194;3.8400001525878906;1673422597.5745802;0.012601484544575214;-2.9631729125976562;92.0301284790039
53;1673422597.6961467;47.1306422;7.2406194;4.0410003662109375;1673422597.7582595;0.38873228430747986;-0.31485414505004883;91.99002838134766
54;1673422597.892938;47.130642099999996;7.2406194;4.244000434875488;1673422597.954628;0.5808224081993103;1.4460294246673584;91.86663055419922
55;1673422598.083649;47.1306422;7.240619499999999;4.442000389099121;1673422598.1500542;-0.023958060890436172;-2.6937077045440674;92.24352264404297
56;1673422598.294139;47.1306423;7.240619499999999;4.641000270843506;1673422598.3708231;-0.8199191689491272;-0.08151085674762726;91.70984649658203
57;1673422598.4973004;47.1306424;7.240619499999999;4.838000297546387;1673422598.5603142;-0.25941282510757446;2.568951368331909;91.70816040039062
58;1673422598.6996324;47.1306425;7.240619499999999;5.0320000648498535;1673422598.7691312;-0.1145656630396843;-1.6575103998184204;91.86983489990234
59;1673422598.9053342;47.1306424;7.240619499999999;5.230000019073486;1673422598.966564;0.40293267369270325;-1.3352426290512085;92.05087280273438
60;1673422599.1034563;47.1306423;7.2406196;5.431000232696533;1673422599.1752682;0.5413970947265625;2.450373649597168;91.92760467529297
61;1673422599.3106246;47.1306423;7.2406196;5.63800048828125;1673422599.3726587;0.7899661064147949;-1.2883344888687134;91.82882690429688
62;1673422599.5060003;47.1306423;7.2406196;5.8460001945495605;1673422599.5700672;0.1664005070924759;-1.9919575452804565;92.07474517822266
63;1673422599.708266;47.1306423;7.2406196;6.053000450134277;1673422599.7787008;-0.36745214462280273;2.3424229621887207;91.55133819580078
64;1673422599.9203482;47.1306423;7.2406196;6.254000186920166;1673422599.990266;-0.40836766362190247;-0.5890961289405823;91.86827850341797
65;1673422600.1206255;47.1306423;7.240619499999999;6.461000442504883;1673422600.1846004;-0.34956663846969604;-3.059333562850952;92.23335266113281
66;1673422600.3139725;47.130642099999996;7.2406194;6.668000221252441;1673422600.3779473;0.08415142446756363;1.6709612607955933;92.03746795654297
67;1673422600.5171366;47.130642099999996;7.2406193;6.872000217437744;1673422600.5979815;0.4389614164829254;-0.04023958742618561;92.00830841064453
68;1673422600.7318597;47.1306422;7.2406193;7.077000141143799;1673422600.7953367;0.10363568365573883;-2.9545435905456543;91.84127044677734
69;1673422600.9238102;47.1306422;7.2406193;7.28000020980835;1673422600.9859846;-0.18068835139274597;1.3931605815887451;91.86754608154297
70;1673422601.1134143;47.1306423;7.2406193;7.479000568389893;1673422601.193045;-0.8109358549118042;1.245323657989502;91.85525512695312
71;1673422601.322468;47.1306423;7.2406193;7.682000160217285;1673422601.3894532;-0.7493277192115784;-2.6741909980773926;92.19348907470703
72;1673422601.5323565;47.1306422;7.2406193;7.885000228881836;1673422601.5899446;-0.16715650260448456;0.30447155237197876;92.0311050415039
73;1673422601.7047129;47.130642099999996;7.2406193;8.084000587463379;1673422601.7657735;0.11427981406450272;1.5829989910125732;91.78974914550781
74;1673422601.89321;47.130642099999996;7.2406193;8.285000801086426;1673422601.9578307;0.4940914213657379;-3.125027894973755;92.0738296508789
75;1673422602.0995243;47.1306422;7.2406194;8.484000205993652;1673422602.1654632;0.38706809282302856;-0.45677846670150757;91.87871551513672
76;1673422602.3069336;47.1306422;7.240619499999999;8.683000564575195;1673422602.378258;0.0469253771007061;1.7768893241882324;91.87397766113281
77;1673422602.5177271;47.1306422;7.2406196;8.881999969482422;1673422602.5806825;-0.11546100676059723;-1.6987791061401367;92.04535675048828
78;1673422602.7046916;47.130642099999996;7.2406196;9.084000587463379;1673422602.7791708;-0.4421418607234955;-1.4830974340438843;92.12340545654297
79;1673422602.9196336;47.130642099999996;7.2406196;9.290000915527344;1673422602.9808347;-0.020610949024558067;2.2763586044311523;91.81743621826172
80;1673422603.1195097;47.130642099999996;7.2406196;9.503000259399414;1673422603.1875694;0.4411090910434723;-1.8989019393920898;91.80245971679688
81;1673422603.330894;47.1306422;7.2406196;9.707000732421875;1673422603.397262;0.39413896203041077;-2.0253641605377197;91.9953384399414
82;1673422603.5288718;47.1306423;7.2406196;9.909000396728516;1673422603.5903535;0.2932174503803253;2.473912000656128;91.71920013427734
83;1673422603.729168;47.1306423;7.2406196;10.110000610351562;1673422603.7984703;-0.04940313473343849;-0.5164433121681213;92.080078125
84;1673422603.925971;47.1306423;7.2406196;10.356000900268555;1673422603.9990323;-0.04127408564090729;-2.8457725048065186;92.00932312011719
85;1673422604.129557;47.1306422;7.2406196;10.700000762939453;1673422604.182364;-0.6156744360923767;1.044198989868164;91.75617218017578
86;1673422604.315767;47.1306422;7.2406196;11.07800006866455;1673422604.3797436;-0.4661739468574524;1.0707303285598755;91.79328155517578
87;1673422604.5122097;47.1306423;7.2406196;11.473000526428223;1673422604.5709999;-0.10215940326452255;-2.930342197418213;92.12554168701172
88;1673422604.720884;47.1306424;7.2406197;11.869000434875488;1673422604.7799814;0.6156141757965088;0.5265282988548279;92.03532409667969
89;1673422604.9322534;47.1306424;7.240619799999999;12.268000602722168;1673422605.0040781;0.6999232769012451;1.8113750219345093;92.03778076171875
90;1673422605.167916;47.1306423;7.240619799999999;12.664000511169434;1673422605.2284305;0.6151208877563477;-1.841215968132019;91.97969055175781
91;1673422605.3506155;47.1306422;7.2406198999999996;13.064001083374023;1673422605.4033644;0.41147753596305847;-1.3738301992416382;92.00446319580078
92;1673422605.5313966;47.1306422;7.2406198999999996;13.467000961303711;1673422605.590972;-0.135272815823555;1.7463382482528687;91.71617126464844
93;1673422605.7203553;47.1306422;7.2406198999999996;13.871000289916992;1673422605.7882454;-0.15543900430202484;-1.0704809427261353;92.05409240722656
94;1673422605.9138172;47.1306424;7.2406198999999996;14.270000457763672;1673422605.9759946;-0.12911634147167206;-1.5354255437850952;92.14778137207031
95;1673422606.104627;47.1306425;7.2406198999999996;14.668000221252441;1673422606.1715596;0.04635884612798691;2.682072877883911;91.77521514892578
96;1673422606.3040595;47.1306425;7.2406198999999996;15.067000389099121;1673422606.3760092;0.09349946677684784;-0.22958233952522278;91.98477172851562
97;1673422606.5122626;47.1306425;7.2406198999999996;15.469000816345215;1673422606.6046274;0.2638813257217407;-2.669276237487793;92.00648498535156
98;1673422606.7366803;47.1306424;7.24062;15.873001098632812;1673422606.8011217;0.40721455216407776;1.0832818746566772;91.81563568115234
99;1673422606.927822;47.1306424;7.24062;16.284000396728516;1673422606.9899757;0.21928469836711884;1.1689976453781128;91.86714935302734
100;1673422607.121438;47.1306424;7.2406201;16.69300079345703;1673422607.19128;-0.1816316694021225;-2.3387856483459473;92.26600646972656
101;1673422607.320963;47.1306425;7.2406201;17.100000381469727;1673422607.3878913;-0.23404207825660706;0.36374711990356445;91.94789123535156
102;1673422607.521818;47.1306424;7.24062;17.509000778198242;1673422607.5862837;-0.42855992913246155;1.860582709312439;91.81698608398438
103;1673422607.7457201;47.1306424;7.24062;17.911001205444336;1673422607.8013802;-0.24355746805667877;-2.728153944015503;91.9627914428711
104;1673422607.9269989;47.1306424;7.24062;18.31800079345703;1673422607.9862406;-0.11518566310405731;-0.9503083825111389;91.9937744140625
105;1673422608.1000738;47.1306423;7.24062;18.72800064086914;1673422608.170955;0.2705242931842804;2.0948097705841064;91.93406677246094
106;1673422608.3121245;47.1306423;7.24062;19.137001037597656;1673422608.3792343;0.1461610198020935;-1.864597201347351;91.97610473632812
107;1673422608.5292597;47.1306425;7.24062;19.545000076293945;1673422608.59523;0.35282087326049805;-1.6755558252334595;92.03013610839844
108;1673422608.734575;47.1306425;7.24062;19.955001831054688;1673422608.802476;0.1742003858089447;2.2813873291015625;91.87127685546875
109;1673422608.9472914;47.1306425;7.24062;20.362001419067383;1673422609.0265794;-0.04054795578122139;-0.046912822872400284;91.99170684814453
110;1673422609.1467886;47.1306425;7.24062;20.773000717163086;1673422609.2113466;-0.17509205639362335;-2.572850227355957;92.09613800048828
111;1673422609.3383603;47.1306425;7.24062;21.179000854492188;1673422609.406721;-0.05690908804535866;1.4970030784606934;91.80990600585938
112;1673422609.5321932;47.1306425;7.2406198999999996;21.589000701904297;1673422609.6051137;-0.12838560342788696;0.5149233341217041;91.8770523071289
113;1673422609.7634206;47.130642599999995;7.24062;22.001001358032227;1673422609.825926;0.31048130989074707;-2.4132137298583984;92.00552368164062
114;1673422609.9579806;47.130642599999995;7.2406198999999996;22.416000366210938;1673422610.010697;0.5170924067497253;0.8789450526237488;91.99370574951172
115;1673422610.1417394;47.130642599999995;7.2406198999999996;22.82900047302246;1673422610.2042036;0.4433673024177551;1.6701959371566772;91.90170288085938
116;1673422610.332717;47.1306425;7.2406198999999996;23.23200035095215;1673422610.401646;0.41215646266937256;-2.5393171310424805;92.06961059570312
117;1673422610.5291753;47.1306425;7.2406198999999996;23.63800048828125;1673422610.5902085;0.16891153156757355;-0.7083163261413574;91.77999877929688
118;1673422610.7225122;47.1306425;7.240619799999999;24.04800033569336;1673422610.7855275;-0.31873711943626404;2.188204288482666;91.82547760009766
119;1673422610.9286835;47.130642599999995;7.240619799999999;24.457000732421875;1673422611.00074;-0.41835954785346985;-1.8468517065048218;92.11418151855469
120;1673422611.1504657;47.130642699999996;7.2406197;24.865001678466797;1673422611.214945;-0.5036405324935913;-1.2972818613052368;92.11311340332031
121;1673422611.363594;47.130642699999996;7.2406197;25.2710018157959;1673422611.4251118;-0.09903649985790253;2.6236166954040527;91.75249481201172
122;1673422611.5454607;47.130642699999996;7.2406197;25.666000366210938;1673422611.6109579;0.06695707142353058;-0.1383332908153534;91.9429931640625
123;1673422611.7365842;47.130642599999995;7.2406197;26.06100082397461;1673422611.804588;0.2795965075492859;-2.520517349243164;92.01342010498047
124;1673422611.9265318;47.130642599999995;7.2406197;26.4580020904541;1673422611.9930391;0.21488432586193085;1.496755838394165;91.76107025146484
125;1673422612.1307127;47.130642599999995;7.2406197;26.85900115966797;1673422612.1942337;-0.1319822520017624;0.48492276668548584;91.95911407470703
126;1673422612.3178473;47.130642699999996;7.2406197;27.26000213623047;1673422612.3819947;-0.3241041600704193;-2.10891056060791;92.16304779052734
127;1673422612.5247648;47.1306428;7.2406197;27.658000946044922;1673422612.5956411;-0.5805333852767944;1.4542921781539917;92.0069351196289
128;1673422612.7241514;47.130642699999996;7.2406196;28.054000854492188;1673422612.79024;-0.393799751996994;1.304778814315796;91.68788146972656
129;1673422612.965846;47.130642699999996;7.2406196;28.442001342773438;1673422613.0264027;-0.06356580555438995;-2.7313129901885986;92.1500244140625
130;1673422613.1751084;47.130642599999995;7.2406197;28.836000442504883;1673422613.2541802;0.23670892417430878;0.2750398814678192;91.9729232788086
131;1673422613.3807895;47.130642599999995;7.2406196;29.229001998901367;1673422613.4316018;0.37364885210990906;2.2893543243408203;91.90058898925781
132;1673422613.5563753;47.130642699999996;7.2406197;29.625001907348633;1673422613.644049;0.15920251607894897;-2.0715408325195312;92.0328598022461
133;1673422613.7838132;47.1306428;7.2406197;30.0210018157959;1673422613.8396232;0.024163126945495605;-0.7551993131637573;91.96683502197266
134;1673422613.9669182;47.1306428;7.2406197;30.418001174926758;1673422614.025675;-0.5287396907806396;2.514450788497925;91.67257690429688
135;1673422614.1453862;47.130642699999996;7.2406197;30.806001663208008;1673422614.207408;-0.5921417474746704;-1.1910401582717896;92.01042938232422
136;1673422614.343016;47.130642599999995;7.2406197;31.197002410888672;1673422614.415942;0.14009258151054382;-1.700278401374817;92.1075439453125
137;1673422614.5406222;47.1306425;7.2406197;31.586002349853516;1673422614.602675;0.08381082117557526;1.9609692096710205;91.85936737060547
138;1673422614.7624776;47.1306425;7.2406197;31.97500228881836;1673422614.8232348;0.18717655539512634;-0.7619107961654663;91.95794677734375
139;1673422614.9529042;47.130642599999995;7.2406197;32.36300277709961;1673422615.0156002;0.2641122341156006;-2.0222721099853516;92.03237915039062
140;1673422615.1472058;47.130642699999996;7.2406197;32.755001068115234;1673422615.2098012;0.12292107939720154;2.1412160396575928;91.85411071777344
141;1673422615.3353999;47.130642599999995;7.2406197;33.14800262451172;1673422615.3964593;-0.1418958455324173;0.6943174004554749;91.89258575439453
142;1673422615.5347102;47.1306425;7.2406197;33.53700256347656;1673422615.5996854;-0.650199294090271;-2.9099435806274414;92.21691131591797
143;1673422615.7283275;47.1306425;7.2406196;33.930999755859375;1673422615.798205;-0.6062701344490051;0.9989949464797974;91.86605072021484
144;1673422615.9357598;47.1306424;7.2406196;34.33500289916992;1673422616.00231;-0.23220869898796082;1.1597791910171509;91.854736328125
145;1673422616.1268616;47.1306425;7.2406196;34.737003326416016;1673422616.1979427;0.20548613369464874;-2.6009092330932617;91.9143295288086
146;1673422616.3256006;47.130642699999996;7.2406196;35.138999938964844;1673422616.3967798;0.273028165102005;0.6908527612686157;92.01993560791016
147;1673422616.5610688;47.130642599999995;7.2406196;35.538002014160156;1673422616.6217067;0.2184520661830902;2.089167594909668;91.99629211425781
148;1673422616.8016865;47.130642599999995;7.2406197;35.93000030517578;1673422616.8539484;0.04477541148662567;-2.061858654022217;92.04316711425781
149;1673422616.9825559;47.1306425;7.2406197;36.32500076293945;1673422617.049103;0.025016259402036667;-1.4247745275497437;91.9084243774414
150;1673422617.1870868;47.1306425;7.2406197;36.724002838134766;1673422617.259598;-0.2409856766462326;1.9065622091293335;91.63301849365234
151;1673422617.3757808;47.130642599999995;7.2406197;37.124000549316406;1673422617.429461;-0.26459038257598877;-0.8287426829338074;92.02625274658203
152;1673422617.547213;47.130642699999996;7.2406197;37.520999908447266;1673422617.6053514;-0.3390537202358246;-1.7572370767593384;92.13325500488281
153;1673422617.7300642;47.1306428;7.2406197;37.9170036315918;1673422617.7922015;-0.24103808403015137;2.1610183715820312;91.92322540283203
154;1673422617.9225554;47.1306428;7.2406197;38.31500244140625;1673422617.9866276;0.05371653288602829;0.7444766759872437;91.88240814208984
155;1673422618.1221216;47.130642699999996;7.240619799999999;38.704002380371094;1673422618.1915953;0.26302018761634827;-2.8047406673431396;92.05667114257812
156;1673422618.3361182;47.130642699999996;7.240619799999999;39.09600067138672;1673422618.4060864;0.14381366968154907;1.2252262830734253;91.92799377441406
157;1673422618.5400248;47.1306428;7.240619799999999;39.4900016784668;1673422618.6010876;0.009019371122121811;1.849966049194336;92.08951568603516
158;1673422618.7352507;47.1306429;7.2406198999999996;39.88900375366211;1673422618.803391;-0.4347133934497833;-2.1636061668395996;92.09098815917969
159;1673422618.9347935;47.130643;7.2406198999999996;40.284000396728516;1673422619.0039895;-0.4877112805843353;0.5308780074119568;91.93254852294922
160;1673422619.137595;47.130643;7.2406198999999996;40.676002502441406;1673422619.2080553;-0.3521201014518738;2.44653582572937;91.69223022460938
161;1673422619.3417976;47.1306429;7.2406198999999996;41.060001373291016;1673422619.4034116;-0.20165245234966278;-1.9208954572677612;91.97120666503906
162;1673422619.5339968;47.130642699999996;7.24062;41.444000244140625;1673422619.6044402;-0.0028948260005563498;-0.9051886200904846;92.03109741210938
163;1673422619.7379165;47.130642699999996;7.24062;41.83100128173828;1673422619.806853;0.27006301283836365;2.343851089477539;91.78114318847656
164;1673422619.944314;47.130642699999996;7.2406201;42.21900177001953;1673422620.011236;0.3703206479549408;-1.3255010843276978;92.01354217529297
165;1673422620.149606;47.1306428;7.2406201999999995;42.6140022277832;1673422620.2057977;0.4519481360912323;-1.5371421575546265;91.88516235351562
166;1673422620.3452063;47.1306428;7.2406201999999995;43.01000213623047;1673422620.403527;0.1989978402853012;2.6739206314086914;91.76898193359375
167;1673422620.5238094;47.1306428;7.2406201999999995;43.410003662109375;1673422620.5848527;-0.21110306680202484;-0.19447438418865204;91.96847534179688
168;1673422620.7073996;47.130642699999996;7.2406201;43.80500030517578;1673422620.7665772;-0.3831060230731964;-2.6825273036956787;92.1822738647461
169;1673422620.9066722;47.130642699999996;7.2406201;44.204002380371094;1673422620.9755652;-0.2231752723455429;1.695196270942688;91.89606475830078
170;1673422621.11292;47.130642699999996;7.24062;44.60600280761719;1673422621.1936798;-0.08181680738925934;0.8705546855926514;91.87368774414062
171;1673422621.3359427;47.1306428;7.2406198999999996;45.00800323486328;1673422621.3950448;0.053778886795043945;-2.6392037868499756;92.01396942138672
172;1673422621.5300357;47.1306428;7.2406198999999996;45.409000396728516;1673422621.5944889;0.3364505469799042;1.231539011001587;91.91961669921875
173;1673422621.7271326;47.1306428;7.2406198999999996;45.810001373291016;1673422621.7950208;0.2781805396080017;1.8220551013946533;91.94094848632812
174;1673422621.9281662;47.130642699999996;7.2406198999999996;46.20100402832031;1673422621.9951155;-0.003925650846213102;-2.618722438812256;92.12393951416016
175;1673422622.1525033;47.130642699999996;7.240619799999999;46.590003967285156;1673422622.2132235;-0.3963319957256317;-0.21392855048179626;91.94367980957031
176;1673422622.335741;47.130642699999996;7.240619799999999;46.98200225830078;1673422622.3969576;-0.48173853754997253;2.3126649856567383;91.70606994628906
177;1673422622.5567057;47.1306428;7.2406197;47.37700271606445;1673422622.617245;-0.4437970221042633;-1.77921724319458;92.12683868408203
178;1673422622.7448523;47.1306428;7.240619799999999;47.77000045776367;1673422622.809018;0.038066327571868896;-0.8044115304946899;91.98621368408203
179;1673422622.941974;47.1306428;7.240619799999999;48.152000427246094;1673422623.0074298;0.18057096004486084;3.202949047088623;91.81619262695312
180;1673422623.1224387;47.1306428;7.240619799999999;48.492000579833984;1673422623.1943154;-0.08934071660041809;-2.225512742996216;91.996337890625
181;1673422623.312265;47.130642699999996;7.240619799999999;48.77100372314453;1673422623.377911;-0.15621395409107208;-0.690309464931488;91.79280853271484
182;1673422623.5162103;47.130642699999996;7.240619799999999;49.00800323486328;1673422623.5802052;-0.24991068243980408;2.2841298580169678;91.98269653320312
183;1673422623.7156224;47.130642699999996;7.240619799999999;49.207000732421875;1673422623.7904515;-0.23942208290100098;-1.210573673248291;92.15726470947266
184;1673422623.927812;47.1306428;7.240619799999999;49.36900329589844;1673422623.9947717;12.203065872192383;10.57261848449707;94.51785278320312
185;1673422624.1407924;47.1306423;7.240619;49.51300048828125;1673422624.2096634;24.5274715423584;32.17559814453125;106.45994567871094
186;1673422624.3471098;47.1306405;7.2406160999999996;49.643001556396484;1673422624.405242;26.006139755249023;47.94632339477539;115.97425842285156
187;1673422624.5259082;47.1306365;7.2406095;49.746002197265625;1673422624.5958524;16.921131134033203;57.960662841796875;124.86371612548828
188;1673422624.7185113;47.130629899999995;7.2405992999999995;49.81500244140625;1673422624.781759;-2.3033809661865234;59.35651779174805;135.3506622314453
189;1673422624.919528;47.1306211;7.240585899999999;49.85700225830078;1673422624.99204;-17.823562622070312;52.86296844482422;146.53004455566406
190;1673422625.136096;47.1306102;7.24057;49.874000549316406;1673422625.2152226;-30.733558654785156;47.728416442871094;156.80357360839844
191;1673422625.3393326;47.130597599999994;7.2405520999999995;49.868003845214844;1673422625.4057887;-41.26420211791992;43.10529708862305;168.3340301513672
192;1673422625.5317707;47.1305835;7.2405323;49.858001708984375;1673422625.5977013;-48.06163024902344;36.9532356262207;-177.82669067382812
193;1673422625.7333255;47.130568;7.2405104;49.83000183105469;1673422625.803651;-48.46254348754883;26.99187660217285;-167.90013122558594
194;1673422625.9319496;47.1305518;7.240487099999999;49.77900314331055;1673422625.9949956;-47.02128601074219;21.61451530456543;-162.91778564453125
195;1673422626.1243768;47.1305349;7.2404627999999995;49.71900177001953;1673422626.1903253;-47.018310546875;15.847333908081055;-155.80941772460938
196;1673422626.3246744;47.1305177;7.2404379;49.66200256347656;1673422626.3955286;-46.748409271240234;11.061989784240723;-148.18727111816406
197;1673422626.5272307;47.1305001;7.2404123;49.608001708984375;1673422626.5932424;-45.0116081237793;4.539258003234863;-140.6241912841797
198;1673422626.7259705;47.1304826;7.240386399999999;49.58400344848633;1673422626.7899618;-46.370365142822266;2.9252700805664062;-135.03390502929688
199;1673422626.9135852;47.1304649;7.2403602;49.57500076293945;1673422626.9796832;-48.21977233886719;-5.586850166320801;-130.1090850830078
200;1673422627.114989;47.1304471;7.240334;49.57100296020508;1673422627.1926286;-46.91531753540039;-6.04181432723999;-133.4088134765625
201;1673422627.3201592;47.130429;7.2403078;49.573001861572266;1673422627.383146;-47.10668182373047;-4.803750514984131;-135.94239807128906
202;1673422627.5116425;47.130410399999995;7.240281899999999;49.5780029296875;1673422627.578597;-47.236061096191406;-3.7940056324005127;-136.8877410888672
203;1673422627.7158508;47.130391499999995;7.2402562999999995;49.59800338745117;1673422627.7857387;-47.79353713989258;-2.198749303817749;-137.68869018554688
204;1673422627.919067;47.1303724;7.240230899999999;49.62200164794922;1673422627.9830725;-48.74122619628906;-1.1535537242889404;-138.0203094482422
205;1673422628.1106012;47.1303531;7.2402055999999995;49.6510009765625;1673422628.183411;-49.13687515258789;0.013623750768601894;-138.44651794433594
206;1673422628.32934;47.1303336;7.240180199999999;49.68400192260742;1673422628.4255283;-49.70909118652344;0.5453882217407227;-138.4862518310547
207;1673422628.578871;47.1303139;7.2401547;49.704002380371094;1673422628.655977;-48.9923210144043;0.7330295443534851;-138.3519287109375
208;1673422628.7929597;47.130294199999994;7.240129;49.724002838134766;1673422628.8479602;-47.9779167175293;0.6251160502433777;-138.10108947753906
209;1673422628.9640625;47.130274299999996;7.2401031;49.73800277709961;1673422629.0280454;-47.86427307128906;0.6122697591781616;-137.90591430664062
210;1673422629.150755;47.1302546;7.2400772;49.75400161743164;1673422629.2118626;-48.06109619140625;0.46534737944602966;-137.72398376464844
211;1673422629.3326786;47.1302348;7.2400512;49.76700210571289;1673422629.3928077;-48.24915313720703;0.4469667673110962;-137.59141540527344
212;1673422629.5222263;47.130215;7.240024999999999;49.775001525878906;1673422629.5872233;-48.13310241699219;0.3515269160270691;-137.45474243164062
213;1673422629.7227535;47.1301953;7.2399989;49.775001525878906;1673422629.7918415;-47.470088958740234;0.32230687141418457;-137.36058044433594
214;1673422629.9242759;47.1301756;7.2399726;49.7760009765625;1673422629.990039;-47.20515060424805;0.22696632146835327;-137.27529907226562
215;1673422630.1330824;47.1301559;7.2399463;49.78200149536133;1673422630.2020245;-47.62889099121094;0.14396843314170837;-137.21888732910156
216;1673422630.337426;47.1301363;7.239919899999999;49.7920036315918;1673422630.399696;-48.22459411621094;0.1485273838043213;-137.188720703125
217;1673422630.5319276;47.1301166;7.2398935;49.80600357055664;1673422630.5998716;-48.59661865234375;0.16683407127857208;-137.1746368408203
218;1673422630.7312512;47.130097;7.239866999999999;49.816001892089844;1673422630.7962723;-48.34016799926758;0.14103898406028748;-137.14500427246094
219;1673422630.9313793;47.1300774;7.2398405;49.82400131225586;1673422630.994933;-48.072479248046875;-0.033545807003974915;-137.03440856933594
220;1673422631.1428592;47.130057799999996;7.239814;49.82500076293945;1673422631.2040172;-47.83057403564453;0.08042444288730621;-137.07546997070312
221;1673422631.3609793;47.1300382;7.239787499999999;49.8280029296875;1673422631.4347231;-47.87889862060547;-0.005972724873572588;-137.02830505371094
222;1673422631.5603576;47.1300185;7.239760899999999;49.83100128173828;1673422631.618598;-47.99805450439453;0.03176727518439293;-137.02247619628906
223;1673422631.7451959;47.129999;7.239734299999999;49.836002349853516;1673422631.807239;-48.067081451416016;0.040104079991579056;-137.0124053955078
224;1673422631.95992;47.129979399999996;7.239707699999999;49.84400177001953;1673422632.0214415;-48.32400894165039;-0.005105301737785339;-137.00881958007812
225;1673422632.1449928;47.129959799999995;7.239681099999999;49.85100173950195;1673422632.2002132;-48.402366638183594;0.02043464221060276;-136.98069763183594
226;1673422632.3189707;47.1299402;7.2396544;49.85200119018555;1673422632.396671;-48.07759475708008;0.07677944004535675;-136.98956298828125
227;1673422632.545532;47.1299206;7.2396277;49.85100173950195;1673422632.6070814;-47.840118408203125;0.08448167890310287;-136.98141479492188
228;1673422632.7326639;47.129900899999996;7.2396009999999995;49.85200119018555;1673422632.7927604;-47.93775939941406;0.1506173312664032;-136.9875030517578
229;1673422632.9250722;47.1298813;7.239574299999999;49.85100173950195;1673422632.9940817;-48.087799072265625;0.0679500624537468;-136.91905212402344
230;1673422633.130545;47.1298617;7.2395476;49.849002838134766;1673422633.2004237;-48.02017593383789;0.06960451602935791;-136.9576416015625
231;1673422633.3502083;47.1298422;7.239520799999999;49.85200119018555;1673422633.4121299;-48.02602767944336;-0.01636842079460621;-136.93716430664062
232;1673422633.548453;47.1298226;7.239494;49.85700225830078;1673422633.6104786;-48.24660110473633;-0.05159623548388481;-136.92604064941406
233;1673422633.7681713;47.1298031;7.2394672;49.86000061035156;1673422633.8322194;-48.329044342041016;-0.04278552159667015;-136.92822265625
234;1673422633.979257;47.129783499999995;7.239440399999999;49.8640022277832;1673422634.0412905;-48.260032653808594;-0.03076017275452614;-136.95156860351562
235;1673422634.1690526;47.129763999999994;7.2394137;49.868003845214844;1673422634.2300363;-48.162044525146484;-0.06757988035678864;-136.93154907226562
236;1673422634.366433;47.1297445;7.2393868999999995;49.868003845214844;1673422634.4284785;-47.96085739135742;-0.018357127904891968;-136.959716796875
237;1673422634.557844;47.1297249;7.239360199999999;49.867000579833984;1673422634.621961;-47.897281646728516;0.045491352677345276;-136.98187255859375
238;1673422634.7535114;47.1297053;7.2393334;49.871002197265625;1673422634.8184795;-48.02582550048828;0.007010999601334333;-136.94607543945312
239;1673422634.9514022;47.1296858;7.2393066;49.875003814697266;1673422635.016852;-48.08015060424805;0.024152904748916626;-136.9650421142578
240;1673422635.1460824;47.129666199999996;7.239279799999999;49.88300323486328;1673422635.210073;-48.14754867553711;-0.0593021996319294;-136.93063354492188
241;1673422635.3331127;47.129646699999995;7.239252899999999;49.887001037597656;1673422635.4074326;-48.08905792236328;-0.04886889085173607;-136.9306182861328
242;1673422635.5477972;47.1296271;7.2392261;49.893001556396484;1673422635.6084406;-48.01625442504883;-0.006409813184291124;-136.97433471679688
243;1673422635.732849;47.1296075;7.2391993;49.89900207519531;1673422635.7967904;-48.145442962646484;-0.03524665907025337;-136.94512939453125
244;1673422635.9341755;47.129588;7.239172399999999;49.90300369262695;1673422635.995352;-48.18413543701172;-0.06601347029209137;-136.94981384277344
245;1673422636.1316621;47.1295684;7.2391456;49.90500259399414;1673422636.2016652;-48.044883728027344;0.013518915511667728;-136.9867706298828
246;1673422636.3360486;47.129548899999996;7.2391188;49.90800094604492;1673422636.4020228;-47.97587966918945;-0.04709862917661667;-136.957275390625
247;1673422636.527018;47.129529299999994;7.2390919;49.91200256347656;1673422636.5940554;-47.970760345458984;-0.0621262826025486;-136.97372436523438
248;1673422636.7289948;47.1295098;7.2390650999999995;49.919002532958984;1673422636.795616;-48.22423553466797;0.008478567004203796;-136.9946746826172
249;1673422636.9379292;47.1294902;7.2390384;49.923004150390625;1673422637.0011775;-48.2213020324707;-0.09740059077739716;-136.94403076171875
250;1673422637.1403344;47.1294707;7.2390115999999995;49.927001953125;1673422637.2112212;-48.06774139404297;0.02882063202559948;-136.99325561523438
251;1673422637.3435986;47.1294511;7.2389848;49.92900085449219;1673422637.4085696;-47.86307144165039;-0.010096575133502483;-136.96900939941406
252;1673422637.5448747;47.129431499999995;7.238957999999999;49.93100357055664;1673422637.6010711;-47.86703872680664;-0.304830938577652;-136.88890075683594
253;1673422637.729505;47.1294119;7.238931099999999;49.93100357055664;1673422637.7905438;-48.04130935668945;1.0635937452316284;-137.3311004638672
254;1673422637.9211228;47.1293923;7.2389043;49.932003021240234;1673422637.9855983;-47.76413345336914;-0.12362616509199142;-136.77792358398438
255;1673422638.1204493;47.1293727;7.2388774;49.932003021240234;1673422638.1893208;-47.38904571533203;-0.5973626971244812;-136.76600646972656
256;1673422638.3227417;47.1293532;7.2388505;49.93800354003906;1673422638.3994668;-47.966583251953125;-0.45991358160972595;-136.80027770996094
257;1673422638.539632;47.129333599999995;7.238823699999999;49.94400405883789;1673422638.602638;-48.37997055053711;-0.2742215096950531;-136.95724487304688
258;1673422638.732208;47.129314;7.2387969;49.952003479003906;1673422638.8001094;-48.36312484741211;-0.16645856201648712;-136.93727111816406
259;1673422638.934444;47.1292944;7.2387701;49.961002349853516;1673422639.001424;-42.15727233886719;-0.41016435623168945;-136.82505798339844
260;1673422639.1356714;47.1292749;7.2387435;49.99100112915039;1673422639.1987686;-29.701335906982422;-0.22681647539138794;-136.62515258789062
261;1673422639.3272128;47.1292561;7.2387179999999995;50.0160026550293;1673422639.3951144;-12.608638763427734;0.4787565767765045;-136.6795654296875
262;1673422639.5233135;47.129238699999995;7.2386943;50.02800369262695;1673422639.5867844;0.7724174857139587;0.5950407981872559;-136.4261016845703
263;1673422639.7504303;47.1292231;7.2386731;50.03000259399414;1673422639.8140311;10.13940143585205;0.10070685297250748;-136.1746063232422
264;1673422639.9376638;47.1292098;7.2386551;50.01700210571289;1673422640.0117111;14.945243835449219;2.7512099742889404;-137.1780242919922
265;1673422640.1583493;47.1291991;7.238640299999999;49.98600387573242;1673422640.2254515;19.598783493041992;0.4424757659435272;-137.86019897460938
266;1673422640.3581975;47.1291905;7.2386284;49.923004150390625;1673422640.416353;20.164915084838867;0.4549657106399536;-138.45338439941406
267;1673422640.54385;47.1291837;7.238619099999999;49.832000732421875;1673422640.6040685;15.319391250610352;-2.657614231109619;-137.712158203125
268;1673422640.745888;47.129178499999995;7.2386118999999995;49.72900390625;1673422640.8113956;10.848814010620117;-3.726351261138916;-137.10256958007812
269;1673422640.945825;47.1291745;7.2386063;49.617000579833984;1673422641.0040154;-0.5386876463890076;1.6724622249603271;-137.20298767089844
270;1673422641.1324723;47.1291714;7.238601999999999;49.505001068115234;1673422641.2098925;-10.20421028137207;4.158999919891357;-137.05947875976562
271;1673422641.378888;47.1291685;7.238598;49.42100143432617;1673422641.446235;-12.97058391571045;3.2482855319976807;-136.91685485839844
272;1673422641.577425;47.1291654;7.2385934999999995;49.41200256347656;1673422641.632888;-14.541162490844727;1.764788031578064;-136.88674926757812
273;1673422641.7825048;47.129162199999996;7.2385886;49.46000289916992;1673422641.8593826;-10.780317306518555;-1.2065339088439941;-136.82254028320312
274;1673422641.9875636;47.129159;7.2385835;49.5410041809082;1673422642.0457265;-6.327732563018799;-2.5739924907684326;-137.2122039794922
275;1673422642.1683345;47.1291558;7.238578599999999;49.63200378417969;1673422642.2352636;-5.498646259307861;-2.649627208709717;-137.52557373046875
276;1673422642.360813;47.1291526;7.238574099999999;49.750003814697266;1673422642.4258096;-29.551437377929688;1.1632356643676758;-137.69158935546875
277;1673422642.5631204;47.129149;7.238569;49.90900421142578;1673422642.632025;-23.75847816467285;2.356463670730591;-137.00775146484375
278;1673422642.7655232;47.1291446;7.238562699999999;50.13100051879883;1673422642.8276377;-16.039823532104492;3.3956284523010254;-137.71743774414062
279;1673422642.950994;47.1291398;7.238556;50.43400192260742;1673422643.0115674;-17.64971923828125;3.053614616394043;-137.87353515625
280;1673422643.1360803;47.1291346;7.2385487;50.81200408935547;1673422643.2119951;-41.28249740600586;-1.740594506263733;-138.10157775878906
281;1673422643.3455434;47.1291283;7.2385398;51.2130012512207;1673422643.4027343;-40.67951202392578;-2.9598283767700195;-137.36241149902344
282;1673422643.527456;47.1291206;7.2385293;51.61300277709961;1673422643.5948026;-38.53807830810547;-2.6566405296325684;-136.55455017089844
283;1673422643.734275;47.1291119;7.2385174;51.99800109863281;1673422643.8021824;-34.418731689453125;-1.7559630870819092;-136.6881103515625
284;1673422643.948095;47.129102499999995;7.2385047;52.3640022277832;1673422644.0218732;-30.59986114501953;0.6480992436408997;-136.95777893066406
285;1673422644.162205;47.1290926;7.238491499999999;52.72200393676758;1673422644.22429;-27.437719345092773;2.1080243587493896;-137.30616760253906
286;1673422644.3694465;47.129082499999996;7.238478199999999;53.082000732421875;1673422644.4522643;-25.665264129638672;3.051995038986206;-137.5472412109375
287;1673422644.5942192;47.1290723;7.2384647;53.445003509521484;1673422644.6518831;-24.81052589416504;2.1226344108581543;-137.595703125
288;1673422644.780702;47.1290622;7.2384511;53.810001373291016;1673422644.8647337;-24.446788787841797;0.6372657418251038;-137.27565002441406
289;1673422644.997407;47.1290522;7.238437599999999;54.18100357055664;1673422645.0540242;-24.483299255371094;-0.21191798150539398;-137.29811096191406
290;1673422645.181445;47.1290425;7.238423999999999;54.55800247192383;1673422645.2503135;-24.537017822265625;-1.2021490335464478;-137.2406005859375
291;1673422645.3699574;47.1290328;7.2384105;54.93600082397461;1673422645.4359405;-24.836814880371094;-1.120210886001587;-137.23934936523438
292;1673422645.5890317;47.1290232;7.2383972;55.316001892089844;1673422645.6500885;-25.082632064819336;0.5089702010154724;-137.51055908203125
293;1673422645.7767668;47.1290135;7.2383839;55.698001861572266;1673422645.8389664;-25.246135711669922;1.9966500997543335;-137.94264221191406
294;1673422645.9974458;47.1290038;7.238370499999999;56.08400344848633;1673422646.0521648;-25.50556182861328;2.6711862087249756;-138.02322387695312
295;1673422646.1766715;47.1289941;7.238357199999999;56.47300338745117;1673422646.2367506;-25.606216430664062;3.02565336227417;-138.0891571044922
296;1673422646.3526273;47.1289845;7.2383438;56.8650016784668;1673422646.411765;-25.53137969970703;1.7975986003875732;-137.81201171875
297;1673422646.5704622;47.128974799999995;7.2383304;57.259002685546875;1673422646.6248076;-25.550827026367188;0.49194249510765076;-137.33572387695312
298;1673422646.7544239;47.128965099999995;7.2383171;57.650001525878906;1673422646.8155222;-25.813386917114258;-1.0532946586608887;-137.0977783203125
299;1673422646.9471962;47.1289556;7.2383036;58.044002532958984;1673422647.0124226;-25.761137008666992;-2.1019415855407715;-137.15261840820312
300;1673422647.1440206;47.128946;7.2382900999999995;58.436004638671875;1673422647.2115536;-25.509174346923828;-2.2886605262756348;-137.16293334960938
301;1673422647.3501208;47.1289364;7.2382766;58.82400131225586;1673422647.41476;-25.671253204345703;-1.1087851524353027;-137.56675720214844
302;1673422647.5401132;47.128926799999995;7.238263099999999;59.211002349853516;1673422647.6031344;-25.604848861694336;-0.28462016582489014;-137.77149963378906
303;1673422647.7453606;47.128917099999995;7.2382497;59.59800338745117;1673422647.8095794;-25.821828842163086;1.022235631942749;-137.9010772705078
304;1673422647.9498284;47.128907399999996;7.2382364;59.98600387573242;1673422648.0214486;-25.936567306518555;1.6684041023254395;-137.77972412109375
305;1673422648.1489406;47.128897599999995;7.238223199999999;60.37600326538086;1673422648.2140143;-26.02410888671875;2.4012959003448486;-137.87059020996094
306;1673422648.3403103;47.1288877;7.23821;60.76700210571289;1673422648.40634;-26.274873733520508;2.594944715499878;-137.69857788085938
307;1673422648.541604;47.1288779;7.2381968;61.15800476074219;1673422648.613446;-26.299243927001953;2.5627553462982178;-137.60630798339844
308;1673422648.7440145;47.128868;7.2381835;61.54700469970703;1673422648.8119144;-26.348514556884766;1.6996123790740967;-137.40174865722656
309;1673422648.9491117;47.128858199999996;7.2381701;61.94200134277344;1673422649.0160098;-26.395036697387695;0.609963595867157;-137.16641235351562
310;1673422649.1465178;47.1288483;7.2381566;62.33700180053711;1673422649.1992245;-26.32329750061035;-0.5330929160118103;-136.99130249023438
311;1673422649.3312013;47.1288385;7.238143099999999;62.72900390625;1673422649.3975863;-26.366857528686523;-1.255890965461731;-136.71652221679688
312;1673422649.532448;47.1288287;7.238129499999999;63.12300109863281;1673422649.6017716;-26.256546020507812;-1.8994578123092651;-136.73890686035156
313;1673422649.746237;47.128819;7.2381158;63.51700210571289;1673422649.8198578;-26.060134887695312;-1.9684399366378784;-136.76515197753906
314;1673422649.9541583;47.1288092;7.2381021;63.91200256347656;1673422650.0249863;-26.00419044494629;-2.1882872581481934;-136.6119384765625
315;1673422650.1467512;47.1287994;7.2380885;64.30900573730469;1673422650.2165904;-26.0302734375;-1.5647391080856323;-136.7801513671875
316;1673422650.3352318;47.1287896;7.2380749;64.70600128173828;1673422650.3953428;-26.04932975769043;-1.1938539743423462;-136.93714904785156
317;1673422650.5298498;47.128779699999996;7.2380615;65.09900665283203;1673422650.5991476;-26.15720558166504;-0.4055551290512085;-137.02110290527344
318;1673422650.7447538;47.1287698;7.238048099999999;65.49400329589844;1673422650.8165956;-26.23748779296875;0.4046649932861328;-137.11607360839844
319;1673422650.9518523;47.1287599;7.238034799999999;65.88800048828125;1673422651.0129771;-26.27821159362793;0.49347153306007385;-137.07662963867188
320;1673422651.1433258;47.128749899999995;7.238021499999999;66.2820053100586;1673422651.2057955;-26.32295036315918;1.287540078163147;-137.12017822265625
321;1673422651.351136;47.12874;7.2380081;66.67500305175781;1673422651.4161038;-26.532991409301758;1.091919183731079;-136.99334716796875
322;1673422651.5387962;47.1287301;7.2379945999999995;67.06700134277344;1673422651.6052878;-26.321977615356445;1.5567516088485718;-137.0780029296875
323;1673422651.733413;47.1287202;7.2379811;67.46300506591797;1673422651.8046753;-26.64186668395996;1.7337417602539062;-137.17715454101562
324;1673422651.94164;47.128710299999995;7.2379675;67.85900115966797;1673422652.010448;-26.550350189208984;1.7556111812591553;-137.18075561523438
325;1673422652.1370652;47.1287005;7.2379539;68.2560043334961;1673422652.196629;-26.551563262939453;1.621586799621582;-137.2708740234375
326;1673422652.3373163;47.1286906;7.2379403;68.6510009765625;1673422652.4056413;-26.601598739624023;1.451665997505188;-137.2031707763672
327;1673422652.530725;47.1286807;7.2379266;69.04700469970703;1673422652.597158;-26.674846649169922;1.1889381408691406;-137.1744842529297
328;1673422652.7393293;47.128670899999996;7.237913;69.44700622558594;1673422652.8038564;-26.746673583984375;1.1610395908355713;-137.14369201660156
329;1673422652.9386728;47.128661;7.2378994;69.84000396728516;1673422653.0468416;-26.80020523071289;1.0106959342956543;-137.13034057617188
330;1673422653.1617842;47.128651;7.2378857;70.23300170898438;1673422653.22942;-26.836694717407227;1.047044038772583;-137.10940551757812
331;1673422653.3656454;47.128641099999996;7.237871999999999;70.6290054321289;1673422653.4481857;-26.9381103515625;1.0611069202423096;-137.0821075439453
332;1673422653.576606;47.1286312;7.2378583;71.02900695800781;1673422653.6771748;-26.56153678894043;0.9395328164100647;-136.9326629638672
333;1673422653.8014584;47.1286212;7.2378445;71.4260025024414;1673422653.88751;-26.488128662109375;0.7512034177780151;-136.9708251953125
334;1673422654.0246246;47.128611299999996;7.237830799999999;71.8270034790039;1673422654.078464;-26.494701385498047;0.7768978476524353;-137.06285095214844
335;1673422654.2085173;47.1286013;7.237817199999999;72.2280044555664;1673422654.2647388;-26.632478713989258;0.5697968602180481;-137.0430908203125
336;1673422654.3844204;47.1285914;7.2378035;72.6290054321289;1673422654.4377615;-26.671560287475586;0.3745476007461548;-136.92689514160156
337;1673422654.5614524;47.128581399999995;7.2377899;73.0260009765625;1673422654.6256063;-26.84811782836914;0.39468520879745483;-136.8649139404297
338;1673422654.7560396;47.1285715;7.2377762;73.42400360107422;1673422654.8208978;-27.049396514892578;0.24435846507549286;-136.84796142578125
339;1673422654.9367137;47.1285616;7.2377625;73.82400512695312;1673422655.0007687;-27.14617156982422;0.2399844229221344;-136.8367919921875
340;1673422655.134286;47.128551699999996;7.237748799999999;74.22000122070312;1673422655.2096865;-26.997718811035156;0.04475241154432297;-136.86666870117188
341;1673422655.3517022;47.1285417;7.2377351;74.62100219726562;1673422655.419714;-26.952512741088867;-0.13197749853134155;-136.86032104492188
342;1673422655.56767;47.1285318;7.2377214;75.0250015258789;1673422655.6336622;-26.870441436767578;0.04951716586947441;-136.87586975097656
343;1673422655.7660275;47.128521799999994;7.2377077;75.42400360107422;1673422655.8253694;-26.85544204711914;-0.16980485618114471;-136.83399963378906
344;1673422655.9521146;47.1285118;7.2376941;75.82300567626953;1673422656.0181248;-27.013938903808594;-0.01942058652639389;-136.84677124023438
345;1673422656.1467524;47.128501799999995;7.2376803999999995;76.22100067138672;1673422656.2121983;-27.004695892333984;-0.1406189203262329;-136.85997009277344
346;1673422656.3434036;47.1284918;7.2376666;76.61700439453125;1673422656.407996;-26.8548641204834;0.08718477934598923;-136.90220642089844
347;1673422656.543301;47.128481799999996;7.2376529;77.01100158691406;1673422656.6096675;-26.731094360351562;0.05031957849860191;-136.90078735351562
348;1673422656.7514622;47.1284719;7.2376393;77.40800476074219;1673422656.8215477;-26.628002166748047;0.24739240109920502;-136.93460083007812
349;1673422656.9552042;47.1284619;7.237625599999999;77.8060073852539;1673422657.0207212;-26.669458389282227;0.09435445815324783;-136.86988830566406
350;1673422657.1561117;47.128451899999995;7.2376119999999995;78.2020034790039;1673422657.2183099;-26.82806968688965;0.07257555425167084;-136.8667449951172
351;1673422657.3496623;47.128442;7.2375983999999995;78.60200500488281;1673422657.4282916;-26.889606475830078;0.25571760535240173;-136.90675354003906
352;1673422657.5555098;47.1284321;7.237584699999999;79.00200653076172;1673422657.6316814;-26.88115692138672;0.16990090906620026;-136.8876953125
353;1673422657.7612267;47.128422199999996;7.237571;79.40300750732422;1673422657.8271668;-26.719459533691406;0.1567884385585785;-136.92860412597656
354;1673422657.9622824;47.1284122;7.2375574;79.802001953125;1673422658.0273094;-26.74386978149414;0.22971707582473755;-136.92538452148438
355;1673422658.209976;47.1284023;7.2375437;80.20600128173828;1673422658.2802706;-26.82716941833496;0.12717752158641815;-136.88552856445312
356;1673422658.396357;47.128392399999996;7.2375301;80.6050033569336;1673422658.473005;-26.81915283203125;0.21444100141525269;-136.89682006835938
357;1673422658.6205516;47.1283825;7.2375164;81.00100708007812;1673422658.6761842;-26.71014404296875;0.1930077224969864;-136.93569946289062
358;1673422658.7909498;47.1283725;7.2375028;81.39600372314453;1673422658.849083;-26.645893096923828;0.15018601715564728;-136.8907012939453
359;1673422658.9714248;47.128362599999996;7.2374890999999995;81.79500579833984;1673422659.0306296;-26.6124210357666;0.2890109121799469;-136.93353271484375
360;1673422659.1454427;47.1283527;7.2374754;82.19800567626953;1673422659.2079186;-26.654016494750977;0.20553602278232574;-136.9139404296875
361;1673422659.3506396;47.1283428;7.237461799999999;82.60100555419922;1673422659.4121385;-26.833154678344727;-0.007861043326556683;-136.90664672851562
362;1673422659.5469494;47.128333;7.2374481;82.99800109863281;1673422659.6162622;-26.807281494140625;0.1899041384458542;-136.94224548339844
363;1673422659.7443278;47.128323099999996;7.2374345;83.39500427246094;1673422659.8137455;-26.881582260131836;0.061352163553237915;-136.91159057617188
364;1673422659.9498882;47.1283132;7.2374209;83.79000091552734;1673422660.0198019;-26.755512237548828;0.11694680899381638;-136.9270782470703
365;1673422660.1571655;47.1283034;7.2374072;84.18400573730469;1673422660.218738;-26.931283950805664;0.04018494859337807;-136.9205780029297
366;1673422660.3436184;47.1282935;7.2373936;84.5790023803711;1673422660.4129255;-26.903833389282227;0.13764196634292603;-136.92803955078125
367;1673422660.5471435;47.128283599999996;7.23738;84.97400665283203;1673422660.609703;-26.8170108795166;0.1643678992986679;-136.937744140625
368;1673422660.7507405;47.1282736;7.2373663;85.36800384521484;1673422660.8191109;-26.87114906311035;0.18031848967075348;-136.92124938964844
369;1673422660.953185;47.1282637;7.2373527;85.76200103759766;1673422661.0221684;-26.777904510498047;0.2017202526330948;-136.91200256347656
370;1673422661.152624;47.128253799999996;7.2373389999999995;86.1570053100586;1673422661.2160742;-26.72866439819336;0.16965347528457642;-136.94056701660156
371;1673422661.3598704;47.1282438;7.237325299999999;86.5560073852539;1673422661.4238403;-26.563282012939453;0.21867358684539795;-136.92796325683594
372;1673422661.5491753;47.1282339;7.2373116;86.95700073242188;1673422661.6146216;-26.573774337768555;0.06494762748479843;-136.94223022460938
373;1673422661.7651923;47.128223999999996;7.2372979;87.35700225830078;1673422661.8323789;-26.514251708984375;0.008200706914067268;-136.93077087402344
374;1673422661.9617352;47.1282141;7.2372841999999995;87.76000213623047;1673422662.029223;-26.618976593017578;-0.01038273610174656;-136.93763732910156
375;1673422662.1557417;47.1282042;7.2372705999999996;88.16000366210938;1673422662.222325;-26.55657958984375;-0.0033616693690419197;-136.9661102294922
376;1673422662.374997;47.1281943;7.237257;88.56000518798828;1673422662.4476445;-26.675798416137695;0.16443906724452972;-136.96742248535156
377;1673422662.5790417;47.128184399999995;7.2372434;88.96200561523438;1673422662.6362329;-26.670549392700195;0.06899059563875198;-136.93296813964844
378;1673422662.7604742;47.1281745;7.2372298;89.36100769042969;1673422662.823916;-26.768308639526367;0.02566479705274105;-136.9353485107422
379;1673422662.9779944;47.1281646;7.2372162;89.76000213623047;1673422663.0433612;-26.811824798583984;0.08168937265872955;-136.94281005859375
380;1673422663.1776507;47.128154699999996;7.2372026;90.15400695800781;1673422663.2348034;-26.939815521240234;0.018379230052232742;-136.9290313720703
381;1673422663.368075;47.1281448;7.237189;90.55000305175781;1673422663.4340122;-26.820436477661133;0.1571173220872879;-136.95460510253906
382;1673422663.5751934;47.1281349;7.237175499999999;90.94800567626953;1673422663.6440947;-26.773666381835938;0.09570416063070297;-136.91551208496094
383;1673422663.7722046;47.128124899999996;7.237161899999999;91.34500122070312;1673422663.8322816;-26.83787727355957;0.037606559693813324;-136.934814453125
384;1673422663.957847;47.128115;7.237148299999999;91.74200439453125;1673422664.0244086;-26.826324462890625;-0.017840318381786346;-136.90939331054688
385;1673422664.1602347;47.1281051;7.2371346999999995;92.13500213623047;1673422664.229245;-26.857892990112305;-0.011180701665580273;-136.9409942626953
386;1673422664.3664722;47.1280952;7.237120999999999;92.5320053100586;1673422664.433382;-26.822010040283203;0.03806721046566963;-136.94003295898438
387;1673422664.5588584;47.1280852;7.237107399999999;92.9260025024414;1673422664.6214364;-26.655601501464844;-0.15092387795448303;-136.89639282226562
388;1673422664.7543426;47.1280752;7.237093799999999;93.32100677490234;1673422664.8275528;-26.61786651611328;-0.07362198829650879;-136.911376953125
389;1673422664.9701936;47.128065299999996;7.2370803;93.71700286865234;1673422665.0395334;-26.754047393798828;-0.07982254773378372;-136.91294860839844
390;1673422665.182564;47.1280553;7.2370667;94.11100769042969;1673422665.2699637;-26.711349487304688;0.038005292415618896;-136.92559814453125
391;1673422665.4052894;47.1280453;7.2370532;94.50900268554688;1673422665.4683118;-26.681434631347656;0.22304289042949677;-136.89990234375
392;1673422665.5950007;47.1280353;7.2370396999999995;94.90800476074219;1673422665.6649115;-26.71954917907715;0.1378074288368225;-136.88673400878906
393;1673422665.772892;47.1280253;7.2370261;95.3080062866211;1673422665.837943;-26.51472282409668;0.2596938908100128;-136.88186645507812
394;1673422665.9712834;47.128015399999995;7.2370126;95.70700073242188;1673422666.0362258;-26.637306213378906;0.23563164472579956;-136.8750457763672
395;1673422666.1686876;47.1280055;7.236999;96.10400390625;1673422666.2292242;-26.717300415039062;0.07073843479156494;-136.8676300048828
396;1673422666.368278;47.1279956;7.236985499999999;96.5040054321289;1673422666.4297702;-26.778879165649414;0.1936618983745575;-136.89413452148438
397;1673422666.5540562;47.127985599999995;7.2369718999999995;96.906005859375;1673422666.6204662;-26.755481719970703;0.10651811957359314;-136.87208557128906
398;1673422666.7550569;47.1279757;7.2369582999999995;97.30400085449219;1673422666.8175542;-26.668664932250977;0.20138148963451385;-136.87298583984375
399;1673422666.9465497;47.1279657;7.2369447;97.7020034790039;1673422667.0157228;-26.63766860961914;0.20774070918560028;-136.8537139892578
400;1673422667.1575606;47.1279557;7.2369311;98.09700775146484;1673422667.228961;-26.62950897216797;0.2083161324262619;-136.85968017578125
401;1673422667.35409;47.1279458;7.2369176;98.49300384521484;1673422667.420642;-26.574007034301758;0.1905897855758667;-136.81475830078125
402;1673422667.5576336;47.1279359;7.2369039;98.89100646972656;1673422667.6249802;-26.659900665283203;0.013722503557801247;-136.8423614501953
403;1673422667.756029;47.127925999999995;7.2368903;99.29000091552734;1673422667.8313417;-26.500652313232422;0.069727823138237;-136.8477325439453
404;1673422667.9786491;47.1279161;7.2368767;99.68700408935547;1673422668.0457687;-26.647733688354492;0.09357230365276337;-136.83717346191406
405;1673422668.1822517;47.1279061;7.2368631;100.08700561523438;1673422668.2495155;-26.620054244995117;0.11103202402591705;-136.84259033203125
406;1673422668.3769393;47.1278961;7.2368495;100.48700714111328;1673422668.4428554;-26.506519317626953;0.07292748987674713;-136.80361938476562
407;1673422668.5700576;47.1278862;7.2368359;100.88600158691406;1673422668.6325145;-26.515737533569336;0.1855495572090149;-136.81822204589844
408;1673422668.7565134;47.1278763;7.2368223;101.28600311279297;1673422668.8150735;-26.515840530395508;-0.03784208744764328;-136.85122680664062
409;1673422668.946848;47.127866499999996;7.2368086;101.68400573730469;1673422669.0210693;-26.64299964904785;-0.03338896855711937;-136.8477325439453
410;1673422669.1512215;47.1278565;7.236795;102.0830078125;1673422669.2158437;-26.732900619506836;-0.0034232651814818382;-136.80104064941406
411;1673422669.3512113;47.1278467;7.2367814;102.4780044555664;1673422669.419586;-26.686893463134766;-0.03463258594274521;-136.83766174316406
412;1673422669.5525558;47.1278368;7.2367678;102.87800598144531;1673422669.6239755;-26.690946578979492;0.03801855072379112;-136.8257598876953
413;1673422669.7689385;47.127826899999995;7.2367542;103.27600860595703;1673422669.8344636;-26.793704986572266;-0.01362865511327982;-136.8365478515625
414;1673422669.9774446;47.127817;7.2367406;103.677001953125;1673422670.0391703;-26.70408821105957;-0.01462619099766016;-136.80972290039062
415;1673422670.1677985;47.1278071;7.2367269;104.0780029296875;1673422670.2283278;-26.74658203125;-0.08799263834953308;-136.84144592285156
416;1673422670.3543856;47.127797199999996;7.2367133;104.47900390625;1673422670.4266524;-26.777734756469727;-0.06191565468907356;-136.81515502929688
