;pos_time;latitude;longitude;altitude;alt_time;pitch;roll;yaw
0;1673428089.4828289;47.1306425;7.2406197;-0.02500000037252903;1673428089.501375;0.14660853147506714;-0.2381027340888977;90.11688995361328
1;1673428089.6752872;47.1306425;7.2406196;-0.024000000208616257;1673428089.690936;0.09071269631385803;0.33472713828086853;90.01725769042969
2;1673428089.8815763;47.1306425;7.2406196;-0.02500000037252903;1673428089.8991446;0.01177248451858759;-0.13165900111198425;90.18120574951172
3;1673428090.0849648;47.1306425;7.240619499999999;-0.026000000536441803;1673428090.1025233;0.10335110127925873;0.2053377330303192;90.02869415283203
4;1673428090.2728834;47.1306425;7.240619499999999;-0.02800000086426735;1673428090.2909915;0.3377598524093628;-0.056800711899995804;90.04297637939453
5;1673428090.4771075;47.1306425;7.2406196;-0.03200000151991844;1673428090.4984004;0.3088829517364502;0.24131470918655396;89.88855743408203
6;1673428090.6813364;47.1306424;7.2406196;-0.036000002175569534;1673428090.7008636;0.248426616191864;0.12482531368732452;89.8553695678711
7;1673428090.886682;47.1306424;7.2406197;-0.03500000014901161;1673428090.9032795;0.018924251198768616;0.12076080590486526;89.87040710449219
8;1673428091.0689955;47.1306423;7.2406197;-0.03200000151991844;1673428091.085163;-0.042856402695178986;0.0794602483510971;89.83651733398438
9;1673428091.2605796;47.1306423;7.2406196;0.0;1673428091.2782059;0.11961401253938675;0.5926892161369324;89.97618865966797
10;1673428091.451026;47.1306423;7.2406197;0.0020000000949949026;1673428091.4695914;0.1977233588695526;0.40707144141197205;90.00407409667969
11;1673428091.6595807;47.1306422;7.2406197;0.0020000000949949026;1673428091.681109;0.12034103274345398;0.5654393434524536;89.97544860839844
12;1673428091.8600757;47.1306422;7.240619799999999;0.0020000000949949026;1673428091.8786302;0.07322000712156296;0.4333550035953522;89.8799057006836
13;1673428092.0606139;47.1306422;7.2406198999999996;0.005000000353902578;1673428092.0772607;-0.14055606722831726;0.47859132289886475;90.06510162353516
14;1673428092.2615042;47.1306422;7.2406198999999996;0.006000000052154064;1673428092.2801304;-0.0354103185236454;0.6765838861465454;89.86640167236328
15;1673428092.465297;47.1306423;7.2406198999999996;0.006000000052154064;1673428092.4859078;-0.19342510402202606;0.7740558385848999;90.0070571899414
16;1673428092.6760716;47.1306423;7.24062;0.006000000052154064;1673428092.6971018;-0.006007017567753792;0.6150438785552979;90.03185272216797
17;1673428092.8877609;47.1306423;7.24062;0.0;1673428092.9063053;0.25513365864753723;0.15098923444747925;89.90086364746094
18;1673428093.102721;47.1306423;7.24062;0.0020000000949949026;1673428093.1163988;-0.0465555340051651;0.9897788763046265;90.06199645996094
19;1673428093.2894711;47.1306423;7.24062;0.004000000189989805;1673428093.3081205;0.14128059148788452;0.5661655068397522;90.07903289794922
20;1673428093.493315;47.1306423;7.2406201;0.007000000216066837;1673428093.5109966;0.010067525319755077;0.3363897204399109;89.98685455322266
21;1673428093.6867614;47.1306423;7.2406201;0.01100000087171793;1673428093.707408;-0.014094101265072823;0.23178714513778687;89.99040985107422
22;1673428093.8976924;47.1306423;7.2406201;0.013000000268220901;1673428093.917358;0.024293234571814537;0.4225658178329468;89.9133071899414
23;1673428094.088185;47.1306423;7.2406201;0.015000000596046448;1673428094.1037834;-0.04885005205869675;0.47331830859184265;89.93717193603516
24;1673428094.2862637;47.1306423;7.24062;0.017000000923871994;1673428094.3077283;0.13869445025920868;0.32541990280151367;90.12554168701172
25;1673428094.4913962;47.1306423;7.2406198999999996;0.017000000923871994;1673428094.5099394;-0.06397661566734314;0.4884072244167328;90.12529754638672
26;1673428094.7096233;47.1306422;7.2406198999999996;0.013000000268220901;1673428094.7271924;0.3534693419933319;0.2709614932537079;89.47501373291016
27;1673428094.8998604;47.130642099999996;7.24062;0.013000000268220901;1673428094.9213326;1.0855542421340942;-0.08537153154611588;89.8563461303711
28;1673428095.1041362;47.1306419;7.2406201;0.02200000174343586;1673428095.1197555;1.9489796161651611;-3.651172637939453;90.45851135253906
29;1673428095.2975805;47.1306416;7.2406203;0.04200000315904617;1673428095.314182;5.301565647125244;-10.30781078338623;90.72731018066406
30;1673428095.4718251;47.130641399999995;7.2406204999999995;0.08500000089406967;1673428095.487976;5.553253173828125;-9.124638557434082;90.5838623046875
31;1673428095.6636324;47.130641399999995;7.2406204999999995;0.14400000870227814;1673428095.6832998;5.707477569580078;-6.263415336608887;90.2782974243164
32;1673428095.8685074;47.130641499999996;7.2406204999999995;0.21400001645088196;1673428095.8876953;6.638664722442627;-9.225953102111816;89.4146728515625
33;1673428096.0631297;47.1306416;7.2406206;0.29500001668930054;1673428096.0826635;6.041297912597656;-10.344086647033691;89.2614517211914
34;1673428096.262365;47.1306417;7.2406207;0.39000001549720764;1673428096.2789674;6.7115631103515625;-6.990429401397705;89.4164047241211
35;1673428096.4638972;47.1306417;7.2406207;0.4970000088214874;1673428096.4845557;6.2449798583984375;-8.406597137451172;89.5462646484375
36;1673428096.6690373;47.1306418;7.2406206;0.6150000095367432;1673428096.687922;6.142315864562988;-11.056137084960938;90.14714813232422
37;1673428096.8837783;47.1306419;7.2406203;0.7470000386238098;1673428096.902871;6.346393585205078;-7.413737773895264;91.15382385253906
38;1673428097.0816736;47.130642099999996;7.2406201;0.8910000324249268;1673428097.0973618;6.651259899139404;-5.591632843017578;91.90254974365234
39;1673428097.2633834;47.1306423;7.2406198999999996;1.059000015258789;1673428097.2819068;6.252321243286133;-8.538033485412598;91.85977935791016
40;1673428097.4596925;47.1306425;7.2406197;1.2380000352859497;1673428097.4782882;5.8840556144714355;-7.259457588195801;91.76996612548828
41;1673428097.6575906;47.130642599999995;7.2406197;1.4230000972747803;1673428097.6771147;5.563600063323975;-5.498948097229004;91.87653350830078
42;1673428097.8575199;47.130642699999996;7.2406196;1.6100001335144043;1673428097.882929;5.004500389099121;-9.460265159606934;92.86446380615234
43;1673428098.0920463;47.130642599999995;7.240619499999999;1.7980000972747803;1673428098.1047282;5.783410549163818;-8.018343925476074;93.70417022705078
44;1673428098.275288;47.130642599999995;7.240619499999999;1.9870001077651978;1673428098.2925794;6.47117805480957;-4.650852203369141;94.36934661865234
45;1673428098.4776955;47.130642699999996;7.240619499999999;2.1760001182556152;1673428098.5043018;6.845068454742432;-7.92354154586792;94.68571472167969
46;1673428098.696812;47.130642699999996;7.240619499999999;2.367000102996826;1673428098.7153256;6.5602946281433105;-7.996798038482666;94.58670043945312
47;1673428098.8997476;47.130642599999995;7.2406196;2.561000108718872;1673428098.9173336;6.251633644104004;-5.115828037261963;94.34952545166016
48;1673428099.0908794;47.1306425;7.2406196;2.752000093460083;1673428099.1089854;5.935354709625244;-9.059728622436523;94.40895080566406
49;1673428099.2764852;47.1306424;7.2406196;2.944000244140625;1673428099.2955945;5.833678245544434;-9.906015396118164;94.72227478027344
50;1673428099.4837017;47.1306423;7.2406196;3.140000104904175;1673428099.5080128;6.419558048248291;-5.691900253295898;94.99478149414062
51;1673428099.6774318;47.1306424;7.2406196;3.3340001106262207;1673428099.6956608;6.845182418823242;-6.787135124206543;94.78559112548828
52;1673428099.8901641;47.1306425;7.2406196;3.5310001373291016;1673428099.9088564;6.896574020385742;-9.525711059570312;94.16938018798828
53;1673428100.09992;47.1306424;7.2406196;3.7300002574920654;1673428100.1136138;6.8066086769104;-5.903994083404541;94.16799926757812
54;1673428100.2971542;47.1306424;7.2406196;3.9260001182556152;1673428100.3119447;6.358386993408203;-6.48819637298584;94.4358901977539
55;1673428100.504093;47.1306423;7.2406196;4.11899995803833;1673428100.5228822;5.806821823120117;-10.182920455932617;94.680908203125
56;1673428100.7100925;47.1306422;7.2406196;4.315000057220459;1673428100.7286363;5.820713520050049;-6.961482524871826;94.78400421142578
57;1673428100.9160128;47.1306422;7.240619499999999;4.516000270843506;1673428100.9296772;6.009093284606934;-4.868640422821045;94.66413879394531
58;1673428101.1010163;47.1306422;7.2406194;4.715000152587891;1673428101.1215112;6.276594161987305;-9.642995834350586;94.0362777709961
59;1673428101.2952852;47.1306422;7.240619499999999;4.9160003662109375;1673428101.310923;6.888598918914795;-8.260842323303223;94.09680938720703
60;1673428101.4963794;47.130642099999996;7.240619499999999;5.118000030517578;1673428101.51597;6.635715007781982;-5.157898426055908;94.63682556152344
61;1673428101.6980438;47.130642099999996;7.2406196;5.317000389099121;1673428101.7155778;6.133973598480225;-8.890445709228516;94.95174407958984
62;1673428101.9009664;47.130641999999995;7.2406196;5.522000312805176;1673428101.91855;6.08730936050415;-8.86953067779541;95.07044982910156
63;1673428102.100949;47.1306419;7.240619499999999;5.728000164031982;1673428102.115587;6.226587772369385;-4.842313289642334;94.90666961669922
64;1673428102.2871475;47.1306419;7.240619499999999;5.930000305175781;1673428102.302996;6.476508617401123;-8.286213874816895;94.41205596923828
65;1673428102.484851;47.1306419;7.240619499999999;6.135000228881836;1673428102.5025055;6.956725597381592;-9.751190185546875;94.062255859375
66;1673428102.6776702;47.1306419;7.240619499999999;6.338000297546387;1673428102.6952527;6.828742027282715;-5.808979511260986;94.18669891357422
67;1673428102.8798034;47.1306419;7.240619499999999;6.5370001792907715;1673428102.8979235;6.628288269042969;-7.6021647453308105;94.68968963623047
68;1673428103.077357;47.1306418;7.2406196;6.732000350952148;1673428103.0949337;6.104065895080566;-10.12578296661377;94.7480239868164
69;1673428103.2775178;47.1306418;7.2406196;6.928000450134277;1673428103.2941072;5.620738983154297;-5.518219947814941;94.4205551147461
70;1673428103.4689853;47.1306418;7.2406196;7.125000476837158;1673428103.4875367;5.873021125793457;-7.3493523597717285;94.15877532958984
71;1673428103.6812015;47.1306419;7.2406196;7.324000358581543;1673428103.6983392;6.573787689208984;-10.222476959228516;93.9728775024414
72;1673428103.8806455;47.1306419;7.2406196;7.526000499725342;1673428103.90266;7.261828422546387;-6.8983564376831055;94.38993072509766
73;1673428104.0791607;47.1306419;7.2406196;7.729000568389893;1673428104.097766;6.777411937713623;-6.122847080230713;95.06273651123047
74;1673428104.2813215;47.1306419;7.2406197;7.928000450134277;1673428104.2980592;6.525341033935547;-9.760754585266113;94.91639709472656
75;1673428104.478016;47.1306419;7.2406197;8.128000259399414;1673428104.498515;5.913586139678955;-6.634083271026611;94.59134674072266
76;1673428104.6916096;47.1306418;7.2406197;8.32800006866455;1673428104.7116764;5.628839492797852;-5.440188884735107;94.41327667236328
77;1673428104.8939426;47.1306419;7.2406197;8.526000022888184;1673428104.9115236;6.163969039916992;-10.151985168457031;94.33258056640625
78;1673428105.091167;47.1306419;7.240619799999999;8.729000091552734;1673428105.1077979;7.22442626953125;-7.8042120933532715;94.60819244384766
79;1673428105.2922142;47.1306418;7.240619799999999;8.930000305175781;1673428105.3108513;7.088484287261963;-5.378991603851318;95.30912017822266
80;1673428105.5090265;47.1306418;7.2406198999999996;9.131000518798828;1673428105.5256183;7.305784225463867;-8.744845390319824;95.10748291015625
81;1673428105.699248;47.1306418;7.24062;9.333000183105469;1673428105.7212532;6.3905463218688965;-8.495194435119629;94.6558609008789
82;1673428105.8996565;47.1306417;7.24062;9.532999992370605;1673428105.9187334;5.875977039337158;-5.325473308563232;94.28504943847656
83;1673428106.1075697;47.1306417;7.24062;9.72800064086914;1673428106.1232045;5.896834850311279;-9.07809829711914;94.12577056884766
84;1673428106.2991583;47.1306417;7.24062;9.927000045776367;1673428106.3183334;6.5690836906433105;-10.081674575805664;94.37184143066406
85;1673428106.496597;47.1306417;7.24062;10.131000518798828;1673428106.5151832;7.188363075256348;-5.887758255004883;94.77882385253906
86;1673428106.6812634;47.1306417;7.2406201;10.381000518798828;1673428106.6968818;7.520294666290283;-8.163400650024414;94.99049377441406
87;1673428106.8879783;47.1306419;7.24062;10.74000072479248;1673428106.9071743;7.4571661949157715;-12.151511192321777;94.02620697021484
88;1673428107.0801487;47.1306422;7.240619799999999;11.129000663757324;1673428107.097728;6.3548264503479;-8.113885879516602;93.93607330322266
89;1673428107.2870831;47.1306425;7.2406197;11.528000831604004;1673428107.307622;5.968671798706055;-5.899038314819336;94.28021240234375
90;1673428107.4971702;47.1306429;7.2406196;11.930000305175781;1673428107.515753;5.535865783691406;-8.303671836853027;94.57600402832031
91;1673428107.703419;47.130643199999994;7.2406196;12.335000991821289;1673428107.7219973;5.594974994659424;-6.17955207824707;94.56824493408203
92;1673428107.903342;47.130643199999994;7.240619499999999;12.741000175476074;1673428107.9214535;6.229373931884766;-3.2268869876861572;94.55278015136719
93;1673428108.0911393;47.130643199999994;7.2406196;13.146000862121582;1673428108.111214;6.133673191070557;-7.416447639465332;94.36251068115234
94;1673428108.2863867;47.130643;7.2406196;13.54800033569336;1673428108.3030157;5.98764705657959;-6.679232120513916;94.19047546386719
95;1673428108.4877312;47.1306429;7.2406196;13.949000358581543;1673428108.504481;5.942413330078125;-5.285350322723389;94.20941925048828
96;1673428108.6847384;47.1306428;7.2406197;14.35200023651123;1673428108.706446;5.853589057922363;-8.502767562866211;94.45405578613281
97;1673428108.8777788;47.130642699999996;7.240619799999999;14.758000373840332;1673428108.8972876;5.953617095947266;-8.493475914001465;94.46207427978516
98;1673428109.0801404;47.1306425;7.240619799999999;15.167000770568848;1673428109.09967;6.312519073486328;-5.412315368652344;94.3687744140625
99;1673428109.282163;47.1306424;7.240619799999999;15.575000762939453;1673428109.3007314;6.733898639678955;-7.995591640472412;94.49642181396484
100;1673428109.4771078;47.1306423;7.240619799999999;15.981000900268555;1673428109.4946856;6.827875137329102;-9.904272079467773;94.28173065185547
101;1673428109.6721342;47.1306422;7.240619799999999;16.38800048828125;1673428109.6906788;6.680898189544678;-6.393407821655273;94.34423065185547
102;1673428109.8639085;47.1306423;7.2406198999999996;16.80000114440918;1673428109.8814468;6.307459831237793;-6.878741264343262;94.56991577148438
103;1673428110.082472;47.1306424;7.2406198999999996;17.21000099182129;1673428110.1000578;5.984512805938721;-9.319353103637695;94.7907485961914
104;1673428110.2822313;47.1306423;7.2406198999999996;17.62200164794922;1673428110.2998028;6.196042537689209;-6.041292190551758;94.6791763305664
105;1673428110.4762952;47.1306423;7.2406198999999996;18.032001495361328;1673428110.4988904;6.0218825340271;-5.631417274475098;94.4498062133789
106;1673428110.693428;47.1306423;7.2406198999999996;18.43600082397461;1673428110.7105877;6.536273002624512;-9.625211715698242;94.22056579589844
107;1673428110.893985;47.1306423;7.2406198999999996;18.832000732421875;1673428110.91408;6.548942565917969;-7.384871959686279;94.13844299316406
108;1673428111.0895803;47.1306423;7.2406198999999996;19.231000900268555;1673428111.1071658;6.477600574493408;-5.133264064788818;94.47270202636719
109;1673428111.3038707;47.1306424;7.24062;19.635000228881836;1673428111.3244076;6.343469619750977;-8.327618598937988;94.7171859741211
110;1673428111.5249398;47.1306423;7.24062;20.045000076293945;1673428111.5434816;6.037351131439209;-8.726766586303711;94.53817749023438
111;1673428111.7195368;47.1306422;7.24062;20.45400047302246;1673428111.7382853;5.979172229766846;-5.007900238037109;94.27519989013672
112;1673428111.9246666;47.130642099999996;7.24062;20.858001708984375;1673428111.9393213;6.109981536865234;-8.512560844421387;94.31852722167969
113;1673428112.115232;47.130642099999996;7.2406198999999996;21.253000259399414;1673428112.1367233;6.636070728302002;-9.683674812316895;94.41205596923828
114;1673428112.307152;47.1306422;7.2406198999999996;21.648000717163086;1673428112.3273697;7.1034345626831055;-5.348813056945801;94.70208740234375
115;1673428112.4913101;47.1306423;7.24062;22.043001174926758;1673428112.5129528;6.723015308380127;-6.2502264976501465;95.00282287597656
116;1673428112.7085369;47.1306424;7.24062;22.439001083374023;1673428112.726655;6.43050479888916;-8.914154052734375;94.6767578125
117;1673428112.9115083;47.1306424;7.24062;22.84000015258789;1673428112.9296107;5.91073751449585;-6.1690592765808105;94.27865600585938
118;1673428113.1010137;47.1306423;7.2406198999999996;23.242000579833984;1673428113.119594;5.738735675811768;-5.881363391876221;94.33486938476562
119;1673428113.2930505;47.1306423;7.240619799999999;23.642000198364258;1673428113.3106213;6.007757186889648;-10.299080848693848;94.43216705322266
120;1673428113.505311;47.1306423;7.2406197;24.034000396728516;1673428113.523458;6.582396507263184;-7.204710006713867;94.6080322265625
121;1673428113.7406251;47.1306424;7.2406197;24.429000854492188;1673428113.7582042;6.663261413574219;-4.990905284881592;94.67340850830078
122;1673428113.9329712;47.1306425;7.2406197;24.832000732421875;1673428113.9517632;6.629761695861816;-8.274127006530762;94.51607513427734
123;1673428114.12024;47.1306425;7.2406196;25.23900032043457;1673428114.136832;5.7556562423706055;-7.697104454040527;94.3338851928711
124;1673428114.337463;47.1306424;7.240619499999999;25.643001556396484;1673428114.3551579;5.408109664916992;-5.117851734161377;94.140625
125;1673428114.5212674;47.1306424;7.240619499999999;26.043001174926758;1673428114.5398388;5.636236667633057;-9.1757230758667;94.23611450195312
126;1673428114.7228293;47.1306424;7.240619499999999;26.43800163269043;1673428114.742657;6.03812837600708;-9.332229614257812;94.46656799316406
127;1673428114.928952;47.1306424;7.240619499999999;26.830001831054688;1673428114.947497;6.399508953094482;-5.081249713897705;94.50624084472656
128;1673428115.1151729;47.130642599999995;7.240619499999999;27.229001998901367;1673428115.1313233;6.51125431060791;-6.591525554656982;94.48991394042969
129;1673428115.3095357;47.130642699999996;7.240619499999999;27.634000778198242;1673428115.3306394;6.504759311676025;-8.760690689086914;94.47327423095703
130;1673428115.5917447;47.130642699999996;7.240619499999999;28.040000915527344;1673428115.6044345;6.19801139831543;-4.702792644500732;94.56095886230469
131;1673428115.7634275;47.130642599999995;7.240619499999999;28.444002151489258;1673428115.7761574;5.67651891708374;-6.106242656707764;94.47242736816406
132;1673428115.972161;47.130642599999995;7.240619499999999;28.84800148010254;1673428115.986802;5.952363967895508;-9.814773559570312;94.43354034423828
133;1673428116.1317923;47.130642599999995;7.240619499999999;29.244001388549805;1673428116.148385;6.090736389160156;-6.1677045822143555;94.64958953857422
134;1673428116.350124;47.130642599999995;7.240619499999999;29.647001266479492;1673428116.3670113;6.609207630157471;-5.0059685707092285;94.60160827636719
135;1673428116.526678;47.130642599999995;7.240619499999999;30.051000595092773;1673428116.546223;6.507956504821777;-8.999167442321777;94.5012435913086
136;1673428116.7097497;47.1306425;7.2406194;30.454002380371094;1673428116.7317624;6.413215160369873;-7.275043487548828;94.35293579101562
137;1673428116.893049;47.1306423;7.2406194;30.85500144958496;1673428116.9096441;6.166692733764648;-5.405125617980957;94.21314239501953
138;1673428117.094129;47.1306422;7.2406194;31.25400161743164;1673428117.1107395;5.730374336242676;-9.484588623046875;94.48561096191406
139;1673428117.299854;47.130642099999996;7.240619499999999;31.6460018157959;1673428117.316584;5.976963996887207;-8.446435928344727;94.87181091308594
140;1673428117.500127;47.130642099999996;7.240619499999999;32.03900146484375;1673428117.5196319;6.258090019226074;-5.0359344482421875;94.62530517578125
141;1673428117.736039;47.130642099999996;7.240619499999999;32.43400192260742;1673428117.7523298;6.557155609130859;-8.313647270202637;94.3221435546875
142;1673428117.9082606;47.130642099999996;7.240619499999999;32.836002349853516;1673428117.9219313;6.64520263671875;-9.147916793823242;94.24884796142578
143;1673428118.0881412;47.130642099999996;7.240619499999999;33.23800277709961;1673428118.1062818;6.5096282958984375;-5.601362228393555;94.45711517333984
144;1673428118.3153844;47.130642099999996;7.240619499999999;33.6400032043457;1673428118.3325353;6.001796722412109;-7.066224098205566;94.80168914794922
145;1673428118.492793;47.1306422;7.240619499999999;34.040000915527344;1673428118.5114322;5.692808628082275;-9.766541481018066;94.8318099975586
146;1673428118.7036881;47.1306422;7.240619499999999;34.432003021240234;1673428118.730238;6.054776191711426;-5.195826530456543;94.63671875
147;1673428118.9184635;47.1306423;7.240619499999999;34.82400131225586;1673428118.9360774;6.077277660369873;-5.947715759277344;94.26472473144531
148;1673428119.104463;47.1306424;7.240619499999999;35.224002838134766;1673428119.1230137;6.41908597946167;-9.68165111541748;94.11394500732422
149;1673428119.3067904;47.1306423;7.240619499999999;35.624000549316406;1673428119.3224165;6.686036109924316;-6.867527484893799;94.3051986694336
150;1673428119.5354807;47.1306423;7.240619499999999;36.0260009765625;1673428119.550133;6.459862232208252;-5.479477882385254;94.53681182861328
151;1673428119.720546;47.1306423;7.240619499999999;36.42900085449219;1673428119.7401605;5.955015182495117;-9.408707618713379;94.58610534667969
152;1673428119.9310155;47.1306423;7.240619499999999;36.82400131225586;1673428119.9525733;5.726905345916748;-7.211373805999756;94.45166015625
153;1673428120.1367238;47.1306424;7.2406194;37.22200012207031;1673428120.1503885;5.549697399139404;-4.908475875854492;94.30217742919922
154;1673428120.3250532;47.1306425;7.2406194;37.62300109863281;1673428120.3443828;5.949509143829346;-8.936062812805176;94.10894012451172
155;1673428120.5137823;47.1306424;7.2406194;38.03000259399414;1673428120.529933;6.715513229370117;-8.140813827514648;94.35687255859375
156;1673428120.6924174;47.1306424;7.2406194;38.4370002746582;1673428120.709003;6.510513782501221;-5.360463619232178;94.53692626953125
157;1673428120.8961263;47.1306425;7.2406194;38.8390007019043;1673428120.9166303;6.159750461578369;-7.861457824707031;94.40319061279297
158;1673428121.0957584;47.1306425;7.240619499999999;39.242000579833984;1673428121.1143043;5.852436542510986;-8.374200820922852;94.52584075927734
159;1673428121.301059;47.130642599999995;7.240619499999999;39.637001037597656;1673428121.3215442;5.69386625289917;-4.926441669464111;94.63037872314453
160;1673428121.4972847;47.130642599999995;7.240619499999999;40.03200149536133;1673428121.5148618;5.821841239929199;-6.552507400512695;94.4762191772461
161;1673428121.699883;47.130642599999995;7.240619499999999;40.42900085449219;1673428121.724292;6.467766761779785;-9.479994773864746;94.26124572753906
162;1673428121.9104342;47.130642599999995;7.240619499999999;40.827003479003906;1673428121.9289906;6.796494960784912;-5.89523458480835;94.55218505859375
163;1673428122.123299;47.1306425;7.240619499999999;41.22500228881836;1673428122.1394496;6.564870357513428;-5.738571643829346;94.71783447265625
164;1673428122.3184538;47.1306425;7.240619499999999;41.62000274658203;1673428122.3356044;6.424031734466553;-8.769843101501465;94.68675231933594
165;1673428122.5177495;47.1306425;7.240619499999999;42.012001037597656;1673428122.53488;6.129810333251953;-6.656207084655762;94.52347564697266
166;1673428122.7164607;47.1306425;7.240619499999999;42.406002044677734;1673428122.7340753;5.76724910736084;-4.758133411407471;94.34618377685547
167;1673428122.899627;47.130642599999995;7.240619499999999;42.807003021240234;1673428122.9181843;6.078146457672119;-8.957679748535156;94.27395629882812
168;1673428123.10031;47.1306425;7.240619499999999;43.21200180053711;1673428123.1198342;6.480459213256836;-8.206110954284668;94.36146545410156
169;1673428123.3124635;47.1306424;7.2406194;43.61900329589844;1673428123.3325322;6.666474342346191;-4.845457553863525;94.789794921875
170;1673428123.5062702;47.1306424;7.2406194;44.022003173828125;1673428123.5228653;6.48996639251709;-7.981223106384277;94.73916625976562
171;1673428123.6925604;47.1306424;7.2406194;44.426002502441406;1673428123.711105;6.161297798156738;-8.965758323669434;94.41917419433594
172;1673428123.8872144;47.1306424;7.240619499999999;44.82400131225586;1673428123.9060023;5.6969828605651855;-5.084012031555176;94.24574279785156
173;1673428124.108473;47.1306425;7.240619499999999;45.224002838134766;1673428124.1232157;5.630212783813477;-7.610361099243164;94.38018035888672
174;1673428124.302935;47.1306425;7.2406194;45.62800216674805;1673428124.3195293;6.2333502769470215;-9.44247055053711;94.59413146972656
175;1673428124.4992;47.1306424;7.2406194;46.03300094604492;1673428124.519715;6.5621514320373535;-5.5878376960754395;94.87753295898438
176;1673428124.6971288;47.1306424;7.2406194;46.43300247192383;1673428124.7156723;6.681601524353027;-6.0209221839904785;94.8003921508789
177;1673428124.912434;47.1306424;7.2406194;46.832000732421875;1673428124.9309857;6.323810577392578;-9.37485122680664;94.43270111083984
178;1673428125.118303;47.1306424;7.240619499999999;47.22500228881836;1673428125.1364143;5.897183418273926;-6.157499313354492;94.2580337524414
179;1673428125.3918898;47.1306425;7.240619499999999;47.61900329589844;1673428125.4036453;5.660446643829346;-5.62636137008667;94.2881851196289
180;1673428125.560415;47.1306425;7.240619499999999;48.02000045776367;1673428125.5980833;6.191108703613281;-9.565397262573242;94.2398910522461
181;1673428125.7937098;47.1306425;7.240619499999999;48.38600158691406;1673428125.8103037;6.291740894317627;-7.077524662017822;94.83617401123047
182;1673428125.9827604;47.1306424;7.2406196;48.70000076293945;1673428126.0033572;6.241872310638428;-4.647876262664795;95.00262451171875
183;1673428126.1602461;47.1306423;7.2406197;48.95900344848633;1673428126.1758633;6.325719356536865;-9.054155349731445;94.81243133544922
184;1673428126.3420007;47.1306422;7.240619799999999;49.172000885009766;1673428126.359553;6.509243011474609;-6.5419135093688965;94.6263427734375
185;1673428126.5438612;47.130642099999996;7.2406198999999996;49.3390007019043;1673428126.5596116;11.856621742248535;0.6221334338188171;94.93363952636719
186;1673428126.7359378;47.1306416;7.2406193;49.48500061035156;1673428126.7545538;27.47934913635254;23.979814529418945;103.98957061767578
187;1673428126.929603;47.1306398;7.2406168;49.617000579833984;1673428126.9467423;32.949790954589844;44.19430923461914;115.25110626220703
188;1673428127.1155787;47.1306358;7.2406109;49.72800064086914;1673428127.132176;30.373577117919922;55.16013717651367;123.49693298339844
189;1673428127.3133948;47.1306289;7.2406009;49.80800247192383;1673428127.3309517;14.510553359985352;58.756568908691406;132.48544311523438
190;1673428127.5065238;47.130619499999995;7.2405876;49.867000579833984;1673428127.5250785;-5.1067986488342285;56.58195877075195;144.3960418701172
191;1673428127.7241457;47.130607999999995;7.2405716;49.89600372314453;1673428127.7422602;-21.20609474182129;49.36309051513672;155.47061157226562
192;1673428127.913545;47.1305948;7.2405536999999995;49.90900421142578;1673428127.9301455;-33.75941467285156;45.7807731628418;165.64434814453125
193;1673428128.1074657;47.1305799;7.240534299999999;49.91200256347656;1673428128.127034;-42.547996520996094;40.41681671142578;178.49024963378906
194;1673428128.3100007;47.1305638;7.2405132;49.90200424194336;1673428128.3315468;-49.1525764465332;32.64153289794922;-168.28590393066406
195;1673428128.5119233;47.1305467;7.240490599999999;49.8640022277832;1673428128.5314605;-49.5929069519043;25.661006927490234;-159.4879608154297
196;1673428128.7201;47.1305288;7.2404668;49.80400085449219;1673428128.7388835;-46.635643005371094;20.480003356933594;-154.17376708984375
197;1673428128.9258654;47.1305106;7.2404423;49.74700164794922;1673428128.943096;-46.099082946777344;15.771248817443848;-147.57135009765625
198;1673428129.139099;47.1304921;7.2404173;49.70100402832031;1673428129.1552942;-46.589385986328125;10.058348655700684;-139.7685089111328
199;1673428129.3254342;47.1304735;7.240391799999999;49.677001953125;1673428129.345006;-46.890995025634766;8.88872241973877;-133.84095764160156
200;1673428129.5131161;47.130454799999995;7.240366;49.67000198364258;1673428129.5297043;-47.12833786010742;0.8678006529808044;-128.3460235595703
201;1673428129.7140698;47.1304361;7.2403398999999995;49.66200256347656;1673428129.735717;-47.58213806152344;-0.38216108083724976;-131.38955688476562
202;1673428129.9195948;47.130417;7.240313899999999;49.65900421142578;1673428129.941083;-47.7631950378418;0.6993891000747681;-133.95272827148438
203;1673428130.121276;47.130397599999995;7.240288;49.65700149536133;1673428130.147191;-48.10776901245117;1.9560155868530273;-134.97616577148438
204;1673428130.3293412;47.1303779;7.2402622999999995;49.65400314331055;1673428130.3474858;-47.787837982177734;3.458516836166382;-135.55557250976562
205;1673428130.512221;47.130358;7.2402367;49.660003662109375;1673428130.5307748;-47.189510345458984;4.615755558013916;-135.89157104492188
206;1673428130.7110121;47.130337999999995;7.2402109999999995;49.676002502441406;1673428130.7334616;-47.67444610595703;5.719339847564697;-136.13327026367188
207;1673428130.91697;47.130317899999994;7.2401852;49.7030029296875;1673428130.935603;-48.610164642333984;6.367397308349609;-136.1550750732422
208;1673428131.1114445;47.1302978;7.2401592;49.733001708984375;1673428131.1299918;-49.20732498168945;6.446946620941162;-135.97885131835938
209;1673428131.3046417;47.1302776;7.240132999999999;49.76000213623047;1673428131.3231728;-49.266639709472656;6.2032928466796875;-135.70822143554688
210;1673428131.5133984;47.1302575;7.2401065;49.78300094604492;1673428131.5368843;-48.7498779296875;5.993114948272705;-135.49444580078125
211;1673428131.7120733;47.1302373;7.2400799;49.790000915527344;1673428131.7316196;-48.16231155395508;5.825275421142578;-135.32968139648438
212;1673428131.9227228;47.130217099999996;7.240053;49.794002532958984;1673428131.9422767;-47.49797058105469;5.713583946228027;-135.26771545410156
213;1673428132.1576614;47.1301969;7.2400261;49.802001953125;1673428132.170351;-47.50953674316406;5.796689987182617;-135.34083557128906
214;1673428132.3492024;47.1301768;7.2399990999999995;49.81300354003906;1673428132.364818;-47.91150665283203;5.849026203155518;-135.32081604003906
215;1673428132.5564198;47.130156799999995;7.2399721999999995;49.823001861572266;1673428132.5760837;-48.16405487060547;5.762864112854004;-135.24853515625
216;1673428132.7685957;47.1301367;7.2399451;49.83500289916992;1673428132.7861602;-48.27369689941406;5.76367712020874;-135.23170471191406
217;1673428132.9664967;47.1301166;7.2399181;49.8380012512207;1673428132.9928493;-48.073482513427734;5.727167129516602;-135.16017150878906
218;1673428133.1547775;47.1300965;7.2398909;49.84700393676758;1673428133.1704237;-47.90175247192383;5.656371593475342;-135.1704559326172
219;1673428133.3502195;47.1300765;7.2398637;49.85700225830078;1673428133.366813;-48.104583740234375;5.826700687408447;-135.23361206054688
220;1673428133.5318565;47.130056499999995;7.2398365;49.86900329589844;1673428133.5475214;-48.438690185546875;5.726433753967285;-135.16416931152344
221;1673428133.7240942;47.130036499999996;7.2398092;49.87700271606445;1673428133.7426462;-48.562896728515625;5.697298049926758;-135.1580810546875
222;1673428133.9419732;47.130016499999996;7.239781799999999;49.88100051879883;1673428133.957269;-48.376007080078125;5.548707485198975;-135.10235595703125
223;1673428134.145109;47.129996399999996;7.2397544;49.88100051879883;1673428134.1632788;-47.96019744873047;5.487588405609131;-135.10568237304688
224;1673428134.3380823;47.1299764;7.2397271;49.875003814697266;1673428134.3537436;-47.68080520629883;5.522644996643066;-135.12026977539062
225;1673428134.5417073;47.1299564;7.2396997999999995;49.867000579833984;1673428134.5607886;-47.59415817260742;5.488580703735352;-135.12892150878906
226;1673428134.7294667;47.1299364;7.2396724;49.85900115966797;1673428134.747079;-47.53228759765625;5.596078395843506;-135.17381286621094
227;1673428134.910401;47.1299165;7.2396451;49.85400390625;1673428134.9269805;-47.580299377441406;5.6251749992370605;-135.1976776123047
228;1673428135.1020687;47.129896599999995;7.2396177999999995;49.85400390625;1673428135.1186614;-47.92790985107422;5.608757019042969;-135.1967315673828
229;1673428135.3037968;47.129876599999996;7.239590499999999;49.85700225830078;1673428135.3223524;-48.22480773925781;5.738194942474365;-135.21998596191406
230;1673428135.4975936;47.1298567;7.2395632;49.85600280761719;1673428135.5142167;-48.3596076965332;5.602579116821289;-135.11553955078125
231;1673428135.7128687;47.1298367;7.2395359;49.85400390625;1673428135.732572;-48.07528305053711;5.531027317047119;-135.097412109375
232;1673428135.901915;47.1298168;7.2395086;49.85700225830078;1673428135.92045;-47.89175796508789;5.567149639129639;-135.10595703125
233;1673428136.0999475;47.1297968;7.239481199999999;49.85900115966797;1673428136.119467;-48.0755729675293;5.603514671325684;-135.10650634765625
234;1673428136.2982988;47.129776799999995;7.2394539;49.86000061035156;1673428136.316067;-48.169429779052734;5.559013366699219;-135.07852172851562
235;1673428136.5083845;47.1297569;7.239426399999999;49.85900115966797;1673428136.5260618;-48.04981994628906;5.442400932312012;-135.04052734375
236;1673428136.7041948;47.129737;7.239399;49.85600280761719;1673428136.72083;-47.79780197143555;5.339871883392334;-135.01193237304688
237;1673428136.9234903;47.129717;7.2393716999999995;49.855003356933594;1673428136.9441497;-47.651275634765625;5.377455711364746;-135.0618438720703
238;1673428137.114569;47.1296971;7.2393443;49.86000061035156;1673428137.136554;-47.884002685546875;5.487422943115234;-135.0886688232422
239;1673428137.3334396;47.129677199999996;7.2393168999999995;49.8650016784668;1673428137.3519945;-48.258419036865234;5.4426960945129395;-135.02554321289062
240;1673428137.5239203;47.1296572;7.2392895;49.86900329589844;1673428137.5515473;-48.150962829589844;5.436542987823486;-134.99697875976562
241;1673428137.7394075;47.1296373;7.2392622;49.87300109863281;1673428137.7835863;-47.88443374633789;5.325735569000244;-134.94252014160156
242;1673428137.9688485;47.1296173;7.239234799999999;49.87900161743164;1673428137.9834867;-47.8016357421875;5.314859390258789;-134.91873168945312
243;1673428138.1581671;47.129597399999994;7.2392075;49.88600158691406;1673428138.1767104;-47.97869110107422;5.430136203765869;-134.9471893310547
244;1673428138.3526428;47.129577399999995;7.2391801;49.89200210571289;1673428138.368025;-48.21237564086914;5.367088794708252;-134.85643005371094
245;1673428138.5316906;47.1295575;7.2391527;49.89600372314453;1673428138.5464013;-48.17835998535156;5.288209438323975;-134.8106231689453
246;1673428138.7233284;47.1295375;7.2391252999999995;49.90200424194336;1673428138.743124;-47.94503402709961;5.296490669250488;-134.77455139160156
247;1673428138.943511;47.1295175;7.239097999999999;49.906002044677734;1673428138.9584014;-47.91706085205078;5.244083881378174;-134.70745849609375
248;1673428139.138525;47.1294975;7.2390706;49.90900421142578;1673428139.1541371;-47.927433013916016;5.151717662811279;-134.64605712890625
249;1673428139.3244169;47.1294776;7.239043199999999;49.91200256347656;1673428139.3448956;-47.941043853759766;5.194388389587402;-134.61158752441406
250;1673428139.5358872;47.129457599999995;7.2390158;49.915000915527344;1673428139.552552;-48.00782775878906;5.011703968048096;-134.50328063964844
251;1673428139.7381847;47.1294377;7.2389883;49.91800308227539;1673428139.752836;-47.90299606323242;5.021759986877441;-134.4630126953125
252;1673428139.9300096;47.1294177;7.2389608999999995;49.92100143432617;1673428139.9506485;-47.79041290283203;5.501933574676514;-134.53224182128906
253;1673428140.1282203;47.1293977;7.238933299999999;49.92400360107422;1673428140.1467721;-47.43655776977539;8.110859870910645;-134.97605895996094
254;1673428140.3335872;47.129377899999994;7.2389056;49.93100357055664;1673428140.3492126;-47.69192123413086;7.028531551361084;-134.00254821777344
255;1673428140.5318859;47.1293582;7.2388778;49.94000244140625;1673428140.549457;-48.156002044677734;6.680877208709717;-133.76361083984375
256;1673428140.7409465;47.1293386;7.2388499;49.94900131225586;1673428140.7600439;-47.945613861083984;7.941585063934326;-133.8514862060547
257;1673428140.9343631;47.1293192;7.238821799999999;49.96000289916992;1673428140.9510114;-47.99005126953125;8.075060844421387;-133.49241638183594
258;1673428141.1268346;47.1292999;7.2387935;49.97200393676758;1673428141.14342;-46.94552230834961;8.471742630004883;-133.13502502441406
259;1673428141.333382;47.1292809;7.238765099999999;49.996002197265625;1673428141.355812;-38.89321517944336;7.796125888824463;-132.5247344970703
260;1673428141.5327125;47.129262399999995;7.2387372999999995;50.02100372314453;1673428141.5493464;-23.135480880737305;9.133805274963379;-133.73558044433594
261;1673428141.7241929;47.129245;7.2387109999999995;50.031002044677734;1673428141.7427723;-6.657820224761963;8.657126426696777;-135.06259155273438
262;1673428141.924226;47.1292292;7.2386871;50.03400421142578;1673428141.9442992;5.494899272918701;8.632302284240723;-136.29244995117188
263;1673428142.1235406;47.1292154;7.2386667;50.02700424194336;1673428142.1411119;14.737648963928223;9.89665699005127;-136.8380889892578
264;1673428142.3291907;47.1292037;7.238649799999999;49.9890022277832;1673428142.3487482;22.35625457763672;6.799380302429199;-135.50210571289062
265;1673428142.5318797;47.129194;7.2386364;49.93400192260742;1673428142.5523853;21.52417755126953;15.09738826751709;-136.69544982910156
266;1673428142.728859;47.129186499999996;7.2386257;49.88600158691406;1673428142.747441;20.349266052246094;13.924771308898926;-137.6812286376953
267;1673428142.9313493;47.1291808;7.238617199999999;49.840003967285156;1673428142.9479408;15.769046783447266;13.411267280578613;-138.9853057861328
268;1673428143.1228979;47.129176699999995;7.2386102999999995;49.814002990722656;1673428143.1394835;6.171474456787109;13.360477447509766;-139.1397247314453
269;1673428143.3072832;47.1291738;7.238604199999999;49.83100128173828;1673428143.3268096;-4.3308329582214355;10.524530410766602;-138.12196350097656
270;1673428143.5265586;47.129171299999996;7.2385988999999995;49.87800216674805;1673428143.5480268;-9.201361656188965;9.99885082244873;-137.45785522460938
271;1673428143.7522094;47.129168899999996;7.2385939;49.928001403808594;1673428143.7703211;-9.628987312316895;6.5073089599609375;-138.40817260742188
272;1673428143.9478407;47.1291661;7.2385893;49.96900177001953;1673428143.9626157;-8.063798904418945;6.464679718017578;-139.82110595703125
273;1673428144.1585855;47.1291631;7.2385851;49.99800109863281;1673428144.1761956;-5.000429630279541;5.882188320159912;-140.77532958984375
274;1673428144.356495;47.1291599;7.2385812;50.022003173828125;1673428144.3747396;-2.0363614559173584;5.938530921936035;-141.4385986328125
275;1673428144.5443995;47.129156599999995;7.238577599999999;50.0420036315918;1673428144.5619805;-1.7439404726028442;6.8787922859191895;-141.26222229003906
276;1673428144.734382;47.1291532;7.238574099999999;50.0780029296875;1673428144.749984;-24.01519012451172;8.498931884765625;-140.5458221435547
277;1673428144.9284532;47.1291495;7.2385698;50.15400314331055;1673428144.9480765;-20.979949951171875;1.9359164237976074;-136.35008239746094
278;1673428145.1304004;47.129145;7.2385648;50.30600357055664;1673428145.146993;-17.227432250976562;0.867393970489502;-136.3981170654297
279;1673428145.334996;47.1291398;7.2385594;50.55000305175781;1673428145.3545558;-17.61542320251465;3.2211081981658936;-136.896728515625
280;1673428145.531874;47.129134099999995;7.2385538;50.871002197265625;1673428145.5523796;-24.957517623901367;7.021036148071289;-137.51661682128906
281;1673428145.7341342;47.1291277;7.2385473;51.22700119018555;1673428145.7507508;-39.33418273925781;14.059334754943848;-138.56382751464844
282;1673428145.926729;47.129120199999996;7.2385385;51.577003479003906;1673428145.946263;-43.84133529663086;15.251030921936035;-136.51524353027344
283;1673428146.1242204;47.129111599999995;7.2385271;51.926002502441406;1673428146.1388614;-41.50449752807617;13.82895278930664;-135.3116455078125
284;1673428146.3190103;47.1291022;7.2385133999999995;52.28600311279297;1673428146.3356364;-35.81926345825195;12.364068984985352;-135.46646118164062
285;1673428146.5145185;47.1290924;7.2384984999999995;52.64600372314453;1673428146.5359807;-30.30872344970703;9.272906303405762;-135.27476501464844
286;1673428146.720897;47.1290823;7.238482899999999;53.006004333496094;1673428146.7394419;-26.090988159179688;7.029723167419434;-135.76084899902344
287;1673428146.9234753;47.129072199999996;7.2384673;53.36900329589844;1673428146.9420087;-22.17180061340332;6.08998966217041;-136.2299346923828
288;1673428147.1235404;47.1290621;7.238452;53.73800277709961;1673428147.1420846;-19.593353271484375;6.257619380950928;-136.81948852539062
289;1673428147.3212469;47.1290523;7.2384374;54.108001708984375;1673428147.3397925;-18.689329147338867;7.509317874908447;-137.44313049316406
290;1673428147.526602;47.129042399999996;7.2384235;54.483001708984375;1673428147.543435;-19.11168670654297;9.299176216125488;-138.01239013671875
291;1673428147.7138839;47.129032599999995;7.238410099999999;54.862003326416016;1673428147.7314692;-19.992870330810547;8.717498779296875;-137.8546905517578
292;1673428147.9216926;47.129022899999995;7.238397099999999;55.24400329589844;1673428147.939261;-21.45224380493164;8.2889404296875;-137.75323486328125
293;1673428148.1284466;47.1290133;7.2383842;55.630001068115234;1673428148.1469893;-22.960636138916016;7.282809257507324;-137.34005737304688
294;1673428148.3389125;47.1290038;7.2383714999999995;56.01900100708008;1673428148.3600986;-24.33226776123047;7.119935035705566;-137.13446044921875
295;1673428148.5484288;47.128994399999996;7.2383587;56.40900421142578;1673428148.5650718;-25.186426162719727;7.604494094848633;-137.19923400878906
296;1673428148.7288122;47.1289848;7.2383456;56.801002502441406;1673428148.7445557;-25.462474822998047;7.953906059265137;-137.27215576171875
297;1673428148.9276772;47.1289752;7.2383324;57.198001861572266;1673428148.9473512;-25.595489501953125;9.147244453430176;-137.334228515625
298;1673428149.1430132;47.1289655;7.238319;57.59700393676758;1673428149.165549;-25.372861862182617;9.495320320129395;-137.27183532714844
299;1673428149.3456511;47.1289557;7.2383054;57.996002197265625;1673428149.3603075;-25.27552032470703;10.420523643493652;-137.48300170898438
300;1673428149.5235903;47.1289459;7.2382918;58.39500427246094;1673428149.5399237;-24.988195419311523;10.41117000579834;-137.42788696289062
301;1673428149.7250912;47.128935999999996;7.2382782;58.79500198364258;1673428149.7426574;-24.520071029663086;10.403297424316406;-137.45462036132812
302;1673428149.9187236;47.1289261;7.2382646;59.19000244140625;1673428149.9353602;-24.64446258544922;9.966191291809082;-137.2469024658203
303;1673428150.1215885;47.1289162;7.238251;59.58700180053711;1673428150.1381788;-24.554187774658203;8.775333404541016;-137.14646911621094
304;1673428150.3238416;47.1289064;7.2382373;59.98400115966797;1673428150.3433647;-24.59078025817871;7.850157260894775;-137.00071716308594
305;1673428150.5337665;47.128896499999996;7.2382235999999995;60.38300323486328;1673428150.5513413;-24.631473541259766;6.956066131591797;-136.73403930664062
306;1673428150.7370427;47.128886699999995;7.238209899999999;60.78400421142578;1673428150.754317;-24.549671173095703;6.5965895652771;-136.73602294921875
307;1673428150.9311652;47.1288768;7.238196299999999;61.18300247192383;1673428150.9516613;-24.50099754333496;6.5477614402771;-136.64439392089844
308;1673428151.1257393;47.128867;7.2381828;61.577003479003906;1673428151.1433074;-24.64512062072754;6.4342570304870605;-136.7411651611328
309;1673428151.3404217;47.1288571;7.2381693;61.96900177001953;1673428151.3579898;-24.33294105529785;6.7007551193237305;-136.84349060058594
310;1673428151.558505;47.128847199999996;7.2381557;62.3640022277832;1673428151.5731466;-24.48384666442871;7.184441566467285;-136.81759643554688
311;1673428151.742092;47.1288373;7.238142099999999;62.75700378417969;1673428151.7606363;-24.404903411865234;7.919163227081299;-136.94102478027344
312;1673428151.9360523;47.1288274;7.2381286;63.15300369262695;1673428151.9565573;-24.52153968811035;8.312971115112305;-136.90509033203125
313;1673428152.1316676;47.1288176;7.238115;63.551002502441406;1673428152.1492283;-24.56466293334961;9.370468139648438;-137.1640625
314;1673428152.3457031;47.128807699999996;7.2381015;63.94900131225586;1673428152.3634017;-24.458635330200195;9.842692375183105;-137.27879333496094
315;1673428152.532235;47.128797899999995;7.2380879;64.34700012207031;1673428152.5488272;-24.57337188720703;9.924788475036621;-137.1880645751953
316;1673428152.7311518;47.128788;7.2380745;64.74400329589844;1673428152.7536163;-24.625865936279297;10.46566390991211;-137.49755859375
317;1673428152.9550576;47.1287781;7.2380610999999995;65.14500427246094;1673428152.9716778;-24.43484115600586;10.33107852935791;-137.2445526123047
318;1673428153.1578164;47.128768199999996;7.2380476;65.54600524902344;1673428153.174399;-24.459287643432617;10.483305931091309;-137.1931610107422
319;1673428153.366077;47.1287583;7.2380341999999995;65.94700622558594;1673428153.382667;-24.665002822875977;10.258018493652344;-137.19400024414062
320;1673428153.590831;47.1287484;7.238020799999999;66.34500122070312;1673428153.6104052;-24.7816104888916;10.081013679504395;-137.04556274414062
321;1673428153.7800782;47.1287386;7.2380073;66.73699951171875;1673428153.7972093;-24.687978744506836;10.232760429382324;-137.06861877441406
322;1673428153.9983003;47.1287288;7.2379938;67.1290054321289;1673428154.0149577;-25.013221740722656;9.896211624145508;-136.9426727294922
323;1673428154.18972;47.128719;7.237980299999999;67.51800537109375;1673428154.208351;-24.87224769592285;9.657676696777344;-136.9227294921875
324;1673428154.3766134;47.1287093;7.2379668;67.90900421142578;1673428154.3922367;-25.1522274017334;9.535187721252441;-136.89273071289062
325;1673428154.5462022;47.128699499999996;7.2379532;68.30400085449219;1673428154.562802;-25.167205810546875;9.004997253417969;-136.79396057128906
326;1673428154.7322;47.128689699999995;7.2379396;68.70100402832031;1673428154.7488668;-25.324005126953125;8.481821060180664;-136.8672637939453
327;1673428154.923298;47.128679899999995;7.237926099999999;69.09600067138672;1673428154.941887;-25.37069320678711;8.110224723815918;-136.8560028076172
328;1673428155.122612;47.12867;7.237912499999999;69.48699951171875;1673428155.1391988;-25.435562133789062;7.725660800933838;-136.62850952148438
329;1673428155.327141;47.1286602;7.2378988;69.8790054321289;1673428155.3476388;-25.496679306030273;7.676372528076172;-136.61630249023438
330;1673428155.546188;47.1286504;7.2378852;70.27100372314453;1673428155.5647316;-25.54054069519043;7.813257217407227;-136.74635314941406
331;1673428155.774828;47.128640499999996;7.2378713999999995;70.66500091552734;1673428155.8007586;-25.349462509155273;7.570793151855469;-136.6158905029297
332;1673428155.9712875;47.1286306;7.237857699999999;71.06300354003906;1673428155.9869113;-25.3220272064209;7.655404567718506;-136.62158203125
333;1673428156.1655002;47.1286207;7.237844099999999;71.46100616455078;1673428156.1840348;-25.467979431152344;7.546567916870117;-136.572509765625
334;1673428156.3567154;47.1286108;7.237830499999999;71.85700225830078;1673428156.3772235;-25.36473846435547;7.614173889160156;-136.6471710205078
335;1673428156.555123;47.1286008;7.2378168;72.25100708007812;1673428156.5806994;-25.361316680908203;7.53872537612915;-136.6688232421875
336;1673428156.7595506;47.1285909;7.2378031;72.64300537109375;1673428156.7790809;-25.325965881347656;7.6002326011657715;-136.6063232421875
337;1673428156.9810011;47.128580899999996;7.2377894;73.03700256347656;1673428156.9983053;-25.439462661743164;7.692434310913086;-136.65731811523438
338;1673428157.1938221;47.128571;7.2377756;73.43800354003906;1673428157.2065077;-25.248592376708984;7.922189235687256;-136.763916015625
339;1673428157.396002;47.128561;7.2377619;73.83600616455078;1673428157.4096665;-25.252071380615234;8.214289665222168;-136.83180236816406
340;1673428157.5851624;47.128551099999996;7.237748099999999;74.23200225830078;1673428157.602295;-25.358999252319336;8.398147583007812;-136.7953338623047
341;1673428157.791236;47.1285411;7.237734499999999;74.625;1673428157.8064158;-25.489967346191406;8.591493606567383;-136.83641052246094
342;1673428157.9752734;47.1285311;7.2377208;75.01800537109375;1673428157.9909;-25.672332763671875;8.832969665527344;-136.8787384033203
343;1673428158.183969;47.1285211;7.2377071;75.41900634765625;1673428158.1981776;-25.570663452148438;9.079343795776367;-136.88734436035156
344;1673428158.3603692;47.1285111;7.2376933999999995;75.81800079345703;1673428158.3770003;-25.522132873535156;9.164304733276367;-136.91256713867188
345;1673428158.560553;47.1285011;7.237679699999999;76.21600341796875;1673428158.5791647;-25.37653160095215;8.957387924194336;-136.8626251220703
346;1673428158.756399;47.1284911;7.2376659;76.61000061035156;1673428158.7749426;-25.24051856994629;8.960471153259277;-136.87457275390625
347;1673428158.9617908;47.128481099999995;7.2376521;77.0050048828125;1673428158.9783838;-25.212940216064453;8.944766998291016;-136.88658142089844
348;1673428159.148053;47.1284712;7.2376384;77.39800262451172;1673428159.163669;-25.18294334411621;8.816550254821777;-136.89071655273438
349;1673428159.340866;47.1284613;7.2376247;77.79600524902344;1673428159.358442;-25.174734115600586;8.84457778930664;-136.91482543945312
350;1673428159.5421846;47.128451399999996;7.237610999999999;78.19600677490234;1673428159.5589323;-25.081323623657227;8.791993141174316;-136.91700744628906
351;1673428159.7298594;47.1284415;7.2375973;78.59600067138672;1673428159.747427;-25.130233764648438;8.695131301879883;-136.9205322265625
352;1673428159.9366934;47.1284315;7.2375836;79.00100708007812;1673428159.9552944;-24.993610382080078;8.800101280212402;-136.92868041992188
353;1673428160.132038;47.128421599999996;7.2375699;79.40800476074219;1673428160.149606;-25.249906539916992;8.722725868225098;-136.9204559326172
354;1673428160.3332446;47.1284117;7.2375563;79.81000518798828;1673428160.3509274;-25.276256561279297;8.688008308410645;-136.9304656982422
355;1673428160.5490942;47.1284019;7.2375427;80.20700073242188;1673428160.5686133;-25.48487091064453;8.824018478393555;-136.9569091796875
356;1673428160.751467;47.128392;7.2375291;80.60400390625;1673428160.7700453;-25.481279373168945;8.758794784545898;-136.9345245361328
357;1673428160.9459188;47.128382099999996;7.2375155;81.00200653076172;1673428160.961703;-25.305076599121094;8.748406410217285;-136.9018096923828
358;1673428161.1377838;47.128372299999995;7.2375017999999995;81.40300750732422;1673428161.1535516;-25.212764739990234;8.764243125915527;-136.9273681640625
359;1673428161.3352773;47.1283624;7.2374882;81.8080062866211;1673428161.3559117;-25.456340789794922;8.686156272888184;-136.92416381835938
360;1673428161.55739;47.1283525;7.2374746;82.21000671386719;1673428161.575;-25.3619441986084;8.862175941467285;-136.9412384033203
361;1673428161.748064;47.128342599999996;7.237461;82.60900115966797;1673428161.763682;-25.435016632080078;8.845353126525879;-136.94772338867188
362;1673428161.958752;47.1283327;7.2374474;83.0050048828125;1673428161.9753737;-25.450838088989258;8.774259567260742;-136.92677307128906
363;1673428162.164487;47.1283228;7.2374336999999995;83.39800262451172;1673428162.2000072;-25.23878288269043;8.847793579101562;-136.91815185546875
364;1673428162.3685994;47.1283129;7.237419999999999;83.79300689697266;1673428162.3871505;-25.443681716918945;8.640018463134766;-136.9226531982422
365;1673428162.5627594;47.1283031;7.237406399999999;84.18600463867188;1673428162.5823271;-25.25540542602539;8.721189498901367;-136.90151977539062
366;1673428162.766551;47.1282931;7.2373927;84.58200073242188;1673428162.7870662;-25.44270896911621;8.710225105285645;-136.9414520263672
367;1673428162.9632697;47.1282832;7.2373791;84.9780044555664;1673428162.9798965;-25.41089630126953;8.77728271484375;-136.9267578125
368;1673428163.1566987;47.1282733;7.237365499999999;85.36900329589844;1673428163.1733193;-25.198888778686523;8.88268756866455;-136.94029235839844
369;1673428163.3570886;47.128263399999994;7.2373518;85.76300048828125;1673428163.3747048;-25.247127532958984;8.902583122253418;-136.93478393554688
370;1673428163.559131;47.1282535;7.2373382;86.156005859375;1673428163.5777225;-25.328441619873047;8.779945373535156;-136.9296417236328
371;1673428163.753095;47.1282436;7.2373245;86.55000305175781;1673428163.7718608;-25.39124298095703;8.784375190734863;-136.9373321533203
372;1673428163.9573839;47.128233699999996;7.2373107999999995;86.94400787353516;1673428163.9759617;-25.33464813232422;8.714029312133789;-136.92691040039062
373;1673428164.1629667;47.1282238;7.2372971999999995;87.33900451660156;1673428164.181511;-25.455537796020508;8.777984619140625;-136.98338317871094
374;1673428164.3864427;47.1282139;7.2372836;87.73300170898438;1673428164.4074893;-25.3790340423584;8.781665802001953;-136.95140075683594
375;1673428164.5984929;47.128204;7.237269899999999;88.12500762939453;1673428164.6156292;-25.217111587524414;8.629694938659668;-136.9255828857422
376;1673428164.792209;47.128194;7.2372562;88.51700592041016;1673428164.807909;-25.208505630493164;8.663182258605957;-136.95372009277344
377;1673428164.9975505;47.1281841;7.2372425;88.91200256347656;1673428165.0171344;-25.22481346130371;8.682573318481445;-136.94981384277344
378;1673428165.2408333;47.1281742;7.2372289;89.3080062866211;1673428165.258389;-25.129165649414062;8.738321304321289;-136.96859741210938
379;1673428165.448745;47.1281642;7.2372152;89.7030029296875;1673428165.4614332;-25.290199279785156;8.635651588439941;-136.94590759277344
380;1673428165.6166172;47.1281543;7.2372016;90.09900665283203;1673428165.6342692;-25.160259246826172;8.77335262298584;-136.95077514648438
381;1673428165.7977383;47.128144299999995;7.2371881;90.49300384521484;1673428165.8158934;-25.319278717041016;8.865922927856445;-136.95445251464844
382;1673428165.9958603;47.1281344;7.2371745999999995;90.88500213623047;1673428166.0159192;-25.26702308654785;9.002397537231445;-136.9383544921875
383;1673428166.1883504;47.1281244;7.2371609999999995;91.2750015258789;1673428166.2123165;-25.134687423706055;8.897662162780762;-136.8984375
384;1673428166.385738;47.128114499999995;7.237147299999999;91.66400146484375;1673428166.406774;-25.183183670043945;8.876581192016602;-136.9424285888672
385;1673428166.5850313;47.1281045;7.237133699999999;92.05500793457031;1673428166.6006587;-25.265228271484375;8.794888496398926;-136.9360809326172
386;1673428166.7678556;47.1280946;7.2371202;92.44900512695312;1673428166.7863872;-25.321182250976562;8.803123474121094;-136.94171142578125
387;1673428166.9639204;47.128084699999995;7.2371066;92.84100341796875;1673428166.9834416;-25.39174461364746;8.872034072875977;-136.9413299560547
388;1673428167.1623712;47.1280748;7.237093;93.23400115966797;1673428167.1789591;-25.23042106628418;8.621479988098145;-136.9269256591797
389;1673428167.3598018;47.1280649;7.2370794;93.6290054321289;1673428167.3793242;-25.387989044189453;8.61689281463623;-136.92953491210938
390;1673428167.5671716;47.128054899999995;7.2370658;94.02400207519531;1673428167.5877564;-25.289932250976562;8.674980163574219;-136.93072509765625
391;1673428167.7744515;47.128045;7.237052299999999;94.42000579833984;1673428167.7900677;-25.241762161254883;8.781270027160645;-136.94981384277344
392;1673428167.9602687;47.128035;7.237038699999999;94.81700134277344;1673428167.9768991;-25.266769409179688;8.773324966430664;-136.90834045410156
393;1673428168.1582754;47.128025099999995;7.237025099999999;95.21500396728516;1673428168.1740537;-25.332717895507812;8.696393966674805;-136.92991638183594
394;1673428168.3630807;47.1280152;7.2370116;95.61200714111328;1673428168.3835788;-25.353595733642578;8.696937561035156;-136.89907836914062
395;1673428168.5814219;47.1280052;7.2369981;96.01200103759766;1673428168.598495;-25.292034149169922;8.855425834655762;-136.90773010253906
396;1673428168.7764945;47.1279952;7.236984499999999;96.40900421142578;1673428168.795049;-25.251750946044922;8.915450096130371;-136.89572143554688
397;1673428168.984683;47.1279852;7.236970899999999;96.8070068359375;1673428168.9984019;-25.18109703063965;9.04867172241211;-136.90774536132812
398;1673428169.1902726;47.127975199999995;7.236957299999999;97.20500183105469;1673428169.2124672;-25.182748794555664;8.95982837677002;-136.8917694091797
399;1673428169.4025552;47.1279653;7.236943699999999;97.60400390625;1673428169.4473839;-25.163816452026367;8.89820384979248;-136.88531494140625
400;1673428169.6226451;47.1279554;7.2369300999999995;98.00100708007812;1673428169.6402285;-25.16706085205078;8.869427680969238;-136.90611267089844
401;1673428169.803348;47.127945499999996;7.2369166;98.4010009765625;1673428169.8190472;-25.20341682434082;8.949673652648926;-136.91490173339844
402;1673428170.0000665;47.1279356;7.236903;98.79900360107422;1673428170.0186498;-25.279664993286133;8.818002700805664;-136.86947631835938
403;1673428170.2258632;47.1279256;7.236889499999999;99.19900512695312;1673428170.23953;-25.370939254760742;8.901185035705566;-136.8737030029297
404;1673428170.4124882;47.127915699999996;7.236875899999999;99.60100555419922;1673428170.430056;-25.215408325195312;8.981492042541504;-136.8719482421875
405;1673428170.597673;47.1279058;7.236862299999999;100.00100708007812;1673428170.6103132;-25.497814178466797;8.86915397644043;-136.87095642089844
406;1673428170.7836294;47.1278959;7.2368486999999995;100.4010009765625;1673428170.8091722;-25.21118927001953;8.697016716003418;-136.85096740722656
407;1673428171.0422852;47.127886;7.236834999999999;100.8010025024414;1673428171.0579903;-25.281776428222656;8.667593955993652;-136.87579345703125
408;1673428171.2225447;47.127876099999995;7.236821399999999;101.19800567626953;1673428171.2352307;-25.196475982666016;8.697807312011719;-136.8551788330078
409;1673428171.4040084;47.1278662;7.2368079;101.59800720214844;1673428171.4240787;-25.25900650024414;8.795223236083984;-136.8750457763672
410;1673428171.5845673;47.1278562;7.2367943;101.99700164794922;1673428171.6011517;-25.293460845947266;8.890506744384766;-136.87118530273438
411;1673428171.7739387;47.127846299999995;7.2367807;102.39800262451172;1673428171.7905684;-25.30759048461914;8.893250465393066;-136.84617614746094
412;1673428171.9782772;47.1278364;7.2367669999999995;102.79800415039062;1673428172.0008545;-25.29513931274414;8.737990379333496;-136.83694458007812
413;1673428172.184196;47.1278265;7.2367534;103.19900512695312;1673428172.2027905;-25.239131927490234;8.801694869995117;-136.8539581298828
414;1673428172.367077;47.127816599999996;7.2367399;103.59600830078125;1673428172.383755;-25.23676872253418;8.824130058288574;-136.85789489746094
415;1673428172.559852;47.1278067;7.2367263;103.99400329589844;1673428172.5783846;-25.358800888061523;8.824628829956055;-136.84326171875
416;1673428172.7536228;47.1277968;7.2367127;104.39700317382812;1673428172.772168;-25.558027267456055;8.916840553283691;-136.86898803710938
417;1673428172.9475658;47.127786799999996;7.2366991;104.79900360107422;1673428172.9661143;-25.420669555664062;8.837197303771973;-136.81900024414062
418;1673428173.166881;47.1277769;7.2366854;105.19800567626953;1673428173.1854267;-25.439985275268555;8.785216331481934;-136.82020568847656
419;1673428173.376803;47.1277671;7.2366717;105.59700775146484;1673428173.3964772;-25.193540573120117;8.804279327392578;-136.8098907470703
420;1673428173.588944;47.1277571;7.2366581;105.99500274658203;1673428173.6084692;-25.346158981323242;8.749824523925781;-136.8426513671875
421;1673428173.7996502;47.127747199999995;7.236644399999999;106.39100646972656;1673428173.8177993;-25.31357765197754;8.885665893554688;-136.8202362060547
