;pos_time;latitude;longitude;altitude;alt_time;pitch;roll;yaw
0;1673423233.0053072;47.1306425;7.240619799999999;-0.021000001579523087;1673423233.1211617;-0.1282964050769806;0.08346888422966003;90.08478546142578
1;1673423233.2052503;47.1306425;7.2406198999999996;-0.020000001415610313;1673423233.3375204;-0.23095525801181793;0.12662991881370544;90.07389831542969
2;1673423233.416341;47.1306425;7.2406198999999996;-0.01900000125169754;1673423233.521966;-0.07268671691417694;0.0880875363945961;90.06819152832031
3;1673423233.601555;47.1306425;7.2406198999999996;-0.01900000125169754;1673423233.7297964;0.04202117770910263;-0.39578425884246826;90.00874328613281
4;1673423233.8061209;47.1306425;7.2406198999999996;-0.020000001415610313;1673423233.9219568;-0.1482422947883606;-0.26186320185661316;90.03547668457031
5;1673423233.9976969;47.1306425;7.24062;-0.020000001415610313;1673423234.1255698;-0.14492836594581604;-0.4387584328651428;90.20650482177734
6;1673423234.1979187;47.1306424;7.24062;-0.023000001907348633;1673423234.317088;0.06452663242816925;-0.20511431992053986;90.0369644165039
7;1673423234.4272594;47.1306424;7.24062;-0.02800000086426735;1673423234.5618474;-0.16396841406822205;-0.37517160177230835;90.07295989990234
8;1673423234.6317978;47.1306424;7.24062;-0.03100000135600567;1673423234.759508;-0.18191246688365936;-0.4020741581916809;90.10145568847656
9;1673423234.827631;47.1306424;7.24062;-0.03700000047683716;1673423234.966197;0.19847913086414337;-0.2693433165550232;90.08545684814453
10;1673423235.0533926;47.1306424;7.24062;-0.039000000804662704;1673423235.1906729;0.015300783328711987;-0.29819491505622864;90.11612701416016
11;1673423235.2498877;47.1306423;7.2406201;-0.03700000047683716;1673423235.3884304;-0.051163483411073685;-0.4242684543132782;90.25420379638672
12;1673423235.4881616;47.1306423;7.2406201999999995;-0.03400000184774399;1673423235.593792;-0.018122972920536995;-0.3388161361217499;90.24609375
13;1673423235.6729903;47.1306423;7.2406203;-0.036000002175569534;1673423235.8055058;-0.3051919639110565;-0.296420156955719;90.01246643066406
14;1673423235.9007568;47.1306423;7.2406203;0.0;1673423235.9833322;-0.19642004370689392;0.2366992086172104;90.09024047851562
15;1673423236.0534062;47.1306423;7.2406203;0.0;1673423236.168517;-0.19426481425762177;0.017662130296230316;89.95449829101562
16;1673423236.2395675;47.1306424;7.2406201999999995;0.0;1673423236.344476;-0.2510523796081543;0.13061945140361786;89.9378433227539
17;1673423236.4128625;47.1306424;7.2406201;0.0;1673423236.5243373;-0.1836216002702713;0.1934281438589096;89.83948516845703
18;1673423236.5958478;47.1306424;7.2406201;0.0;1673423236.7351663;-0.043409403413534164;-0.08244052529335022;90.02005004882812
19;1673423236.8181396;47.1306424;7.2406201;-0.0020000000949949026;1673423236.932569;0.15638713538646698;0.7568985223770142;90.0869369506836
20;1673423237.0081367;47.1306424;7.2406201;-0.005000000353902578;1673423237.126542;0.06406816840171814;0.6510136723518372;90.13961029052734
21;1673423237.2068408;47.1306424;7.2406201999999995;-0.010000000707805157;1673423237.3260117;0.11709507554769516;0.8800325393676758;90.08997344970703
22;1673423237.411571;47.1306424;7.2406201999999995;-0.003000000026077032;1673423237.5390399;0.2147783786058426;0.3992074131965637;89.67253112792969
23;1673423237.6203408;47.1306425;7.2406201;-0.005000000353902578;1673423237.7338772;-0.021147985011339188;0.2760951519012451;89.81946563720703
24;1673423237.8033457;47.1306424;7.2406201;-0.0010000000474974513;1673423237.901611;-0.046334754675626755;0.7059453129768372;89.94477081298828
25;1673423237.9726238;47.1306424;7.2406201;0.0020000000949949026;1673423238.1037068;0.1579459309577942;0.2205319106578827;89.78754425048828
26;1673423238.1973073;47.1306424;7.2406201;0.004000000189989805;1673423238.319583;0.2769334316253662;-0.05106022581458092;89.79224395751953
27;1673423238.3976681;47.1306423;7.24062;0.003000000026077032;1673423238.526617;0.09915114939212799;0.3725043535232544;89.79944610595703
28;1673423238.5958555;47.1306423;7.2406198999999996;0.0020000000949949026;1673423238.7227771;0.004512593615800142;0.15569569170475006;89.88488006591797
29;1673423238.803598;47.1306423;7.2406198999999996;0.005000000353902578;1673423238.936723;0.09525413811206818;0.17108914256095886;90.00865936279297
30;1673423239.0181818;47.1306422;7.240619799999999;0.0020000000949949026;1673423239.1378036;-0.08035055547952652;-0.05116764083504677;89.35892486572266
31;1673423239.2130022;47.1306422;7.240619799999999;-0.0020000000949949026;1673423239.3351657;-0.005234379321336746;-1.179526448249817;87.40843200683594
32;1673423239.4104698;47.130641999999995;7.240619799999999;0.0020000000949949026;1673423239.5223653;-0.16364365816116333;-5.545445919036865;85.0201416015625
33;1673423239.5946302;47.1306417;7.2406198999999996;0.013000000268220901;1673423239.721977;-3.464787721633911;-10.313516616821289;84.23011016845703
34;1673423239.8062103;47.130641499999996;7.2406198999999996;0.03700000047683716;1673423239.9312332;-3.965365171432495;-13.272028923034668;85.61443328857422
35;1673423240.0111678;47.130641399999995;7.24062;0.07700000703334808;1673423240.1408179;-2.4231269359588623;-11.763785362243652;86.60111999511719
36;1673423240.2172782;47.1306416;7.24062;0.13199999928474426;1673423240.3274622;-1.5265693664550781;-13.347222328186035;87.53217315673828
37;1673423240.4017353;47.1306418;7.2406201;0.20100000500679016;1673423240.5168426;-0.8998106718063354;-10.447409629821777;88.40998077392578
38;1673423240.5883243;47.130642099999996;7.2406201999999995;0.2850000262260437;1673423240.7003512;-1.0194109678268433;-7.074738025665283;89.13177490234375
39;1673423240.7865164;47.1306423;7.2406201999999995;0.38600000739097595;1673423240.9234684;-1.2415497303009033;-10.700729370117188;90.26175689697266
40;1673423240.9884217;47.1306424;7.2406201999999995;0.503000020980835;1673423241.1059852;-1.6163356304168701;-10.93654727935791;90.93348693847656
41;1673423241.1835482;47.130642599999995;7.2406201999999995;0.6340000033378601;1673423241.3093436;-1.7055704593658447;-7.062780857086182;90.99787139892578
42;1673423241.3827295;47.130642699999996;7.2406201999999995;0.7790000438690186;1673423241.4984376;-0.829975962638855;-10.793477058410645;91.36483001708984
43;1673423241.5831242;47.1306429;7.2406201;0.9340000152587891;1673423241.701117;-1.0273897647857666;-10.708785057067871;91.65557098388672
44;1673423241.7744856;47.1306431;7.2406201999999995;1.1060000658035278;1673423241.921625;-0.6974838972091675;-6.457695007324219;91.67536163330078
45;1673423242.0052834;47.1306431;7.2406201999999995;1.287000060081482;1673423242.1270328;-1.0310064554214478;-9.796754837036133;92.20061492919922
46;1673423242.203819;47.130643;7.2406201999999995;1.474000096321106;1673423242.324952;-0.9804292321205139;-11.83786392211914;92.45158386230469
47;1673423242.400391;47.1306429;7.2406201999999995;1.6690000295639038;1673423242.5286636;-1.627387285232544;-7.5121283531188965;90.64019775390625
48;1673423242.6249409;47.1306429;7.2406201999999995;1.8630000352859497;1673423242.7492392;-1.4530974626541138;-9.733808517456055;91.1930160522461
49;1673423242.8274672;47.1306431;7.2406201999999995;2.0530002117156982;1673423242.9437778;-1.1175252199172974;-11.530685424804688;91.94361114501953
50;1673423243.0169868;47.1306431;7.2406201999999995;2.245000123977661;1673423243.1689572;-0.9053025841712952;-7.39409875869751;91.99755859375
51;1673423243.2667887;47.1306431;7.2406201999999995;2.438000202178955;1673423243.3835418;-0.694458544254303;-8.83527660369873;92.28627014160156
52;1673423243.5051925;47.130643;7.2406203;2.629000186920166;1673423243.603548;-0.5990893840789795;-12.619872093200684;92.51963806152344
53;1673423243.6626809;47.1306429;7.2406203;2.824000120162964;1673423243.7637575;-0.8703497648239136;-8.249578475952148;91.98945617675781
54;1673423243.825246;47.1306429;7.2406203;3.0180001258850098;1673423243.9399924;-1.3632067441940308;-8.176243782043457;92.20515441894531
55;1673423244.0137427;47.1306429;7.2406201999999995;3.2100000381469727;1673423244.1307278;-1.2660759687423706;-11.492435455322266;92.49575805664062
56;1673423244.2364826;47.1306429;7.2406201999999995;3.4050002098083496;1673423244.369419;-1.4878231287002563;-8.380390167236328;92.14530181884766
57;1673423244.4420867;47.1306428;7.2406201999999995;3.5980002880096436;1673423244.5406778;-1.2845892906188965;-7.928873538970947;91.9375
58;1673423244.6154392;47.130642699999996;7.2406201999999995;3.7930002212524414;1673423244.749377;-0.8010048866271973;-12.767509460449219;92.20553588867188
59;1673423244.8227775;47.1306425;7.2406201999999995;3.9840002059936523;1673423244.9417334;-0.6039313673973083;-9.57961368560791;92.19418334960938
60;1673423245.021353;47.1306424;7.2406203;4.174000263214111;1673423245.1465425;-0.9215834736824036;-7.881077289581299;92.26788330078125
61;1673423245.221721;47.1306424;7.2406203;4.363000392913818;1673423245.3516989;-1.112273097038269;-11.120122909545898;92.5317611694336
62;1673423245.4850912;47.1306425;7.2406203;4.558000087738037;1673423245.584838;-1.230000615119934;-10.08548355102539;92.31087493896484
63;1673423245.646872;47.1306424;7.2406203;4.760000228881836;1673423245.76751;-1.2733041048049927;-7.307827472686768;91.95291900634766
64;1673423245.8521457;47.1306423;7.2406203;4.961000442504883;1673423245.9560106;-0.8311824202537537;-12.28664779663086;92.29655456542969
65;1673423246.0243933;47.1306422;7.2406201999999995;5.160000324249268;1673423246.125832;-0.4988499879837036;-11.127643585205078;92.1893539428711
66;1673423246.203628;47.130642099999996;7.2406201999999995;5.359000205993652;1673423246.3307183;-0.9075873494148254;-7.75057315826416;92.22383117675781
67;1673423246.4076223;47.130642099999996;7.2406201999999995;5.558000087738037;1673423246.5448923;-1.3684662580490112;-10.889486312866211;92.4625244140625
68;1673423246.6187856;47.130642099999996;7.2406201;5.758000373840332;1673423246.7455401;-1.666319489479065;-11.280622482299805;92.37481689453125
69;1673423246.8155496;47.130642099999996;7.24062;5.961000442504883;1673423246.9381225;-1.8864448070526123;-7.374629974365234;91.91033172607422
70;1673423247.011042;47.130641999999995;7.2406198999999996;6.160000324249268;1673423247.1210907;-1.6692802906036377;-11.459738731384277;92.1837158203125
71;1673423247.197008;47.130641999999995;7.2406198999999996;6.3560004234313965;1673423247.3261085;-1.0912607908248901;-11.513503074645996;92.32711791992188
72;1673423247.400535;47.130641999999995;7.2406198999999996;6.550000190734863;1673423247.543454;-1.1722220182418823;-7.52798318862915;92.2052993774414
73;1673423247.6120486;47.130642099999996;7.2406198999999996;6.74500036239624;1673423247.7303584;-1.1843562126159668;-9.860100746154785;92.28952026367188
74;1673423247.8062365;47.1306422;7.2406198999999996;6.943000316619873;1673423247.9198985;-1.4799864292144775;-12.031633377075195;92.27397155761719
75;1673423247.9987524;47.130642099999996;7.2406198999999996;7.14300012588501;1673423248.1146095;-1.7460154294967651;-7.524072170257568;91.81803894042969
76;1673423248.189382;47.130641999999995;7.24062;7.344000339508057;1673423248.3055842;-1.7157189846038818;-10.834251403808594;92.1634292602539
77;1673423248.3773656;47.1306419;7.24062;7.544000148773193;1673423248.495765;-1.3827731609344482;-11.94894790649414;92.48493194580078
78;1673423248.5714874;47.1306419;7.24062;7.740000247955322;1673423248.7408469;-1.1442593336105347;-7.803661346435547;92.17648315429688
79;1673423248.818086;47.130641999999995;7.24062;7.933000564575195;1673423248.9697893;-1.1044543981552124;-9.756020545959473;92.26612091064453
80;1673423249.0544379;47.130641999999995;7.2406201;8.125;1673423249.1668446;-0.901251494884491;-12.364373207092285;92.30754089355469
81;1673423249.235188;47.130641999999995;7.2406201;8.321000099182129;1673423249.3627439;-1.2822449207305908;-7.804642200469971;91.95732879638672
82;1673423249.4479454;47.1306419;7.2406201999999995;8.519000053405762;1673423249.5615745;-1.642823576927185;-9.889497756958008;92.07183074951172
83;1673423249.6348171;47.130641999999995;7.2406201999999995;8.7160005569458;1673423249.7579715;-1.5351558923721313;-12.390961647033691;92.4928970336914
84;1673423249.8768494;47.130641999999995;7.2406201999999995;8.91100025177002;1673423250.0043256;-1.5229007005691528;-7.995813369750977;92.29203796386719
85;1673423250.0663605;47.130642099999996;7.2406201999999995;9.105000495910645;1673423250.1720092;-1.3910815715789795;-8.90597152709961;92.09722137451172
86;1673423250.2453632;47.130642099999996;7.2406203;9.29900074005127;1673423250.3681111;-1.0932146310806274;-12.720768928527832;92.3299560546875
87;1673423250.4393582;47.130641999999995;7.2406204;9.496000289916992;1673423250.5493412;-1.0897796154022217;-8.968916893005371;92.15390014648438
88;1673423250.6500983;47.1306419;7.2406204999999995;9.693000793457031;1673423250.8069284;-0.933927595615387;-9.125377655029297;92.15650177001953
89;1673423250.8852131;47.1306419;7.2406204999999995;9.890000343322754;1673423251.014825;-0.8538542985916138;-12.789487838745117;92.37005615234375
90;1673423251.078413;47.130641999999995;7.2406204999999995;10.087000846862793;1673423251.1887507;-0.8976417779922485;-9.35922622680664;92.16789245605469
91;1673423251.2494037;47.130642099999996;7.2406204999999995;10.32300090789795;1673423251.3482625;-0.9779247641563416;-8.319293975830078;91.90067291259766
92;1673423251.4340856;47.1306423;7.2406204999999995;10.663000106811523;1673423251.5552776;-1.148697853088379;-11.886687278747559;92.1740493774414
93;1673423251.625126;47.1306424;7.2406206;11.039000511169434;1673423251.7350452;-1.3007363080978394;-10.686237335205078;92.23528289794922
94;1673423251.8009973;47.1306425;7.2406206;11.433000564575195;1673423251.922781;-1.4163730144500732;-6.994970321655273;92.0133056640625
95;1673423252.0125003;47.130642599999995;7.2406206;11.834000587463379;1673423252.132938;-1.2708253860473633;-10.044174194335938;92.23110961914062
96;1673423252.2196252;47.130642699999996;7.2406204999999995;12.236001014709473;1673423252.3527825;-0.912697434425354;-10.167166709899902;92.27909088134766
97;1673423252.429105;47.1306428;7.2406204999999995;12.641000747680664;1673423252.5610723;-0.9216048717498779;-6.230320453643799;92.0826416015625
98;1673423252.6462507;47.1306428;7.2406204999999995;13.043000221252441;1673423252.7889419;-1.2239787578582764;-9.193342208862305;92.27149963378906
99;1673423252.8657598;47.130642699999996;7.2406204999999995;13.44800090789795;1673423252.9769487;-1.0713489055633545;-11.434975624084473;92.42900848388672
100;1673423253.0434582;47.1306425;7.2406204999999995;13.858000755310059;1673423253.1533542;-1.193821668624878;-7.530962944030762;92.0517349243164
101;1673423253.2237325;47.1306424;7.2406204999999995;14.267001152038574;1673423253.3449175;-1.3139690160751343;-9.668550491333008;92.0623779296875
102;1673423253.4157166;47.1306423;7.2406204999999995;14.676000595092773;1673423253.5420928;-1.137254238128662;-12.001091957092285;92.26892852783203
103;1673423253.6211853;47.1306423;7.2406204999999995;15.087000846862793;1673423253.738933;-1.0854501724243164;-8.533990859985352;92.04933166503906
104;1673423253.8087595;47.1306424;7.2406204999999995;15.492000579833984;1673423253.9305925;-1.2130753993988037;-7.90346097946167;92.03799438476562
105;1673423254.0072796;47.1306424;7.2406204999999995;15.902000427246094;1673423254.1393602;-1.0699353218078613;-12.3395414352417;92.37601470947266
106;1673423254.2200491;47.1306423;7.2406204999999995;16.31599998474121;1673423254.3437457;-1.003578543663025;-8.580734252929688;92.35221099853516
107;1673423254.4193401;47.1306422;7.2406204999999995;16.73000144958496;1673423254.5398548;-1.194290280342102;-8.275837898254395;92.18910217285156
108;1673423254.6107297;47.1306422;7.2406206;17.141000747680664;1673423254.7337139;-1.0487674474716187;-11.774632453918457;92.5091323852539
109;1673423254.8077848;47.1306423;7.2406206;17.55500030517578;1673423254.930507;-1.1674317121505737;-9.969325065612793;92.21259307861328
110;1673423255.0062177;47.1306423;7.2406206;17.97100067138672;1673423255.142564;-1.1041661500930786;-7.512644290924072;91.84387969970703
111;1673423255.2190607;47.1306423;7.2406204999999995;18.381999969482422;1673423255.344741;-1.0032941102981567;-11.737567901611328;92.23401641845703
112;1673423255.4196208;47.1306422;7.2406204999999995;18.795000076293945;1673423255.5431938;-0.9720047116279602;-10.238197326660156;92.11813354492188
113;1673423255.6149843;47.1306422;7.2406204999999995;19.205001831054688;1673423255.7464597;-1.2561765909194946;-7.4867963790893555;92.05887603759766
114;1673423255.8299825;47.1306422;7.2406204999999995;19.613000869750977;1673423255.960366;-1.201051115989685;-11.21496868133545;92.43418884277344
115;1673423256.0450132;47.1306424;7.2406204999999995;20.018001556396484;1673423256.1722662;-1.1491321325302124;-10.799687385559082;92.43687438964844
116;1673423256.2536297;47.1306424;7.2406204999999995;20.427000045776367;1673423256.3850043;-1.167806625366211;-6.850610256195068;92.05947875976562
117;1673423256.458923;47.1306425;7.2406204;20.828001022338867;1673423256.583627;-1.1653579473495483;-10.154122352600098;92.30270385742188
118;1673423256.6578355;47.1306425;7.2406204;21.233001708984375;1673423256.7789812;-0.9257886409759521;-11.067453384399414;92.26902770996094
119;1673423256.8663993;47.1306425;7.2406204;21.639001846313477;1673423256.9872117;-1.2705873250961304;-7.382920265197754;92.00321960449219
120;1673423257.0623384;47.1306425;7.2406204;22.046001434326172;1673423257.1787753;-1.1808208227157593;-10.065062522888184;92.23058319091797
121;1673423257.2463558;47.130642599999995;7.2406204;22.44900131225586;1673423257.3640008;-1.110326886177063;-11.466497421264648;92.27044677734375
122;1673423257.4389012;47.130642599999995;7.2406203;22.85300064086914;1673423257.5569615;-1.1998155117034912;-7.742592811584473;92.18492126464844
123;1673423257.6234279;47.1306425;7.2406203;23.255001068115234;1673423257.7529955;-1.3517754077911377;-9.18871021270752;92.17223358154297
124;1673423257.8452728;47.1306425;7.2406203;23.65300178527832;1673423257.9723105;-1.3057096004486084;-12.154095649719238;92.4778823852539
125;1673423258.0672598;47.1306424;7.2406201999999995;24.053001403808594;1673423258.2086737;-1.2104191780090332;-8.233916282653809;92.17678833007812
126;1673423258.2850535;47.1306424;7.2406201999999995;24.451000213623047;1673423258.4030821;-1.3393537998199463;-8.846043586730957;92.17805480957031
127;1673423258.479461;47.1306425;7.2406201999999995;24.851001739501953;1673423258.5991971;-1.034672737121582;-11.687265396118164;92.30745697021484
128;1673423258.6640697;47.1306425;7.2406201999999995;25.251001358032227;1673423258.7984545;-1.4290854930877686;-8.897733688354492;92.09901428222656
129;1673423258.8632917;47.130642599999995;7.2406201999999995;25.650001525878906;1673423258.9683218;-1.5099923610687256;-7.684045314788818;92.01437377929688
130;1673423259.0337746;47.130642599999995;7.2406201;26.047000885009766;1673423259.1479883;-1.1928752660751343;-11.979975700378418;92.29674530029297
131;1673423259.220342;47.130642599999995;7.2406201999999995;26.44700050354004;1673423259.3434944;-1.0267237424850464;-9.150816917419434;92.21802520751953
132;1673423259.421775;47.130642599999995;7.2406201999999995;26.84800148010254;1673423259.5563014;-1.1605075597763062;-7.268902778625488;92.19811248779297
133;1673423259.6233099;47.130642599999995;7.2406201999999995;27.24700164794922;1673423259.7470074;-1.2268587350845337;-10.529970169067383;92.38196563720703
134;1673423259.8237476;47.130642699999996;7.2406201999999995;27.643001556396484;1673423259.943556;-1.402276635169983;-10.48755931854248;92.40357208251953
135;1673423260.024159;47.130642699999996;7.2406201;28.04100227355957;1673423260.1508005;-1.4014643430709839;-6.620541095733643;92.04801940917969
136;1673423260.233578;47.130642699999996;7.2406201;28.44300079345703;1673423260.351679;-1.4780699014663696;-10.362740516662598;92.236328125
137;1673423260.4186327;47.130642599999995;7.2406201;28.836000442504883;1673423260.5324082;-1.2302213907241821;-11.249900817871094;92.25981140136719
138;1673423260.6120174;47.1306425;7.2406201;29.231000900268555;1673423260.7277455;-1.4051085710525513;-7.440512180328369;91.99848175048828
139;1673423260.8016982;47.1306424;7.2406201;29.623001098632812;1673423260.9471552;-1.3733456134796143;-9.664983749389648;92.13390350341797
140;1673423261.0290818;47.1306425;7.2406201;30.01700210571289;1673423261.1502428;-1.0683836936950684;-11.383413314819336;92.25191497802734
141;1673423261.2292511;47.1306425;7.2406201;30.41400146484375;1673423261.355852;-1.421093463897705;-7.494235992431641;92.11589050292969
142;1673423261.432538;47.1306425;7.2406201;30.810001373291016;1673423261.5581882;-1.2499170303344727;-8.950616836547852;92.29544067382812
143;1673423261.6360095;47.1306424;7.2406201;31.203001022338867;1673423261.7638934;-1.3106751441955566;-12.131041526794434;92.55418395996094
144;1673423261.831209;47.1306423;7.2406201;31.60000228881836;1673423261.9539485;-1.2490514516830444;-8.812005043029785;92.19535064697266
145;1673423262.0299568;47.1306424;7.2406201999999995;31.99700164794922;1673423262.151278;-1.3716156482696533;-8.257719039916992;92.08624267578125
146;1673423262.234828;47.1306425;7.2406203;32.393001556396484;1673423262.3455555;-1.062563419342041;-11.51219367980957;92.2408676147461
147;1673423262.4168913;47.130642599999995;7.2406203;32.79199981689453;1673423262.5333543;-1.1606714725494385;-8.660454750061035;92.14179229736328
148;1673423262.61181;47.130642599999995;7.2406204;33.19200134277344;1673423262.7501326;-1.3504785299301147;-7.306557655334473;92.06536102294922
149;1673423262.847151;47.130642599999995;7.2406204;33.5890007019043;1673423262.9707522;-1.2352858781814575;-11.608765602111816;92.39720153808594
150;1673423263.0476658;47.1306425;7.2406204;33.98100280761719;1673423263.1652715;-1.0785424709320068;-9.928544998168945;92.33049011230469
151;1673423263.2510989;47.1306425;7.2406204;34.37900161743164;1673423263.3617022;-1.0512455701828003;-7.396620750427246;92.03330993652344
152;1673423263.434475;47.1306425;7.2406204999999995;34.77799987792969;1673423263.547305;-1.1832627058029175;-10.95399284362793;92.37623596191406
153;1673423263.6280794;47.130642599999995;7.2406204999999995;35.182003021240234;1673423263.7567728;-1.2143571376800537;-10.981489181518555;92.28763580322266
154;1673423263.8407006;47.130642599999995;7.2406204;35.58500289916992;1673423263.9696531;-1.3783924579620361;-6.726821422576904;91.85388946533203
155;1673423264.059237;47.130642599999995;7.2406204;35.986000061035156;1673423264.1746433;-1.3779689073562622;-10.18366813659668;92.19189453125
156;1673423264.2617674;47.130642599999995;7.2406204;36.38300323486328;1673423264.393859;-1.1573264598846436;-11.639212608337402;92.31266784667969
157;1673423264.4653504;47.130642599999995;7.2406204;36.78499984741211;1673423264.578231;-1.2783993482589722;-7.428377628326416;92.02950286865234
158;1673423264.6472838;47.130642699999996;7.2406204;37.185001373291016;1673423264.7732573;-1.3166179656982422;-8.449966430664062;92.1137924194336
159;1673423264.849514;47.1306428;7.2406204999999995;37.58300018310547;1673423264.9950573;-1.171457290649414;-11.126995086669922;92.44717407226562
160;1673423265.067518;47.1306429;7.2406204999999995;37.987003326416016;1673423265.2130053;-1.1855192184448242;-7.655618190765381;92.25782775878906
161;1673423265.286827;47.1306429;7.2406204999999995;38.38800048828125;1673423265.3980076;-1.297868013381958;-7.909388542175293;92.28898620605469
162;1673423265.4880226;47.1306428;7.2406204999999995;38.784000396728516;1673423265.6137247;-1.2904516458511353;-12.041892051696777;92.4756088256836
163;1673423265.6714907;47.130642699999996;7.2406204;39.172000885009766;1673423265.7770307;-1.2264310121536255;-8.775324821472168;92.2452163696289
164;1673423265.8409941;47.130642699999996;7.2406204;39.5620002746582;1673423265.962581;-1.4014182090759277;-7.3898773193359375;92.02643585205078
165;1673423266.0382562;47.1306428;7.2406204;39.95100021362305;1673423266.161787;-0.9909403324127197;-11.4262113571167;92.28121948242188
166;1673423266.2424;47.1306428;7.2406204;40.34400177001953;1673423266.3602338;-1.1343528032302856;-9.512998580932617;92.06163024902344
167;1673423266.4297879;47.130642699999996;7.2406204;40.73800277709961;1673423266.5412247;-1.4225579500198364;-7.163877010345459;91.95059967041016
168;1673423266.6162732;47.130642599999995;7.2406204;41.13100051879883;1673423266.749086;-1.3878201246261597;-11.429529190063477;92.37177276611328
169;1673423266.8601468;47.130642599999995;7.2406203;41.51900100708008;1673423266.9735663;-1.4257416725158691;-10.369545936584473;92.35113525390625
170;1673423267.0691085;47.1306425;7.2406203;41.910003662109375;1673423267.1937568;-1.5494550466537476;-7.350344181060791;92.15227508544922
171;1673423267.2730253;47.130642599999995;7.2406201999999995;42.30600357055664;1673423267.4099216;-1.474286437034607;-10.538742065429688;92.34253692626953
172;1673423267.5140388;47.130642599999995;7.2406201999999995;42.704002380371094;1673423267.6171944;-1.1964116096496582;-10.359119415283203;92.37869262695312
173;1673423267.6890488;47.130642599999995;7.2406201999999995;43.10300064086914;1673423267.8110905;-1.4131883382797241;-7.0963029861450195;92.13253021240234
174;1673423267.8814845;47.130642599999995;7.2406201999999995;43.49800109863281;1673423268.0218005;-1.2226201295852661;-10.585460662841797;92.15686798095703
175;1673423268.0853786;47.130642599999995;7.2406201999999995;43.88800048828125;1673423268.2081687;-1.3426809310913086;-11.008651733398438;92.15424346923828
176;1673423268.28165;47.1306425;7.2406201999999995;44.27300262451172;1673423268.423586;-1.427603840827942;-7.263112545013428;91.95436096191406
177;1673423268.4924972;47.130642599999995;7.2406201999999995;44.663002014160156;1673423268.6485238;-1.6936686038970947;-9.116942405700684;92.17454528808594
178;1673423268.7164156;47.130642699999996;7.2406201999999995;45.05900192260742;1673423268.83429;-1.4001466035842896;-11.411357879638672;92.46282958984375
179;1673423268.8993416;47.130642599999995;7.2406201999999995;45.457000732421875;1673423269.0143409;-1.3426969051361084;-7.797730445861816;92.226806640625
180;1673423269.0798695;47.1306425;7.2406201999999995;45.85000228881836;1673423269.192406;-1.317906379699707;-8.294052124023438;92.25031280517578
181;1673423269.2665806;47.1306425;7.2406201999999995;46.23800277709961;1673423269.373889;-1.434213638305664;-12.132451057434082;92.31573486328125
182;1673423269.4432428;47.1306425;7.2406201999999995;46.62800216674805;1673423269.553979;-1.2977888584136963;-9.21718978881836;92.24755096435547
183;1673423269.6310072;47.1306425;7.2406201999999995;47.02400207519531;1673423269.7389286;-1.4513903856277466;-7.305807113647461;92.13109588623047
184;1673423269.8136532;47.130642599999995;7.2406201999999995;47.42100143432617;1673423269.931316;-1.4667203426361084;-10.95412826538086;92.39254760742188
185;1673423270.0120614;47.130642599999995;7.2406201999999995;47.820003509521484;1673423270.1460843;-1.5172300338745117;-9.734319686889648;92.11588287353516
186;1673423270.2249892;47.130642599999995;7.2406201;48.204002380371094;1673423270.3468413;-1.726020336151123;-8.095009803771973;92.10230255126953
187;1673423270.4279976;47.1306425;7.2406201;48.53600311279297;1673423270.5517516;-1.5578112602233887;-11.354477882385254;92.2551498413086
188;1673423270.6268184;47.1306425;7.2406201;48.816001892089844;1673423270.754042;-1.4682910442352295;-10.137444496154785;92.3046646118164
189;1673423270.8319802;47.1306424;7.2406201;49.04300308227539;1673423270.95895;-1.6118372678756714;-6.838918685913086;92.07044219970703
190;1673423271.033814;47.1306424;7.2406201;49.23800277709961;1673423271.1674914;1.6982030868530273;-7.2000956535339355;92.4227066040039
191;1673423271.2476063;47.1306422;7.24062;49.40700149536133;1673423271.3687255;19.848310470581055;13.249580383300781;101.59066772460938
192;1673423271.4508955;47.130641399999995;7.240619;49.55400085449219;1673423271.5907683;27.128150939941406;36.36090850830078;113.87960815429688
193;1673423271.661215;47.1306389;7.240615399999999;49.68400192260742;1673423271.7923367;25.467086791992188;49.8245964050293;121.4016342163086
194;1673423271.8658268;47.130634;7.240608099999999;49.78400421142578;1673423272.0060775;10.633048057556152;56.55778503417969;131.16644287109375
195;1673423272.0638463;47.130626199999995;7.240596699999999;49.849002838134766;1673423272.1760046;-9.360322952270508;57.91175079345703;142.57183837890625
196;1673423272.2592037;47.1306158;7.2405817;49.90400314331055;1673423272.3976765;-26.997661590576172;53.42121887207031;154.1805419921875
197;1673423272.4796705;47.1306029;7.240564099999999;49.93800354003906;1673423272.625979;-37.83475875854492;45.35110855102539;166.44610595703125
198;1673423272.690499;47.1305881;7.240544099999999;49.95000076293945;1673423272.8206334;-46.45979690551758;41.395103454589844;177.9040069580078
199;1673423272.911236;47.130571499999995;7.2405219999999995;49.941001892089844;1673423273.0223396;-52.15714645385742;34.17123794555664;-170.5987548828125
200;1673423273.095905;47.1305534;7.240497599999999;49.90300369262695;1673423273.1980171;-47.158203125;25.39267921447754;-163.21717834472656
201;1673423273.26454;47.1305343;7.240471599999999;49.842002868652344;1673423273.381397;-45.52014923095703;19.552474975585938;-157.15003967285156
202;1673423273.45611;47.1305148;7.2404446;49.77700424194336;1673423273.5728426;-48.49760437011719;15.6593656539917;-150.28366088867188
203;1673423273.6447067;47.1304946;7.2404169;49.717002868652344;1673423273.766397;-46.993873596191406;8.821494102478027;-142.36058044433594
204;1673423273.8432243;47.1304741;7.2403884;49.66800308227539;1673423273.9738402;-44.77680206298828;7.779282569885254;-136.13258361816406
205;1673423274.0886698;47.130453499999994;7.2403596;49.62900161743164;1673423274.200622;-45.297821044921875;0.6667220592498779;-129.74160766601562
206;1673423274.2661276;47.130433;7.2403303999999995;49.608001708984375;1673423274.3828773;-45.509742736816406;-2.4758803844451904;-131.4254150390625
207;1673423274.4576962;47.130412299999996;7.240301199999999;49.599002838134766;1673423274.5783155;-47.12713623046875;-1.5496631860733032;-134.42294311523438
208;1673423274.6483464;47.1303914;7.2402723;49.60300064086914;1673423274.7692904;-48.41777038574219;-0.5668853521347046;-135.58050537109375
209;1673423274.86055;47.1303701;7.2402434;49.6150016784668;1673423274.9978762;-48.103424072265625;0.9688882231712341;-136.3541259765625
210;1673423275.0593705;47.1303485;7.2402144999999996;49.63200378417969;1673423275.1653771;-47.89421844482422;2.3925116062164307;-136.8166961669922
211;1673423275.2325091;47.1303266;7.240185599999999;49.66100311279297;1673423275.350233;-48.235897064208984;3.211609125137329;-136.92359924316406
212;1673423275.4260914;47.1303045;7.2401566;49.69700241088867;1673423275.5484982;-49.139190673828125;3.962709903717041;-137.02816772460938
213;1673423275.6293647;47.1302824;7.2401273999999995;49.73400115966797;1673423275.761289;-49.65630340576172;4.071596622467041;-136.83575439453125
214;1673423275.837186;47.1302601;7.240098;49.7660026550293;1673423275.968836;-48.945213317871094;3.9021637439727783;-136.53773498535156
215;1673423276.0381587;47.130237799999996;7.2400685;49.781002044677734;1673423276.1658752;-47.904701232910156;3.6801130771636963;-136.32354736328125
216;1673423276.2403812;47.1302154;7.2400386;49.79600143432617;1673423276.36554;-47.54118347167969;3.5674726963043213;-136.2373809814453
217;1673423276.443472;47.1301931;7.2400085999999995;49.81300354003906;1673423276.5617123;-47.973236083984375;3.608051061630249;-136.1940460205078
218;1673423276.6371527;47.1301707;7.239978499999999;49.832000732421875;1673423276.7549894;-48.63908767700195;3.5575363636016846;-136.12254333496094
219;1673423276.827736;47.130148399999996;7.239948399999999;49.85200119018555;1673423276.9454155;-48.780357360839844;3.4307594299316406;-136.05210876464844
220;1673423277.019166;47.1301261;7.2399181;49.86600112915039;1673423277.1446996;-48.41828536987305;3.2582125663757324;-135.9267578125
221;1673423277.223835;47.1301038;7.2398878;49.871002197265625;1673423277.35096;-47.839786529541016;3.150327444076538;-135.90713500976562
222;1673423277.4404066;47.130081399999995;7.2398574;49.87900161743164;1673423277.5989351;-47.82401657104492;3.2529609203338623;-135.96644592285156
223;1673423277.6959965;47.1300591;7.239827;49.887001037597656;1673423277.8089702;-48.19731140136719;3.282418727874756;-135.9652862548828
224;1673423277.8839371;47.1300368;7.2397966;49.89200210571289;1673423278.0066419;-48.22538757324219;3.254319667816162;-135.94479370117188
225;1673423278.0716567;47.130014499999994;7.2397661;49.897003173828125;1673423278.1915677;-48.18804168701172;3.2228024005889893;-135.95033264160156
226;1673423278.2616396;47.129992099999996;7.2397357;49.90800094604492;1673423278.3804147;-48.53716278076172;3.2400920391082764;-135.95620727539062
227;1673423278.454008;47.1299698;7.2397051999999995;49.9160041809082;1673423278.5649955;-48.5456428527832;3.2341322898864746;-135.91334533691406
228;1673423278.6330488;47.1299475;7.239674699999999;49.915000915527344;1673423278.745157;-48.109291076660156;3.1470446586608887;-135.8795166015625
229;1673423278.829901;47.129925199999995;7.2396442;49.91200256347656;1673423278.9681678;-47.86585998535156;3.194087266921997;-135.9115753173828
230;1673423279.0415475;47.1299029;7.2396137;49.910003662109375;1673423279.1633937;-48.04608917236328;3.321453094482422;-135.95005798339844
231;1673423279.2400582;47.1298806;7.2395831;49.90900421142578;1673423279.3691688;-48.348636627197266;3.196965456008911;-135.89344787597656
232;1673423279.4508195;47.129858299999995;7.2395526;49.90900421142578;1673423279.5738099;-48.357933044433594;3.2209198474884033;-135.90481567382812
233;1673423279.6510653;47.129836;7.239522099999999;49.90800094604492;1673423279.7641644;-48.21712112426758;3.1332437992095947;-135.8539581298828
234;1673423279.8339992;47.1298137;7.2394915;49.90200424194336;1673423279.9519384;-47.98597717285156;3.098710536956787;-135.87574768066406
235;1673423280.0276678;47.129791399999995;7.2394609;49.89800262451172;1673423280.1644132;-48.01213073730469;3.0464117527008057;-135.86627197265625
236;1673423280.242913;47.1297692;7.2394304;49.89800262451172;1673423280.3647335;-48.177520751953125;3.0799388885498047;-135.8794403076172
237;1673423280.4444056;47.1297469;7.2393998999999996;49.897003173828125;1673423280.5562582;-48.23049545288086;3.080970525741577;-135.8583221435547
238;1673423280.6271086;47.129724599999996;7.2393693;49.89500427246094;1673423280.7496645;-48.075191497802734;3.1454787254333496;-135.88290405273438
239;1673423280.8289106;47.1297023;7.2393388;49.893001556396484;1673423280.9636204;-48.014488220214844;3.138615369796753;-135.85818481445312
240;1673423281.0600758;47.12968;7.239308299999999;49.89500427246094;1673423281.1814988;-48.109352111816406;3.15789794921875;-135.86590576171875
241;1673423281.2504;47.129657699999996;7.2392778;49.89500427246094;1673423281.3771715;-48.1032600402832;3.1278014183044434;-135.83480834960938
242;1673423281.4574876;47.1296354;7.2392473;49.897003173828125;1673423281.5870984;-48.04187774658203;3.089315176010132;-135.79559326171875
243;1673423281.665883;47.129613199999994;7.2392167;49.9010009765625;1673423281.793519;-48.07511901855469;3.0956192016601562;-135.81500244140625
244;1673423281.871393;47.1295909;7.2391862;49.90800094604492;1673423281.9873233;-48.24483108520508;3.1227478981018066;-135.7992706298828
245;1673423282.0699012;47.1295687;7.2391556999999995;49.91100311279297;1673423282.2108774;-48.281944274902344;2.99478816986084;-135.71188354492188
246;1673423282.2804801;47.129546399999995;7.239125199999999;49.91100311279297;1673423282.40509;-48.01715087890625;3.0291192531585693;-135.73248291015625
247;1673423282.4766445;47.1295241;7.2390946;49.913002014160156;1673423282.5919573;-47.933387756347656;3.0201539993286133;-135.71217346191406
248;1673423282.6692498;47.1295019;7.239064099999999;49.91800308227539;1673423282.7744179;-48.151466369628906;2.965796709060669;-135.665283203125
249;1673423282.841998;47.129479599999996;7.2390336;49.92000198364258;1673423282.9547827;-48.130165100097656;3.022284507751465;-135.6890411376953
250;1673423283.0374002;47.1294573;7.239002999999999;49.92400360107422;1673423283.1730835;-48.15269470214844;2.911125659942627;-135.61366271972656
251;1673423283.2495954;47.129435099999995;7.2389724;49.928001403808594;1673423283.3738465;-48.17416000366211;3.0894525051116943;-135.6680145263672
252;1673423283.4516132;47.1294128;7.2389418;49.93400192260742;1673423283.5709562;-48.19207763671875;5.603723049163818;-136.32394409179688
253;1673423283.6403403;47.1293906;7.2389111999999995;49.94400405883789;1673423283.7581413;-48.257476806640625;4.260743141174316;-135.35494995117188
254;1673423283.8329837;47.1293685;7.2388803;49.94900131225586;1673423283.962044;-47.92420959472656;3.6299712657928467;-135.08226013183594
255;1673423284.0614111;47.1293465;7.2388495;49.9530029296875;1673423284.1789644;-47.48603820800781;5.331406116485596;-135.4134063720703
256;1673423284.2543921;47.129324499999996;7.2388185;49.95900344848633;1673423284.3884718;-40.24573516845703;4.35838508605957;-134.61927795410156
257;1673423284.4670863;47.1293027;7.2387877;49.98500061035156;1673423284.5906122;-26.683311462402344;6.03799295425415;-135.9253692626953
258;1673423284.6643972;47.1292816;7.2387577;50.00600051879883;1673423284.7754302;-8.001904487609863;5.698001861572266;-135.8616943359375
259;1673423284.8491948;47.129261799999995;7.2387295;50.01700210571289;1673423284.9662561;6.582476615905762;5.368408679962158;-136.4180450439453
260;1673423285.0369995;47.129244;7.238704299999999;50.01400375366211;1673423285.1535506;15.821355819702148;5.661120414733887;-136.59739685058594
261;1673423285.2320266;47.129228499999996;7.2386823;49.993003845214844;1673423285.3508148;23.96516990661621;4.509968280792236;-136.89866638183594
262;1673423285.4413958;47.1292153;7.238663799999999;49.932003021240234;1673423285.5638454;22.0743465423584;4.868350028991699;-137.36032104492188
263;1673423285.6894388;47.1292046;7.238648899999999;49.874000549316406;1673423285.8054419;24.63518524169922;7.863475799560547;-135.65603637695312
264;1673423285.8724759;47.1291959;7.2386368999999995;49.84100341796875;1673423285.983296;22.24261474609375;11.326845169067383;-136.4088134765625
265;1673423286.0551844;47.129189;7.2386273999999995;49.79300308227539;1673423286.1740339;17.853763580322266;10.032419204711914;-137.24830627441406
266;1673423286.2560005;47.1291838;7.2386197999999995;49.742000579833984;1673423286.37418;12.579137802124023;9.18535327911377;-137.35211181640625
267;1673423286.4508948;47.1291799;7.2386133;49.708003997802734;1673423286.580212;5.495892524719238;7.745400905609131;-137.19639587402344
268;1673423286.659895;47.1291769;7.2386075;49.69700241088867;1673423286.779801;-0.836126446723938;7.19266414642334;-136.76646423339844
269;1673423286.8507733;47.1291741;7.2386018;49.72600173950195;1673423286.972663;-3.556657552719116;4.136110782623291;-137.17970275878906
270;1673423287.0612442;47.129171299999996;7.2385964;49.78200149536133;1673423287.171137;-4.59244441986084;3.5855772495269775;-138.67037963867188
271;1673423287.25116;47.129168199999995;7.2385911;49.842002868652344;1673423287.3748763;-3.5799643993377686;1.1941872835159302;-139.97921752929688
272;1673423287.4512372;47.1291649;7.2385861;49.89600372314453;1673423287.5748804;-0.39801234006881714;0.5156641602516174;-141.49713134765625
273;1673423287.651491;47.1291614;7.2385815;49.94300079345703;1673423287.7711616;3.475536823272705;-0.14824533462524414;-142.1283721923828
274;1673423287.8490398;47.129158;7.2385774;49.98100280761719;1673423287.9738808;-0.8631702065467834;3.082890510559082;-141.7852783203125
275;1673423288.0459964;47.1291547;7.2385736;50.02400207519531;1673423288.166829;-18.60958480834961;2.9108633995056152;-137.3938751220703
276;1673423288.248661;47.129151;7.2385693;50.092002868652344;1673423288.3652825;-15.074137687683105;-0.8113396167755127;-135.45811462402344
277;1673423288.4411995;47.1291465;7.238563999999999;50.23800277709961;1673423288.5565429;-16.8476619720459;1.2356141805648804;-136.88929748535156
278;1673423288.628541;47.1291412;7.2385581;50.4900016784668;1673423288.7621756;-20.1535587310791;3.779778242111206;-137.04421997070312
279;1673423288.8424366;47.129135;7.2385511;50.820003509521484;1673423288.9759643;-37.77177810668945;9.382512092590332;-137.18325805664062
280;1673423289.0705247;47.1291279;7.238542499999999;51.177001953125;1673423289.2281768;-39.34293746948242;7.595129013061523;-136.77096557617188
281;1673423289.320531;47.1291193;7.238531699999999;51.54600143432617;1673423289.4233267;-35.650550842285156;11.100401878356934;-136.95970153808594
282;1673423289.5150886;47.1291097;7.2385188;51.93100357055664;1673423289.6163056;-29.413618087768555;8.002477645874023;-136.70785522460938
283;1673423289.709712;47.1290994;7.2385044999999995;52.316001892089844;1673423289.8359632;-22.92984962463379;6.7579474449157715;-136.70883178710938
284;1673423289.9044545;47.1290889;7.2384895;52.69900131225586;1673423290.0325394;-18.742755889892578;4.144095420837402;-136.5580291748047
285;1673423290.1295815;47.1290784;7.2384743;53.08500289916992;1673423290.2376103;-15.368892669677734;2.959244966506958;-137.06834411621094
286;1673423290.303043;47.1290681;7.2384593;53.47100067138672;1673423290.4111724;-13.514932632446289;2.199108362197876;-137.36001586914062
287;1673423290.4821503;47.129058;7.2384447;53.858001708984375;1673423290.6003659;-13.028470039367676;3.5804476737976074;-137.50978088378906
288;1673423290.686621;47.129048;7.238430699999999;54.24800109863281;1673423290.7915757;-13.76854419708252;5.611244201660156;-137.80966186523438
289;1673423290.8527484;47.1290383;7.2384170999999995;54.63900375366211;1673423290.9747381;-15.072879791259766;6.772889614105225;-138.12648010253906
290;1673423291.0443392;47.1290286;7.2384039;55.03000259399414;1673423291.170063;-16.589563369750977;6.78512716293335;-137.92799377441406
291;1673423291.257514;47.1290191;7.238391;55.422000885009766;1673423291.3933957;-17.97684669494629;5.627436637878418;-137.49049377441406
292;1673423291.4661584;47.129009599999996;7.2383782;55.814002990722656;1673423291.5918953;-19.522586822509766;3.3249423503875732;-136.92501831054688
293;1673423291.6677914;47.1290001;7.238365399999999;56.20700454711914;1673423291.7910326;-20.010147094726562;2.0866899490356445;-136.82110595703125
294;1673423291.8766284;47.128990599999995;7.2383523;56.60200119018555;1673423292.0211606;-20.430435180664062;2.6136553287506104;-136.90208435058594
295;1673423292.1023145;47.128980999999996;7.238339099999999;56.996002197265625;1673423292.2164683;-20.35454559326172;4.4142961502075195;-136.96128845214844
296;1673423292.290682;47.128971299999996;7.238325799999999;57.3900032043457;1673423292.414436;-20.22614288330078;6.243950843811035;-137.2223358154297
297;1673423292.4874094;47.128961399999994;7.2383124;57.785003662109375;1673423292.5935092;-20.05063819885254;7.597340106964111;-137.34347534179688
298;1673423292.6722412;47.1289515;7.238298899999999;58.182003021240234;1673423292.794182;-19.735523223876953;7.684452533721924;-137.42910766601562
299;1673423292.8612542;47.1289416;7.238285299999999;58.58100128173828;1673423292.9658897;-19.39328384399414;7.003784656524658;-137.3480224609375
300;1673423293.0436654;47.128931699999995;7.2382716;58.983001708984375;1673423293.16853;-19.458627700805664;5.578027248382568;-137.15415954589844
301;1673423293.249923;47.1289218;7.2382579;59.384002685546875;1673423293.372445;-19.25965118408203;4.853421688079834;-136.9158477783203
302;1673423293.4579287;47.128912;7.2382442;59.78400421142578;1673423293.5816696;-19.358766555786133;3.4851179122924805;-136.73329162597656
303;1673423293.6604567;47.1289021;7.2382306;60.18400192260742;1673423293.7750638;-19.243221282958984;2.5390946865081787;-136.65086364746094
304;1673423293.847841;47.128892199999996;7.238216899999999;60.58200454711914;1673423293.9695668;-19.149919509887695;2.334852933883667;-136.712158203125
305;1673423294.042482;47.1288823;7.2382034;60.97900390625;1673423294.162554;-19.307676315307617;2.636063814163208;-136.68614196777344
306;1673423294.2399309;47.1288723;7.2381899;61.37600326538086;1673423294.364649;-19.239990234375;2.754621744155884;-136.6039581298828
307;1673423294.4414644;47.128862299999994;7.2381765;61.77300262451172;1673423294.5647101;-19.05070686340332;3.530618190765381;-136.67718505859375
308;1673423294.6433668;47.1288523;7.2381630999999995;62.16800308227539;1673423294.7698567;-19.229835510253906;4.423028945922852;-136.67095947265625
309;1673423294.850587;47.128842399999996;7.2381496;62.561004638671875;1673423294.97513;-19.1726131439209;4.944612979888916;-136.75390625
310;1673423295.057949;47.1288324;7.238136099999999;62.95600128173828;1673423295.1885161;-19.280319213867188;6.094827175140381;-137.0570526123047
311;1673423295.2647405;47.1288225;7.2381224;63.353004455566406;1673423295.3816044;-19.286380767822266;6.714603424072266;-137.1122283935547
312;1673423295.4501424;47.128812599999996;7.2381088;63.74700164794922;1673423295.5759726;-19.351726531982422;7.102477073669434;-137.3751678466797
313;1673423295.643736;47.128802799999995;7.2380951;64.14100646972656;1673423295.7655997;-19.492847442626953;7.430166244506836;-137.3116455078125
314;1673423295.8375463;47.1287929;7.2380813999999996;64.54000091552734;1673423295.9612389;-19.37696647644043;7.264236927032471;-137.15391540527344
315;1673423296.0398285;47.1287829;7.2380678;64.94200134277344;1673423296.1622756;-19.449726104736328;7.21732234954834;-137.1496124267578
316;1673423296.2390025;47.128772999999995;7.2380542;65.34200286865234;1673423296.3655448;-19.552188873291016;6.908055305480957;-137.33689880371094
317;1673423296.444779;47.1287631;7.2380406;65.73900604248047;1673423296.573838;-19.572080612182617;6.206068515777588;-137.03311157226562
318;1673423296.6446614;47.1287533;7.238027;66.13800048828125;1673423296.7635014;-19.5824031829834;5.90397310256958;-136.82839965820312
319;1673423296.8392196;47.1287434;7.2380132999999995;66.53400421142578;1673423296.9659488;-19.643234252929688;5.149463176727295;-136.88047790527344
320;1673423297.044301;47.1287337;7.2379995;66.93099975585938;1673423297.168424;-19.69908905029297;4.413642883300781;-136.7433319091797
321;1673423297.237063;47.1287239;7.237985699999999;67.33000183105469;1673423297.358513;-19.859638214111328;4.463545322418213;-136.78953552246094
322;1673423297.4333143;47.1287142;7.2379719;67.72900390625;1673423297.556091;-20.018985748291016;4.199512004852295;-136.7712860107422
323;1673423297.6302772;47.128704299999995;7.2379583;68.12700653076172;1673423297.7506154;-19.949472427368164;4.127669811248779;-136.707763671875
324;1673423297.8360827;47.1286944;7.2379447;68.52200317382812;1673423297.9625611;-19.914939880371094;4.433116912841797;-136.69139099121094
325;1673423298.045353;47.1286844;7.2379311;68.91699981689453;1673423298.172626;-19.901952743530273;4.068701267242432;-136.5275421142578
326;1673423298.2511504;47.128674499999995;7.2379175;69.31600189208984;1673423298.3956969;-19.934284210205078;3.6487722396850586;-136.7078857421875
327;1673423298.4789858;47.1286645;7.2379038;69.71700286865234;1673423298.6179051;-19.588369369506836;3.2832117080688477;-136.54177856445312
328;1673423298.687335;47.1286546;7.2378900999999995;70.11600494384766;1673423298.8509853;-19.688880920410156;3.6430106163024902;-136.7218017578125
329;1673423298.9124618;47.1286446;7.237876399999999;70.51500701904297;1673423299.0155108;-19.58458709716797;3.374959945678711;-136.70663452148438
330;1673423299.080462;47.1286346;7.237862799999999;70.91300201416016;1673423299.1947815;-19.623659133911133;3.3911023139953613;-136.55264282226562
331;1673423299.2661204;47.128624699999996;7.237849199999999;71.31200408935547;1673423299.3857832;-19.535457611083984;3.376821756362915;-136.49179077148438
332;1673423299.4595864;47.1286147;7.2378357;71.70899963378906;1673423299.5812197;-19.566308975219727;3.439119815826416;-136.39857482910156
333;1673423299.6512718;47.1286048;7.2378222;72.10700225830078;1673423299.7692523;-19.760908126831055;3.4409518241882324;-136.58499145507812
334;1673423299.861642;47.128594799999995;7.237808599999999;72.5050048828125;1673423299.982504;-19.80171775817871;3.6025869846343994;-136.5494384765625
335;1673423300.0573995;47.1285849;7.237794999999999;72.9020004272461;1673423300.183727;-19.833724975585938;3.466606378555298;-136.5263671875
336;1673423300.2526248;47.128575;7.2377813;73.29800415039062;1673423300.3732696;-19.83238983154297;3.4262025356292725;-136.61790466308594
337;1673423300.4482505;47.128565099999996;7.2377676;73.69400024414062;1673423300.5678267;-19.902250289916992;3.239858865737915;-136.49522399902344
338;1673423300.6490471;47.1285552;7.237754;74.09400177001953;1673423300.7719982;-19.63355827331543;2.945142984390259;-136.4077606201172
339;1673423300.863443;47.1285452;7.2377403;74.49600219726562;1673423300.9947627;-19.512895584106445;3.0526137351989746;-136.4777069091797
340;1673423301.0685759;47.128535199999995;7.2377267;74.9000015258789;1673423301.186969;-19.68120765686035;3.479079008102417;-136.51914978027344
341;1673423301.2573335;47.1285253;7.2377131;75.30500030517578;1673423301.3956194;-19.598308563232422;3.7408299446105957;-136.5279541015625
342;1673423301.524802;47.1285153;7.2376993999999995;75.70500183105469;1673423301.631298;-19.759979248046875;4.360319137573242;-136.76351928710938
343;1673423301.7005424;47.128505399999995;7.2376857999999995;76.1050033569336;1673423301.8090596;-19.991235733032227;4.554059028625488;-136.8471221923828
344;1673423301.881969;47.1284955;7.2376722;76.50800323486328;1673423302.004464;-19.92655372619629;5.152397632598877;-136.8292999267578
345;1673423302.078241;47.1284855;7.2376586;76.906005859375;1673423302.203202;-19.852785110473633;5.350741386413574;-136.7857666015625
346;1673423302.2835636;47.1284755;7.237645;77.3030014038086;1673423302.4015243;-19.773113250732422;5.887762069702148;-136.7928924560547
347;1673423302.4764955;47.1284655;7.2376314;77.69900512695312;1673423302.5889163;-20.01036834716797;5.909397602081299;-136.82647705078125
348;1673423302.6654177;47.128455599999995;7.2376176999999995;78.09700012207031;1673423302.7871585;-20.522005081176758;5.352440357208252;-136.83224487304688
349;1673423302.8687117;47.1284456;7.2376039;78.49400329589844;1673423303.0178766;-20.846248626708984;5.227784156799316;-136.9869384765625
350;1673423303.0931492;47.1284357;7.2375902;78.88899993896484;1673423303.2189279;-20.977087020874023;5.366517066955566;-137.05413818359375
351;1673423303.3233805;47.128425799999995;7.2375764;79.28400421142578;1673423303.4478464;-20.34959602355957;5.355974197387695;-137.0061492919922
352;1673423303.5114625;47.1284159;7.2375625999999995;79.68000030517578;1673423303.6174412;-19.43150520324707;5.425380706787109;-136.9822998046875
353;1673423303.6882644;47.1284059;7.2375488;80.0780029296875;1673423303.8102882;-18.85749053955078;5.315836429595947;-136.90533447265625
354;1673423303.8713484;47.128395999999995;7.2375351;80.4780044555664;1673423303.9880493;-19.2573184967041;4.942716598510742;-136.89784240722656
355;1673423304.0598497;47.1283861;7.237521399999999;80.87800598144531;1673423304.187842;-20.124225616455078;4.886654376983643;-136.89541625976562
356;1673423304.2632148;47.1283763;7.2375077;81.2760009765625;1673423304.3916383;-20.811452865600586;5.063530445098877;-136.91375732421875
357;1673423304.4692812;47.1283664;7.237494099999999;81.67500305175781;1673423304.588917;-20.953758239746094;5.2566118240356445;-136.98672485351562
358;1673423304.665878;47.128356499999995;7.237480499999999;82.07400512695312;1673423304.7849624;-20.213424682617188;5.21566104888916;-136.94384765625
359;1673423304.8604236;47.1283466;7.2374668;82.47400665283203;1673423304.9790869;-19.224563598632812;5.382137298583984;-136.99307250976562
360;1673423305.0546117;47.1283367;7.2374531;82.87100219726562;1673423305.180234;-18.854957580566406;5.326794624328613;-136.93716430664062
361;1673423305.2654052;47.128326799999996;7.2374395;83.27100372314453;1673423305.4054282;-18.91942596435547;5.211950302124023;-136.8861083984375
362;1673423305.4832215;47.128316899999994;7.2374258;83.67300415039062;1673423305.6049042;-20.13351058959961;4.966106414794922;-136.92196655273438
363;1673423305.6705687;47.128307;7.2374122;84.07400512695312;1673423305.788431;-20.767545700073242;5.127280235290527;-137.00616455078125
364;1673423305.8525624;47.1282971;7.2373986;84.47300720214844;1673423306.013386;-20.906343460083008;5.211486339569092;-136.9145050048828
365;1673423306.102134;47.1282873;7.237385;84.87100219726562;1673423306.2176163;-20.430234909057617;5.265923976898193;-136.9871368408203
366;1673423306.289747;47.128277499999996;7.2373714;85.26700592041016;1673423306.4134083;-19.524721145629883;5.3654069900512695;-137.01304626464844
367;1673423306.490561;47.1282676;7.2373577;85.66200256347656;1673423306.6043198;-19.249589920043945;5.278144836425781;-136.9674835205078
368;1673423306.675296;47.1282577;7.2373441;86.0570068359375;1673423306.7947085;-19.302907943725586;5.163195610046387;-136.93194580078125
369;1673423306.8764975;47.1282478;7.2373305;86.45100402832031;1673423307.0072;-20.18010902404785;5.040526390075684;-136.95819091796875
370;1673423307.0858371;47.128237899999995;7.2373169;86.84500122070312;1673423307.214139;-21.01569175720215;5.180521488189697;-136.9970245361328
371;1673423307.292341;47.128228;7.2373031999999995;87.23900604248047;1673423307.4403486;-20.849092483520508;5.271078109741211;-137.0357666015625
372;1673423307.5129626;47.1282181;7.2372895999999995;87.63600158691406;1673423307.608777;-20.379850387573242;5.431709289550781;-137.03260803222656
373;1673423307.6776972;47.128208199999996;7.237276;88.03700256347656;1673423307.799748;-19.286052703857422;5.311460971832275;-136.90408325195312
374;1673423307.8998537;47.1281983;7.237262299999999;88.43900299072266;1673423308.010798;-18.883066177368164;5.155827045440674;-136.97303771972656
375;1673423308.0865486;47.1281884;7.2372486;88.84200286865234;1673423308.2047083;-19.10447120666504;4.8440117835998535;-136.936279296875
376;1673423308.272099;47.128178399999996;7.2372349;89.24600219726562;1673423308.3862114;-20.029579162597656;4.85521936416626;-136.89479064941406
377;1673423308.4580655;47.1281685;7.2372213;89.6500015258789;1673423308.5805197;-20.962493896484375;5.015861511230469;-136.9790802001953
378;1673423308.6533096;47.1281586;7.2372077;90.05000305175781;1673423308.7800248;-21.10360336303711;5.1732940673828125;-137.03370666503906
379;1673423308.8506312;47.1281487;7.2371941;90.44600677490234;1673423308.9713082;-20.286338806152344;5.257063865661621;-137.0200958251953
380;1673423309.0520492;47.128138799999995;7.2371804;90.84100341796875;1673423309.1845703;-19.273530960083008;5.316272735595703;-136.95726013183594
381;1673423309.26036;47.1281289;7.2371668;91.23500061035156;1673423309.439583;-19.075241088867188;5.177361011505127;-136.923828125
382;1673423309.5193584;47.1281189;7.2371532;91.62700653076172;1673423309.6223912;-19.187484741210938;5.005887985229492;-136.91258239746094
383;1673423309.6951835;47.1281089;7.2371395;92.02300262451172;1673423309.8130817;-20.013315200805664;5.115418434143066;-136.9390411376953
384;1673423309.890039;47.128099;7.2371259;92.42000579833984;1673423310.0348496;-20.874736785888672;5.049212455749512;-136.95079040527344
385;1673423310.1028898;47.128088999999996;7.2371124;92.81500244140625;1673423310.2437322;-20.98649024963379;5.266383647918701;-137.0724639892578
386;1673423310.309024;47.1280791;7.2370988;93.20600128173828;1673423310.4101212;-20.343341827392578;5.310328483581543;-136.99212646484375
387;1673423310.4827743;47.1280692;7.2370852;93.59600067138672;1673423310.5994334;-19.470197677612305;5.140162944793701;-136.85972595214844
388;1673423310.6790318;47.1280593;7.237071599999999;93.99100494384766;1673423310.8075724;-18.997394561767578;5.217483043670654;-136.86863708496094
389;1673423310.8676696;47.1280493;7.237057999999999;94.38700103759766;1673423310.9746952;-19.098953247070312;4.9258551597595215;-136.8848876953125
390;1673423311.0499456;47.1280393;7.237044399999999;94.78400421142578;1673423311.1691873;-19.993803024291992;4.855382919311523;-136.90560913085938
391;1673423311.2452707;47.128029399999996;7.237030799999999;95.1810073852539;1673423311.3760498;-20.803173065185547;4.956796169281006;-136.95347595214844
392;1673423311.450566;47.1280194;7.2370171999999995;95.5780029296875;1673423311.5810068;-21.092586517333984;5.26100492477417;-136.9786376953125
393;1673423311.646507;47.128009399999996;7.2370037;95.97700500488281;1673423311.7619429;-20.362499237060547;5.220192909240723;-136.99188232421875
394;1673423311.8491287;47.1279995;7.2369901;96.37600708007812;1673423312.0033312;-18.983306884765625;5.460102558135986;-136.99301147460938
395;1673423312.076098;47.1279895;7.2369765;96.7760009765625;1673423312.2043283;-18.72783851623535;5.203047275543213;-136.89256286621094
396;1673423312.2834675;47.127979499999995;7.2369628;97.1780014038086;1673423312.4583945;-19.121788024902344;5.006065845489502;-136.83547973632812
397;1673423312.528725;47.1279696;7.2369493;97.5770034790039;1673423312.6289294;-20.005613327026367;4.946446895599365;-136.81663513183594
398;1673423312.6955152;47.1279596;7.2369357;97.97500610351562;1673423312.8015816;-20.837886810302734;5.151425838470459;-136.90029907226562
399;1673423312.8764713;47.127949699999995;7.236922099999999;98.37300109863281;1673423312.985157;-21.041975021362305;5.226648807525635;-136.9696502685547
400;1673423313.0565891;47.1279397;7.2369086;98.76800537109375;1673423313.184737;-20.29847526550293;5.558805465698242;-136.9712371826172
401;1673423313.2646587;47.127929699999996;7.236895;99.16100311279297;1673423313.3859735;-19.086973190307617;5.50163459777832;-136.86842346191406
402;1673423313.4665499;47.1279198;7.2368814;99.5570068359375;1673423313.5884318;-18.726648330688477;5.235515594482422;-136.7922821044922
403;1673423313.668871;47.1279099;7.2368676999999995;99.95500183105469;1673423313.787424;-19.202409744262695;4.997479438781738;-136.77621459960938
404;1673423313.8738675;47.127899899999996;7.2368540999999995;100.35200500488281;1673423313.9887667;-19.936777114868164;4.919553756713867;-136.83270263671875
405;1673423314.0626307;47.12789;7.2368405;100.74800109863281;1673423314.179537;-20.716136932373047;5.128119468688965;-136.9449462890625
406;1673423314.2568507;47.12788;7.236826799999999;101.14400482177734;1673423314.3877628;-20.854713439941406;5.269465923309326;-136.97052001953125
407;1673423314.4581091;47.127869999999994;7.236813199999999;101.54400634765625;1673423314.5899045;-20.191875457763672;5.509541034698486;-136.93487548828125
408;1673423314.671642;47.12786;7.2367995;101.94300842285156;1673423314.8030856;-18.834278106689453;5.4081339836120605;-136.82765197753906
409;1673423314.8827233;47.127850099999996;7.2367859;102.34200286865234;1673423315.0092115;-18.369335174560547;5.231719017028809;-136.80174255371094
410;1673423315.0780804;47.1278402;7.2367722;102.74200439453125;1673423315.205215;-18.852670669555664;4.954383373260498;-136.8765869140625
411;1673423315.278597;47.1278303;7.2367586;103.14000701904297;1673423315.3964214;-19.718854904174805;4.803617000579834;-136.80995178222656
412;1673423315.4644198;47.1278204;7.236745;103.54100799560547;1673423315.5772681;-20.621156692504883;4.7494306564331055;-136.841552734375
413;1673423315.658337;47.127810499999995;7.2367314;103.94100189208984;1673423315.772811;-20.886343002319336;5.063778877258301;-136.91836547851562
414;1673423315.8539345;47.1278006;7.2367177;104.33500671386719;1673423315.9794316;-20.55826759338379;5.324672222137451;-136.9470977783203
415;1673423316.0576444;47.1277907;7.236704199999999;104.72900390625;1673423316.1783812;-19.460044860839844;5.366130828857422;-136.89700317382812
416;1673423316.250224;47.1277808;7.2366905;105.12500762939453;1673423316.379883;-18.64000129699707;5.177817344665527;-136.81787109375
