;pos_time;latitude;longitude;altitude;alt_time;pitch;roll;yaw
0;1673423396.2057395;47.1306424;7.2406201;0.005000000353902578;1673423396.20867;0.37720754742622375;-0.45186683535575867;90.35719299316406
1;1673423396.3766167;47.1306424;7.2406201;0.003000000026077032;1673423396.3795497;0.15070682764053345;-0.6587111353874207;90.10865020751953
2;1673423396.5658112;47.1306424;7.2406198999999996;0.004000000189989805;1673423396.567764;0.34179702401161194;-0.4831089675426483;90.28484344482422
3;1673423396.768873;47.1306425;7.240619799999999;0.005000000353902578;1673423396.7718554;0.4136880040168762;-0.47599485516548157;90.16451263427734
4;1673423397.1093905;47.1306425;7.240619799999999;0.004000000189989805;1673423397.1103458;0.08080421388149261;-0.4425448477268219;90.25436401367188
5;1673423397.2617576;47.1306425;7.2406197;0.0020000000949949026;1673423397.2637098;0.10874026268720627;-0.3138043284416199;90.04550170898438
6;1673423397.4558406;47.1306425;7.2406197;0.0010000000474974513;1673423397.457792;0.08375252038240433;-0.5334569811820984;90.23435974121094
7;1673423397.657942;47.1306425;7.2406197;-0.0020000000949949026;1673423397.6608713;0.022851010784506798;-0.4625246822834015;90.215576171875
8;1673423397.828538;47.1306425;7.2406197;-0.0020000000949949026;1673423397.8314483;0.025677362456917763;-0.3822208344936371;90.2052001953125
9;1673423398.0245554;47.1306425;7.2406197;-0.004000000189989805;1673423398.0255322;0.12522050738334656;-0.4756593704223633;90.28103637695312
10;1673423398.2090914;47.1306424;7.240619799999999;-0.007000000216066837;1673423398.2130036;0.17680519819259644;-0.34371861815452576;90.11001586914062
11;1673423398.3827431;47.1306424;7.240619799999999;-0.010000000707805157;1673423398.3856711;0.23897288739681244;-0.48164042830467224;90.13995361328125
12;1673423398.574386;47.1306424;7.240619799999999;-0.017000000923871994;1673423398.577314;0.10058054327964783;-0.37820518016815186;89.9353256225586
13;1673423398.7667437;47.1306425;7.2406197;-0.024000000208616257;1673423398.7696717;0.1157013550400734;-0.38431674242019653;89.95762634277344
14;1673423398.9710288;47.1306425;7.2406197;0.0;1673423398.9739707;-0.05037431791424751;0.2014138102531433;90.02928924560547
15;1673423399.1587822;47.1306425;7.2406197;0.0;1673423399.1617088;0.011416038498282433;0.024506784975528717;89.97389221191406
16;1673423399.3577948;47.1306425;7.240619799999999;0.0;1673423399.3616989;-0.07924341410398483;0.02598160319030285;90.09721374511719
17;1673423399.5826716;47.1306425;7.240619799999999;0.0010000000474974513;1673423399.5856;-0.025921454653143883;0.059650927782058716;90.1985855102539
18;1673423399.782919;47.1306425;7.2406198999999996;0.0020000000949949026;1673423399.7858655;0.13827328383922577;0.08013828843832016;90.29149627685547
19;1673423399.984986;47.1306425;7.2406198999999996;0.0010000000474974513;1673423399.9879305;0.08744446188211441;0.3430870473384857;90.12826538085938
20;1673423400.1861641;47.1306424;7.24062;-0.0020000000949949026;1673423400.1900368;0.19479301571846008;0.5766654014587402;90.19927215576172
21;1673423400.3669405;47.1306424;7.24062;0.0;1673423400.370846;-0.01684076339006424;0.5523117780685425;90.09088134765625
22;1673423400.563456;47.1306424;7.24062;0.0;1673423400.5663586;0.14387187361717224;-0.014951283112168312;90.35321044921875
23;1673423400.7875977;47.1306424;7.24062;0.0;1673423400.7895505;0.005890317261219025;0.73524409532547;90.20275115966797
24;1673423400.9814405;47.1306424;7.24062;0.0020000000949949026;1673423400.9843752;0.24608847498893738;0.10815276950597763;90.18470001220703
25;1673423401.1767673;47.1306424;7.24062;0.003000000026077032;1673423401.179679;0.11481955647468567;0.3784712851047516;90.13892364501953
26;1673423401.386546;47.1306424;7.2406198999999996;0.003000000026077032;1673423401.3894732;0.2204301804304123;0.3908674120903015;89.81568145751953
27;1673423401.5751796;47.1306424;7.2406198999999996;0.005000000353902578;1673423401.578107;0.20551052689552307;-0.1849852204322815;89.86402130126953
28;1673423401.7704496;47.1306423;7.24062;0.003000000026077032;1673423401.7733746;0.28751176595687866;0.1974499374628067;90.04804229736328
29;1673423401.9652052;47.1306423;7.24062;0.0010000000474974513;1673423401.9691074;0.0854683443903923;-0.11474545300006866;90.18191528320312
30;1673423402.1757154;47.1306422;7.24062;0.0;1673423402.178643;0.13231289386749268;0.06120239943265915;90.12529754638672
31;1673423402.3722396;47.130642099999996;7.24062;-0.0020000000949949026;1673423402.3751812;0.34341487288475037;0.04736601561307907;90.20574188232422
32;1673423402.5733316;47.1306419;7.24062;-0.0010000000474974513;1673423402.5811398;0.1836254596710205;-2.0832419395446777;91.37500762939453
33;1673423402.795576;47.1306417;7.2406198999999996;0.006000000052154064;1673423402.7994828;0.11528939753770828;-7.9503865242004395;92.79117584228516
34;1673423402.9953163;47.130641499999996;7.2406198999999996;0.020000001415610313;1673423402.9972723;-1.0238157510757446;-12.772371292114258;92.20113372802734
35;1673423403.2020516;47.130641399999995;7.240619799999999;0.0560000017285347;1673423403.2040045;-0.44998687505722046;-12.18377685546875;91.78031921386719
36;1673423403.3945947;47.130641499999996;7.240619799999999;0.11800000816583633;1673423403.3975778;-0.3032050132751465;-13.382960319519043;91.81256103515625
37;1673423403.5921059;47.1306416;7.240619799999999;0.19700001180171967;1673423403.596012;-1.922037959098816;-11.433456420898438;91.96288299560547
38;1673423403.7976527;47.1306418;7.2406197;0.289000004529953;1673423403.8005867;-1.8031476736068726;-7.8630781173706055;91.45323944091797
39;1673423404.007098;47.130642099999996;7.2406196;0.39400002360343933;1673423404.0100286;-1.7755519151687622;-11.32392692565918;91.78678131103516
40;1673423404.2057233;47.1306423;7.2406196;0.5130000114440918;1673423404.2096193;-0.9025255441665649;-11.608746528625488;92.02496337890625
41;1673423404.4040642;47.130642699999996;7.2406197;0.6450000405311584;1673423404.4060152;-0.7144733667373657;-7.085030555725098;91.77484130859375
42;1673423404.6044347;47.130643;7.2406197;0.7890000343322754;1673423404.6063979;-0.6892480254173279;-9.129623413085938;92.0890121459961
43;1673423404.8049266;47.130643199999994;7.240619799999999;0.9540000557899475;1673423404.8068757;-1.0823842287063599;-10.87202262878418;92.11988830566406
44;1673423404.9982977;47.130643299999996;7.240619799999999;1.1370000839233398;1673423405.0002508;-1.4684064388275146;-6.921114921569824;91.76419067382812
45;1673423405.1928759;47.130643299999996;7.240619799999999;1.3310000896453857;1673423405.1967866;-1.4145013093948364;-8.500297546386719;91.77977752685547
46;1673423405.3790166;47.1306434;7.240619799999999;1.5230001211166382;1673423405.381943;-1.3405818939208984;-11.323136329650879;92.12542724609375
47;1673423405.5643303;47.1306434;7.2406198999999996;1.7130000591278076;1673423405.5682306;-1.102181315422058;-7.483150482177734;91.8419418334961
48;1673423405.7729197;47.1306434;7.24062;1.9070000648498535;1673423405.7758474;-0.966853141784668;-8.388647079467773;91.83012390136719
49;1673423405.9968472;47.1306434;7.24062;2.1010000705718994;1673423405.9997644;-0.5644503831863403;-12.13852596282959;91.98953247070312
50;1673423406.1860547;47.130643199999994;7.2406201;2.2960000038146973;1673423406.1880083;-0.6455522775650024;-7.875927448272705;91.873046875
51;1673423406.3917968;47.1306431;7.2406201;2.490000009536743;1673423406.3947291;-1.1574593782424927;-8.822430610656738;92.20973205566406
52;1673423406.6046374;47.1306431;7.2406201;2.680000066757202;1673423406.6066082;-1.5987670421600342;-11.644076347351074;92.74830627441406
53;1673423406.7997482;47.1306431;7.2406201;2.868000030517578;1673423406.8026867;-1.5275909900665283;-8.299423217773438;92.45343017578125
54;1673423406.9986298;47.130643;7.2406201999999995;3.061000108718872;1673423407.0005817;-1.0398664474487305;-7.309981346130371;92.17404174804688
55;1673423407.1829531;47.1306429;7.2406201999999995;3.259000062942505;1673423407.1868582;-0.7065215706825256;-12.35554313659668;92.64547729492188
56;1673423407.3886552;47.1306425;7.2406201999999995;3.4600002765655518;1673423407.391574;-0.07240813225507736;-10.049992561340332;92.54017639160156
57;1673423407.578506;47.1306423;7.2406201999999995;3.6590001583099365;1673423407.583385;-0.6804735660552979;-8.873287200927734;92.45684051513672
58;1673423407.807297;47.1306422;7.2406201999999995;3.8520002365112305;1673423407.8092606;-1.0945557355880737;-12.670774459838867;92.67814636230469
59;1673423408.0071447;47.1306422;7.24062;4.044000148773193;1673423408.0110502;-1.6622413396835327;-11.051613807678223;92.4407958984375
60;1673423408.2211602;47.1306423;7.24062;4.234000205993652;1673423408.224092;-1.691899061203003;-7.576743125915527;92.07921600341797
61;1673423408.4218388;47.1306423;7.2406198999999996;4.426000118255615;1673423408.423775;-1.518799901008606;-11.091853141784668;92.44104766845703
62;1673423408.6279144;47.1306422;7.2406198999999996;4.622000217437744;1673423408.6308424;-0.8386614322662354;-11.684988975524902;92.7225570678711
63;1673423408.8187745;47.130642099999996;7.240619799999999;4.820000171661377;1673423408.8212695;-1.0204195976257324;-7.934704780578613;92.29610443115234
64;1673423409.0180445;47.130642099999996;7.240619799999999;5.017000198364258;1673423409.021515;-1.2107359170913696;-10.885601043701172;92.33952331542969
65;1673423409.1997235;47.130642099999996;7.240619799999999;5.213000297546387;1673423409.2026474;-1.3219692707061768;-11.924506187438965;92.4478759765625
66;1673423409.439602;47.1306422;7.240619799999999;5.408000469207764;1673423409.442518;-1.6306788921356201;-7.48073673248291;92.18818664550781
67;1673423409.6485488;47.1306423;7.2406197;5.6080002784729;1673423409.6514764;-1.7841253280639648;-9.649924278259277;92.5555648803711
68;1673423409.81696;47.1306422;7.2406197;5.815000057220459;1673423409.8198917;-1.1617952585220337;-12.170171737670898;92.72593688964844
69;1673423410.019098;47.130642099999996;7.2406197;6.019000053405762;1673423410.0225618;-0.9689322113990784;-7.942352771759033;92.42597198486328
70;1673423410.2256858;47.130642099999996;7.240619799999999;6.217000484466553;1673423410.2295713;-0.9547261595726013;-9.683658599853516;92.27539825439453
71;1673423410.4145904;47.130642099999996;7.240619799999999;6.4120001792907715;1673423410.4175196;-0.9747077226638794;-12.263646125793457;92.4303970336914
72;1673423410.595243;47.130642099999996;7.240619799999999;6.607000350952148;1673423410.5991604;-1.2633543014526367;-8.605711936950684;92.11254119873047
73;1673423410.786689;47.130642099999996;7.240619799999999;6.801000118255615;1673423410.788659;-1.7485228776931763;-8.52754020690918;92.26290893554688
74;1673423411.007561;47.130642099999996;7.240619799999999;7.000000476837158;1673423411.0105073;-1.4691989421844482;-12.968123435974121;92.76042175292969
75;1673423411.200906;47.1306419;7.2406197;7.201000213623047;1673423411.203836;-1.561570644378662;-9.347807884216309;92.51651000976562
76;1673423411.4030917;47.1306419;7.2406197;7.398000240325928;1673423411.4060202;-1.236279010772705;-8.681658744812012;92.47430419921875
77;1673423411.6003413;47.1306419;7.240619799999999;7.594000339508057;1673423411.6042452;-0.7615696787834167;-12.629227638244629;92.51689147949219
78;1673423411.801553;47.130641999999995;7.240619799999999;7.7900004386901855;1673423411.8035054;-1.0122464895248413;-10.115130424499512;92.4254379272461
79;1673423412.0144875;47.130642099999996;7.240619799999999;7.9860005378723145;1673423412.0183966;-1.1724228858947754;-7.551551342010498;92.34429168701172
80;1673423412.2068877;47.130642099999996;7.2406198999999996;8.182000160217285;1673423412.209866;-1.5171728134155273;-11.49261474609375;92.63524627685547
81;1673423412.3925;47.130641999999995;7.2406198999999996;8.37600040435791;1673423412.3964055;-1.3768941164016724;-10.86158275604248;92.53395080566406
82;1673423412.6043978;47.1306419;7.2406198999999996;8.567000389099121;1673423412.6073365;-1.3871018886566162;-7.90794038772583;92.32780456542969
83;1673423412.7997274;47.130641999999995;7.24062;8.756000518798828;1673423412.8036315;-1.1262801885604858;-11.901037216186523;92.58403015136719
84;1673423412.994115;47.130641999999995;7.24062;8.947999954223633;1673423412.9970393;-0.5680376887321472;-11.949814796447754;92.61627960205078
85;1673423413.1933115;47.1306419;7.24062;9.13800048828125;1673423413.197217;-0.7829038500785828;-7.680236339569092;92.39793395996094
86;1673423413.4110975;47.1306419;7.24062;9.329000473022461;1673423413.4130642;-1.0582314729690552;-11.163125038146973;92.64016723632812
87;1673423413.6142466;47.1306419;7.2406201;9.522000312805176;1673423413.6162155;-1.0673235654830933;-12.207429885864258;92.5231704711914
88;1673423413.8075986;47.1306419;7.2406201;9.714000701904297;1673423413.8115067;-1.3125745058059692;-8.007896423339844;92.24078369140625
89;1673423414.0417757;47.130641999999995;7.2406201999999995;9.907000541687012;1673423414.043729;-1.2564396858215332;-10.865901947021484;92.51910400390625
90;1673423414.2322202;47.130641999999995;7.2406201999999995;10.099000930786133;1673423414.2351425;-0.8924608826637268;-12.047119140625;92.64100646972656
91;1673423414.483346;47.130642099999996;7.2406201999999995;10.343000411987305;1673423414.4852922;-0.47818705439567566;-8.649760246276855;92.48197937011719
92;1673423414.6520617;47.1306423;7.2406201999999995;10.689000129699707;1673423414.6549885;-0.5303478240966797;-9.453963279724121;92.35152435302734
93;1673423414.8415275;47.1306425;7.2406203;11.072000503540039;1673423414.843469;-1.1402292251586914;-12.649388313293457;92.35271453857422
94;1673423415.0158117;47.130642699999996;7.2406203;11.469000816345215;1673423415.0177627;-1.2708723545074463;-8.689651489257812;92.24217224121094
95;1673423415.2121186;47.1306429;7.2406203;11.867000579833984;1673423415.2140708;-1.4215059280395508;-7.321762561798096;92.25768280029297
96;1673423415.3879244;47.1306431;7.2406203;12.267000198364258;1673423415.3918283;-1.0935540199279785;-10.41943073272705;92.4583740234375
97;1673423415.5968764;47.130643199999994;7.2406204;12.672000885009766;1673423415.599815;-0.7658184170722961;-9.81031322479248;92.59584045410156
98;1673423415.8038929;47.1306431;7.2406204;13.076000213623047;1673423415.806806;-0.5488313436508179;-6.632180213928223;92.4593276977539
99;1673423416.0069911;47.130643;7.2406204;13.47700023651123;1673423416.0099194;-0.8327330350875854;-10.136798858642578;92.49296569824219
100;1673423416.2112343;47.1306429;7.2406204;13.882000923156738;1673423416.2151377;-0.7800201773643494;-10.83159351348877;92.36481475830078
101;1673423416.416349;47.1306428;7.2406204;14.289000511169434;1673423416.41929;-1.1711870431900024;-7.51826810836792;92.12789154052734
102;1673423416.5979705;47.1306428;7.2406204;14.692000389099121;1673423416.600901;-1.3231204748153687;-10.368343353271484;92.28319549560547
103;1673423416.8030484;47.1306428;7.2406204;15.096000671386719;1673423416.8059764;-1.0073310136795044;-11.850325584411621;92.48445892333984
104;1673423417.0150456;47.1306428;7.2406204;15.498001098632812;1673423417.019926;-0.8310189247131348;-7.479556083679199;92.32904052734375
105;1673423417.217253;47.130642699999996;7.2406203;15.896000862121582;1673423417.220173;-1.0644787549972534;-9.063340187072754;92.54678344726562
106;1673423417.4135861;47.130642699999996;7.2406203;16.29800033569336;1673423417.4145622;-1.2004170417785645;-12.185661315917969;92.6371841430664
107;1673423417.6216257;47.130642599999995;7.2406204;16.69700050354004;1673423417.6235795;-1.081032395362854;-9.01013469696045;92.31684875488281
108;1673423417.8380306;47.130642699999996;7.2406204;17.086000442504883;1673423417.8409588;-1.1245676279067993;-8.450515747070312;92.30732727050781
109;1673423418.0220604;47.130642699999996;7.2406204;17.477001190185547;1673423418.0230367;-0.8650220632553101;-11.921908378601074;92.62712097167969
110;1673423418.2222605;47.130642699999996;7.2406204;17.874000549316406;1673423418.224757;-1.104716181755066;-9.163464546203613;92.3133544921875
111;1673423418.41956;47.130642699999996;7.2406204;18.267000198364258;1673423418.4224904;-0.9442249536514282;-7.760011196136475;92.22745513916016
112;1673423418.5875366;47.130642599999995;7.2406204;18.660001754760742;1673423418.590455;-0.9819943904876709;-11.983040809631348;92.47512817382812
113;1673423418.775014;47.130642599999995;7.2406203;19.0570011138916;1673423418.7789116;-0.7672333121299744;-10.187925338745117;92.45498657226562
114;1673423418.977146;47.130642599999995;7.2406203;19.44900131225586;1673423418.982015;-1.1306792497634888;-7.373948574066162;92.4229736328125
115;1673423419.2027805;47.130642699999996;7.2406203;19.843000411987305;1673423419.2076976;-1.1406067609786987;-11.044427871704102;92.67223358154297
116;1673423419.4071977;47.1306428;7.2406203;20.242000579833984;1673423419.410059;-0.9682103991508484;-10.921608924865723;92.71184539794922
117;1673423419.6094174;47.130642699999996;7.2406201999999995;20.636001586914062;1673423419.6123352;-1.132307767868042;-7.122032642364502;92.37748718261719
118;1673423419.8057418;47.130642699999996;7.2406201999999995;21.029001235961914;1673423419.8086615;-1.0947734117507935;-10.534866333007812;92.57281494140625
119;1673423420.0040364;47.130642599999995;7.2406201;21.428001403808594;1673423420.007933;-0.859614908695221;-11.688222885131836;92.51126861572266
120;1673423420.206197;47.130642599999995;7.2406201;21.828001022338867;1673423420.209125;-1.1055344343185425;-7.707006454467773;92.28738403320312
121;1673423420.4015288;47.130642699999996;7.2406201;22.224000930786133;1673423420.4054325;-1.1549627780914307;-9.59753704071045;92.39435577392578
122;1673423420.6056056;47.1306428;7.24062;22.61800193786621;1673423420.6075566;-1.1902225017547607;-11.991317749023438;92.4549560546875
123;1673423420.801885;47.1306428;7.24062;23.011001586914062;1673423420.8038259;-1.2991572618484497;-7.483305931091309;92.2063980102539
124;1673423421.0157986;47.1306428;7.24062;23.39900016784668;1673423421.0177507;-1.2534993886947632;-8.521455764770508;92.2178955078125
125;1673423421.2170367;47.1306428;7.24062;23.78900146484375;1673423421.2189968;-1.1112722158432007;-12.251649856567383;92.57755279541016
126;1673423421.4162624;47.1306428;7.24062;24.187000274658203;1673423421.4191916;-0.8351401090621948;-8.983907699584961;92.55298614501953
127;1673423421.6073165;47.1306429;7.24062;24.584001541137695;1673423421.610234;-1.0469136238098145;-8.074625015258789;92.44023895263672
128;1673423421.8167527;47.130643;7.24062;24.98000144958496;1673423421.819691;-0.9442219734191895;-11.558753967285156;92.79380798339844
129;1673423422.015983;47.130643;7.2406198999999996;25.37700080871582;1673423422.0189092;-1.2867155075073242;-8.767158508300781;92.39420318603516
130;1673423422.209326;47.130643;7.2406198999999996;25.772001266479492;1673423422.2151868;-1.4442962408065796;-7.348466873168945;92.20570373535156
131;1673423422.4154088;47.1306429;7.2406198999999996;26.166000366210938;1673423422.419313;-1.0498327016830444;-12.226418495178223;92.58405303955078
132;1673423422.6116772;47.1306428;7.2406198999999996;26.56100082397461;1673423422.6146042;-0.7514366507530212;-9.45645809173584;92.38887786865234
133;1673423422.815773;47.1306428;7.2406198999999996;26.95600128173828;1673423422.8187017;-1.001747965812683;-7.554447650909424;92.23117065429688
134;1673423423.0198927;47.1306428;7.2406198999999996;27.35300064086914;1673423423.021852;-0.9862827062606812;-11.042396545410156;92.63216400146484
135;1673423423.2210767;47.1306428;7.2406198999999996;27.751001358032227;1673423423.2260365;-1.1377712488174438;-10.25498104095459;92.5865249633789
136;1673423423.426212;47.130642699999996;7.240619799999999;28.147001266479492;1673423423.4291403;-1.2584505081176758;-7.228257179260254;92.35044860839844
137;1673423423.6000886;47.130642699999996;7.240619799999999;28.53400230407715;1673423423.6020427;-1.4388840198516846;-10.480703353881836;92.50944519042969
138;1673423423.7875764;47.130642599999995;7.240619799999999;28.921001434326172;1673423423.7914815;-1.0984551906585693;-11.348270416259766;92.59141540527344
139;1673423423.9956338;47.130642599999995;7.240619799999999;29.312002182006836;1673423423.9985495;-1.19736909866333;-7.718208312988281;92.218017578125
140;1673423424.2026255;47.130642599999995;7.2406197;29.70600128173828;1673423424.205554;-1.2363519668579102;-9.456435203552246;92.36180114746094
141;1673423424.411636;47.130642699999996;7.2406197;30.104001998901367;1673423424.4145522;-0.8598963022232056;-11.748894691467285;92.57609558105469
142;1673423424.6176467;47.130642599999995;7.2406197;30.50200080871582;1673423424.6195984;-1.2086505889892578;-7.841440200805664;92.34292602539062
143;1673423424.8139746;47.130642599999995;7.2406197;30.897001266479492;1673423424.8178916;-1.352492332458496;-8.701105117797852;92.3713607788086
144;1673423425.0219736;47.1306425;7.2406197;31.29100227355957;1673423425.0249083;-1.431298851966858;-12.269972801208496;92.76850128173828
145;1673423425.2197354;47.1306425;7.240619799999999;31.69000244140625;1673423425.22364;-1.2646437883377075;-8.919405937194824;92.5155029296875
146;1673423425.4166725;47.130642599999995;7.240619799999999;32.09100341796875;1673423425.4196084;-1.3066565990447998;-8.065153121948242;92.34796142578125
147;1673423425.6169298;47.130642699999996;7.2406198999999996;32.49300003051758;1673423425.6198564;-0.8870643377304077;-11.634739875793457;92.42925262451172
148;1673423425.8122315;47.130642599999995;7.2406198999999996;32.897003173828125;1673423425.815166;-0.9632731676101685;-9.014684677124023;92.43828582763672
149;1673423426.0145342;47.130642599999995;7.2406198999999996;33.29800033569336;1673423426.017412;-1.2000221014022827;-7.45285177230835;92.15705108642578
150;1673423426.2455823;47.130642599999995;7.2406198999999996;33.69499969482422;1673423426.248511;-1.2764701843261719;-11.992240905761719;92.468994140625
151;1673423426.4896746;47.130642599999995;7.240619799999999;34.09100341796875;1673423426.4916265;-1.1944013833999634;-10.084465980529785;92.46179962158203
152;1673423426.6576443;47.130642699999996;7.2406198999999996;34.48800277709961;1673423426.6596172;-1.2403998374938965;-7.394469738006592;92.29722595214844
153;1673423426.8461428;47.1306428;7.2406198999999996;34.88600158691406;1673423426.8490708;-1.2286752462387085;-10.717879295349121;92.59932708740234
154;1673423427.0389671;47.1306428;7.240619799999999;35.288002014160156;1673423427.0414553;-0.9809667468070984;-10.439228057861328;92.64036560058594
155;1673423427.240722;47.1306428;7.2406198999999996;35.6870002746582;1673423427.2436538;-1.1015801429748535;-6.980202674865723;92.4098892211914
156;1673423427.4159646;47.1306428;7.2406198999999996;36.082000732421875;1673423427.417918;-1.0976365804672241;-10.633674621582031;92.4713134765625
157;1673423427.609361;47.1306428;7.2406198999999996;36.47200012207031;1673423427.6122935;-1.1474839448928833;-11.065873146057129;92.47611236572266
158;1673423427.8085546;47.1306428;7.2406198999999996;36.86600112915039;1673423427.8114831;-1.2987520694732666;-7.0762505531311035;92.1224136352539
159;1673423428.0106902;47.1306429;7.2406198999999996;37.26100158691406;1673423428.0136192;-1.3785406351089478;-9.22817325592041;92.36822509765625
160;1673423428.2040293;47.1306429;7.2406198999999996;37.659000396728516;1673423428.2069747;-1.0332868099212646;-11.845681190490723;92.6654281616211
161;1673423428.406288;47.1306428;7.2406198999999996;38.057003021240234;1673423428.408256;-1.0874552726745605;-7.261305809020996;92.45614624023438
162;1673423428.5937889;47.1306428;7.240619799999999;38.452003479003906;1673423428.5967174;-1.2925481796264648;-8.874443054199219;92.46979522705078
163;1673423428.796909;47.1306428;7.240619799999999;38.84000015258789;1673423428.7998326;-1.1482734680175781;-11.37824535369873;92.72576904296875
164;1673423428.9951358;47.1306428;7.240619799999999;39.229000091552734;1673423428.9990344;-1.1885671615600586;-9.265671730041504;92.4990234375
165;1673423429.1855881;47.1306429;7.240619799999999;39.621002197265625;1673423429.1895108;-1.3949445486068726;-7.617335796356201;92.23797607421875
166;1673423429.4014363;47.1306428;7.240619799999999;40.018001556396484;1673423429.4053395;-1.2451752424240112;-11.988164901733398;92.43560028076172
167;1673423429.598691;47.130642699999996;7.240619799999999;40.41600036621094;1673423429.60162;-1.2434306144714355;-8.825967788696289;92.30592346191406
168;1673423429.7959328;47.130642599999995;7.240619799999999;40.8120002746582;1673423429.7988617;-1.1925277709960938;-7.810291767120361;92.25666046142578
169;1673423429.9981964;47.130642599999995;7.240619799999999;41.20600128173828;1673423430.0010707;-1.0650802850723267;-11.949399948120117;92.49481201171875
170;1673423430.236054;47.130642599999995;7.240619799999999;41.60000228881836;1673423430.2380211;-0.9193030595779419;-9.502463340759277;92.47685241699219
171;1673423430.4269648;47.130642699999996;7.240619799999999;41.99500274658203;1673423430.430859;-1.2509301900863647;-7.273411750793457;92.36908721923828
172;1673423430.6189694;47.130642699999996;7.2406197;42.39600372314453;1673423430.6218786;-1.2850382328033447;-11.144469261169434;92.82645416259766
173;1673423430.807938;47.130642599999995;7.2406197;42.80400085449219;1673423430.8108482;-1.3142470121383667;-10.230330467224121;92.51923370361328
174;1673423431.0227365;47.1306425;7.2406196;43.211002349853516;1673423431.026643;-1.4609322547912598;-7.544207572937012;92.27313995361328
175;1673423431.2200115;47.130642599999995;7.2406196;43.61300277709961;1673423431.223915;-1.1782009601593018;-11.17375659942627;92.39076232910156
176;1673423431.4319274;47.130642599999995;7.2406196;44.009002685546875;1673423431.4358482;-1.1994543075561523;-10.451202392578125;92.4516830444336
177;1673423431.6321125;47.130642699999996;7.2406196;44.400001525878906;1673423431.6350398;-1.351561427116394;-7.129017353057861;92.35315704345703
178;1673423431.8303397;47.130642699999996;7.2406196;44.797000885009766;1673423431.8342478;-1.5795233249664307;-9.559124946594238;92.49339294433594
179;1673423432.0295584;47.130642699999996;7.2406196;45.19600296020508;1673423432.0324805;-1.3230624198913574;-11.454935073852539;92.67774200439453
180;1673423432.2395182;47.130642599999995;7.2406196;45.595001220703125;1673423432.2424467;-1.180082082748413;-7.309361457824707;92.35955047607422
181;1673423432.4270365;47.130642599999995;7.2406196;45.992000579833984;1673423432.4299705;-1.2028539180755615;-9.528504371643066;92.41255187988281
182;1673423432.6086643;47.130642599999995;7.2406196;46.38600158691406;1673423432.612574;-1.2389028072357178;-12.027060508728027;92.47444152832031
183;1673423432.8078659;47.130642599999995;7.2406197;46.78000259399414;1673423432.8107858;-1.29580557346344;-7.213385581970215;92.2737045288086
184;1673423433.007112;47.130642599999995;7.2406197;47.17900085449219;1673423433.011025;-1.424616813659668;-8.037078857421875;92.3132553100586
185;1673423433.2083123;47.130642599999995;7.2406197;47.58100128173828;1673423433.2122147;-1.277825117111206;-12.645977973937988;92.65481567382812
186;1673423433.4124422;47.1306425;7.2406197;47.98200225830078;1673423433.4153564;-1.2936896085739136;-8.467296600341797;92.32656860351562
187;1673423433.6146033;47.1306424;7.2406197;48.34700393676758;1673423433.6175323;-1.4629484415054321;-9.292769432067871;92.37614440917969
188;1673423433.8050387;47.1306424;7.2406197;48.65900421142578;1673423433.8079658;-1.2639572620391846;-11.844354629516602;92.40206146240234
189;1673423434.0199435;47.1306423;7.2406197;48.915000915527344;1673423434.0228715;-1.293397068977356;-8.987091064453125;92.42625427246094
190;1673423434.2259955;47.1306423;7.2406197;49.12800216674805;1673423434.2289615;-1.3891282081604004;-7.501956462860107;92.449462890625
191;1673423434.425295;47.1306422;7.2406196;49.310001373291016;1673423434.4292078;-1.262421727180481;-12.840800285339355;92.81898498535156
192;1673423434.61669;47.1306419;7.2406194;49.46600341796875;1673423434.6196184;14.193994522094727;4.289026737213135;95.80363464355469
193;1673423434.8061316;47.130640799999995;7.240617899999999;49.61000061035156;1673423434.8090625;26.86233901977539;30.811098098754883;107.99609375
194;1673423435.0083616;47.130638;7.2406134;49.73500061035156;1673423435.0142193;29.38409423828125;46.59922409057617;117.59959411621094
195;1673423435.2104585;47.1306325;7.240604899999999;49.82600402832031;1673423435.2133882;19.181072235107422;55.084739685058594;125.63258361816406
196;1673423435.4098463;47.1306242;7.2405925;49.88500213623047;1673423435.4127746;1.5028839111328125;58.377384185791016;136.60223388671875
197;1673423435.6285636;47.1306133;7.240577;49.92000198364258;1673423435.6324704;-16.127347946166992;54.63968276977539;147.28167724609375
198;1673423435.838501;47.130600199999996;7.2405591;49.93600082397461;1673423435.840452;-29.628173828125;47.02540969848633;158.65301513671875
199;1673423436.0348308;47.1305853;7.2405393;49.93700408935547;1673423436.0387368;-40.57799530029297;42.36838150024414;171.03025817871094
200;1673423436.236045;47.1305686;7.240517199999999;49.935001373291016;1673423436.238975;-49.506343841552734;38.623390197753906;-176.86483764648438
201;1673423436.4412549;47.1305504;7.2404929;49.913002014160156;1673423436.4431746;-51.89995574951172;29.446699142456055;-166.03805541992188
202;1673423436.6347134;47.1305312;7.2404668999999995;49.86300277709961;1673423436.637696;-46.89349365234375;21.81100845336914;-159.62158203125
203;1673423436.8251252;47.130511399999996;7.2404399999999995;49.801002502441406;1673423436.8271377;-47.93234634399414;17.794204711914062;-153.84982299804688
204;1673423437.0332127;47.130491;7.2404120999999995;49.73800277709961;1673423437.036141;-47.62382125854492;11.190993309020996;-145.98704528808594
205;1673423437.2413685;47.1304703;7.2403835999999995;49.677001953125;1673423437.2442977;-44.45090866088867;9.361579895019531;-139.6438446044922
206;1673423437.4483616;47.1304495;7.2403546;49.63100051879883;1673423437.451826;-44.77394485473633;5.2693705558776855;-132.8501434326172
207;1673423437.6329257;47.1304289;7.2403254;49.612003326416016;1673423437.6358535;-44.969329833984375;-2.482625961303711;-129.4130859375
208;1673423437.8204424;47.1304082;7.2402964;49.60300064086914;1673423437.823359;-46.53074264526367;-1.8760279417037964;-132.9532470703125
209;1673423438.0167706;47.1303872;7.2402675;49.60900115966797;1673423438.0206738;-47.57856750488281;-0.9867314696311951;-134.91900634765625
210;1673423438.22771;47.1303658;7.2402387;49.62300109863281;1673423438.2321653;-48.272918701171875;-0.02443885989487171;-135.62033081054688
211;1673423438.439649;47.130344099999995;7.2402098;49.64900207519531;1673423438.442583;-48.11737823486328;1.9294207096099854;-136.42857360839844
212;1673423438.626159;47.130322199999995;7.2401808999999995;49.68300247192383;1673423438.6281118;-48.12055206298828;2.8261256217956543;-136.59214782714844
213;1673423438.8116975;47.1303002;7.2401518;49.71600341796875;1673423438.8165731;-48.990299224853516;3.4648430347442627;-136.70582580566406
214;1673423439.0197535;47.130278;7.2401225;49.74700164794922;1673423439.0226674;-49.11027145385742;3.780168056488037;-136.64825439453125
215;1673423439.221865;47.1302558;7.240093;49.77000045776367;1673423439.2267618;-48.66158676147461;3.778503179550171;-136.48538208007812
216;1673423439.4269683;47.1302336;7.2400633999999995;49.78700256347656;1673423439.4298959;-47.92216491699219;3.6018176078796387;-136.2726593017578
217;1673423439.6369395;47.1302113;7.240033599999999;49.810001373291016;1673423439.6398945;-47.674339294433594;3.635471820831299;-136.21949768066406
218;1673423439.8263843;47.1301889;7.2400037;49.83400344848633;1673423439.8283374;-48.206016540527344;3.73085355758667;-136.17041015625
219;1673423440.0255775;47.130166599999995;7.2399736;49.85700225830078;1673423440.0285065;-48.80147171020508;3.596440553665161;-136.07997131347656
220;1673423440.2208717;47.1301443;7.2399434;49.875003814697266;1673423440.225766;-48.68990707397461;3.416381359100342;-135.9653778076172
221;1673423440.4279068;47.130122;7.2399131;49.88100051879883;1673423440.4308343;-48.21533203125;3.2874555587768555;-135.87962341308594
222;1673423440.6212454;47.1300996;7.2398827;49.88600158691406;1673423440.6261249;-47.487709045410156;3.1423299312591553;-135.81971740722656
223;1673423440.8145828;47.130077299999996;7.239852399999999;49.89800262451172;1673423440.8175123;-47.603511810302734;3.3313674926757812;-135.9209747314453
224;1673423441.026471;47.130055;7.2398219;49.91400146484375;1673423441.0293994;-48.428123474121094;3.426482677459717;-135.9520263671875
225;1673423441.2120032;47.1300327;7.2397914;49.927001953125;1673423441.2149305;-48.8062744140625;3.2898716926574707;-135.89749145507812
226;1673423441.4083064;47.130010299999995;7.239760899999999;49.93600082397461;1673423441.4112349;-48.6600341796875;3.2019383907318115;-135.8679656982422
227;1673423441.5967703;47.129987899999996;7.2397301999999994;49.94000244140625;1673423441.6016614;-48.288848876953125;3.141263008117676;-135.8481903076172
228;1673423441.7950134;47.1299656;7.2396996;49.93600082397461;1673423441.7979643;-47.97189712524414;3.178877830505371;-135.86875915527344
229;1673423441.9981477;47.1299432;7.239668999999999;49.932003021240234;1673423442.0011017;-47.65708923339844;3.1366846561431885;-135.86326599121094
230;1673423442.2032418;47.129920899999995;7.2396384;49.93300247192383;1673423442.2052107;-47.89047622680664;3.158475160598755;-135.89256286621094
231;1673423442.4258926;47.1298986;7.239607899999999;49.935001373291016;1673423442.428821;-48.3513298034668;3.34175705909729;-135.92926025390625
232;1673423442.6280174;47.1298763;7.2395774;49.93700408935547;1673423442.631922;-48.60883331298828;3.260880470275879;-135.89878845214844
233;1673423442.8282974;47.129853999999995;7.239546799999999;49.93800354003906;1673423442.83025;-48.44369888305664;3.238218069076538;-135.89804077148438
234;1673423443.0217066;47.129831599999996;7.2395163;49.93700408935547;1673423443.023662;-48.344398498535156;3.207683801651001;-135.86619567871094
235;1673423443.2258687;47.1298093;7.2394856999999995;49.92900085449219;1673423443.2298026;-48.095558166503906;3.14285945892334;-135.84146118164062
236;1673423443.42335;47.129787;7.2394551;49.919002532958984;1673423443.4262826;-47.876590728759766;3.0380775928497314;-135.81651306152344
237;1673423443.6060388;47.1297648;7.2394244;49.913002014160156;1673423443.6089451;-47.6793098449707;2.98996901512146;-135.8397674560547
238;1673423443.7906592;47.1297425;7.2393939;49.91200256347656;1673423443.7936006;-47.939579010009766;3.041045904159546;-135.8897705078125
239;1673423444.0066068;47.129720299999995;7.2393633;49.913002014160156;1673423444.0085588;-48.32223892211914;3.11514949798584;-135.9223175048828
240;1673423444.2214515;47.129698;7.239332699999999;49.9170036315918;1673423444.2263432;-48.40696716308594;3.056757688522339;-135.88766479492188
241;1673423444.41402;47.1296757;7.2393022;49.922000885009766;1673423444.4198763;-48.43153381347656;3.1571035385131836;-135.91354370117188
242;1673423444.6318781;47.129653399999995;7.2392715999999995;49.92500305175781;1673423444.6357913;-48.28847122192383;3.0815300941467285;-135.8598175048828
243;1673423444.8351407;47.129630999999996;7.239241;49.927001953125;1673423444.8380685;-48.12459182739258;3.048799991607666;-135.82528686523438
244;1673423445.0519593;47.1296087;7.239210399999999;49.928001403808594;1673423445.0539079;-48.06655502319336;3.0464625358581543;-135.85107421875
245;1673423445.2306716;47.1295864;7.2391798;49.92900085449219;1673423445.2341335;-48.052520751953125;3.063758134841919;-135.83018493652344
246;1673423445.4192493;47.129564099999996;7.2391492;49.93300247192383;1673423445.423139;-48.24427032470703;3.041320323944092;-135.7864532470703
247;1673423445.6234252;47.1295418;7.2391187;49.93600082397461;1673423445.6273305;-48.35626983642578;3.0842530727386475;-135.79103088378906
248;1673423445.819838;47.1295195;7.2390881;49.93800354003906;1673423445.8247218;-48.25458526611328;2.993800163269043;-135.7152099609375
249;1673423446.0230722;47.129497199999996;7.2390576;49.939002990722656;1673423446.0260012;-48.14331817626953;2.972275495529175;-135.67575073242188
250;1673423446.220382;47.1294748;7.2390270999999995;49.941001892089844;1673423446.222301;-48.078582763671875;3.110159158706665;-135.7148895263672
251;1673423446.4168012;47.1294525;7.2389965;49.945003509521484;1673423446.4197102;-48.238033294677734;2.988037586212158;-135.6074981689453
252;1673423446.6073802;47.129430299999996;7.238966;49.94900131225586;1673423446.6112926;-48.421932220458984;2.9860990047454834;-135.6123046875
253;1673423446.8263593;47.129408;7.2389354;49.952003479003906;1673423446.8292267;-48.201419830322266;3.948603868484497;-135.80616760253906
254;1673423447.0334096;47.1293857;7.2389047;49.9530029296875;1673423447.0363388;-48.35483932495117;5.892572402954102;-136.0455780029297
255;1673423447.2228613;47.1293636;7.2388737999999995;49.95000076293945;1673423447.2267666;-47.73215866088867;3.1091880798339844;-134.86026000976562
256;1673423447.428071;47.1293416;7.2388429;49.948001861572266;1673423447.4329178;-47.32733154296875;4.801830768585205;-135.35760498046875
257;1673423447.639121;47.129319699999996;7.238811999999999;49.952003479003906;1673423447.6440048;-44.18662643432617;5.391129493713379;-134.9313201904297
258;1673423447.831637;47.1292981;7.238781299999999;49.97800064086914;1673423447.8345656;-33.58152389526367;5.139418125152588;-135.4510040283203
259;1673423448.0191112;47.1292772;7.2387516;49.99700164794922;1673423448.0220344;-15.38871955871582;6.100305557250977;-135.7905731201172
260;1673423448.2252598;47.1292579;7.2387239999999995;50.00300216674805;1673423448.2281926;0.9099738597869873;5.394016742706299;-136.20079040527344
261;1673423448.4284081;47.129240599999996;7.2386992999999995;49.996002197265625;1673423448.430363;12.324294090270996;6.215012073516846;-136.90638732910156
262;1673423448.6140847;47.1292255;7.2386781;49.96000289916992;1673423448.617989;21.713237762451172;6.898855209350586;-137.1171417236328
263;1673423448.8347607;47.1292129;7.238660299999999;49.88600158691406;1673423448.837702;22.041736602783203;2.3758270740509033;-137.44874572753906
264;1673423449.0310297;47.1292026;7.2386458;49.810001373291016;1673423449.03201;21.79129409790039;4.485381126403809;-137.98028564453125
265;1673423449.2312036;47.1291942;7.2386342;49.75200271606445;1673423449.2341595;23.507749557495117;7.979578018188477;-138.6671600341797
266;1673423449.4314117;47.129187699999996;7.238625;49.72600173950195;1673423449.4353166;22.665414810180664;10.972689628601074;-138.3433837890625
267;1673423449.6286564;47.1291827;7.2386178;49.724002838134766;1673423449.6315851;13.058972358703613;12.28864860534668;-137.40792846679688
268;1673423449.8327425;47.129179;7.2386117;49.73200225830078;1673423449.8346848;4.205827713012695;6.7859697341918945;-136.25579833984375
269;1673423450.0417068;47.1291758;7.238606099999999;49.76100158691406;1673423450.0436733;-2.3381052017211914;3.0264194011688232;-135.43719482421875
270;1673423450.2512248;47.1291728;7.2386009;49.81100082397461;1673423450.2541652;-4.01517391204834;1.1165099143981934;-135.98524475097656
271;1673423450.437234;47.1291697;7.2385958;49.86300277709961;1673423450.4430897;-3.2048189640045166;0.29469573497772217;-137.13055419921875
272;1673423450.6549954;47.1291662;7.238590899999999;49.90900421142578;1673423450.6579044;-0.29860377311706543;1.403794288635254;-137.92562866210938
273;1673423450.8385537;47.1291626;7.238586199999999;49.94900131225586;1673423450.8405058;2.364123582839966;2.6171915531158447;-138.6030731201172
274;1673423451.0299466;47.129159;7.2385819;49.98100280761719;1673423451.0338593;4.022171497344971;4.956666469573975;-138.89402770996094
275;1673423451.2301254;47.1291556;7.2385782;50.00700378417969;1673423451.2340305;1.9235198497772217;7.605819225311279;-138.9837188720703
276;1673423451.4245214;47.1291523;7.2385744;50.04600143432617;1673423451.427448;-21.815406799316406;9.691757202148438;-139.76571655273438
277;1673423451.64421;47.1291485;7.238569699999999;50.117000579833984;1673423451.647146;-17.44338607788086;2.2013962268829346;-136.63185119628906
278;1673423451.8326714;47.1291438;7.238563999999999;50.294002532958984;1673423451.8346267;-18.21796226501465;1.4509491920471191;-136.44476318359375
279;1673423452.0418735;47.129138399999995;7.2385573;50.573001861572266;1673423452.043825;-20.51729965209961;1.764955997467041;-136.4442901611328
280;1673423452.2489119;47.1291321;7.2385496;50.91200256347656;1673423452.2528133;-29.636987686157227;2.4118144512176514;-136.1847381591797
281;1673423452.453046;47.1291247;7.2385402999999995;51.26400375366211;1673423452.4569333;-36.665382385253906;5.78381872177124;-135.72335815429688
282;1673423452.6532557;47.1291161;7.2385288999999995;51.624000549316406;1673423452.6551666;-39.54742431640625;7.720783233642578;-135.9052734375
283;1673423452.8603413;47.1291063;7.2385152999999995;52.00700378417969;1673423452.863271;-32.24800491333008;8.876760482788086;-136.2588653564453
284;1673423453.0527062;47.129095899999996;7.2385003999999995;52.39600372314453;1673423453.0546587;-26.28702735900879;9.001246452331543;-137.1051788330078
285;1673423453.2451303;47.1290853;7.238485;52.78600311279297;1673423453.2509866;-20.20323944091797;8.074437141418457;-137.08738708496094
286;1673423453.4609237;47.129074599999996;7.2384695;53.177001953125;1673423453.4628751;-15.877910614013672;5.404427528381348;-137.0377197265625
287;1673423453.6591485;47.129064299999996;7.238454399999999;53.566001892089844;1673423453.6611009;-13.42241382598877;2.7458555698394775;-137.2467803955078
288;1673423453.8456566;47.1290542;7.2384397;53.957000732421875;1673423453.8476062;-12.064241409301758;1.149105191230774;-137.5375518798828
289;1673423454.0468047;47.1290444;7.238425599999999;54.349002838134766;1673423454.051685;-12.217561721801758;1.9774214029312134;-137.81393432617188
290;1673423454.2504728;47.1290348;7.2384121;54.7400016784668;1673423454.2533998;-13.275891304016113;3.839312791824341;-137.93765258789062
291;1673423454.4375117;47.129025299999995;7.2383991;55.131004333496094;1673423454.4404404;-15.064367294311523;5.828237056732178;-138.0089111328125
292;1673423454.6377115;47.1290158;7.238386299999999;55.525001525878906;1673423454.6396663;-16.996484756469727;7.2676920890808105;-138.0832061767578
293;1673423454.842808;47.129006499999996;7.2383736999999995;55.91800308227539;1673423454.8447518;-18.93216323852539;7.028149604797363;-137.8790740966797
294;1673423455.0634966;47.1289971;7.238360999999999;56.31300354003906;1673423455.0664272;-20.067249298095703;5.800113677978516;-137.34292602539062
295;1673423455.2731822;47.128987599999995;7.2383481;56.71000289916992;1673423455.2761104;-20.839595794677734;3.451866865158081;-136.93141174316406
296;1673423455.4744203;47.128978;7.2383349;57.108001708984375;1673423455.4783335;-21.15620231628418;2.0364975929260254;-136.7641143798828
297;1673423455.6623504;47.1289683;7.238321699999999;57.506004333496094;1673423455.664323;-20.85578727722168;2.082237482070923;-136.79603576660156
298;1673423455.84889;47.128958499999996;7.2383082;57.90300369262695;1673423455.8518255;-20.609119415283203;3.3656880855560303;-137.0787353515625
299;1673423456.0373495;47.1289486;7.238294799999999;58.29900360107422;1673423456.0393019;-20.013906478881836;4.967859745025635;-137.18853759765625
300;1673423456.2248788;47.1289386;7.2382813;58.6930046081543;1673423456.2287831;-19.479785919189453;6.918546199798584;-137.1409454345703
301;1673423456.4193158;47.1289285;7.238267899999999;59.0880012512207;1673423456.4222434;-19.19211769104004;8.118135452270508;-137.29348754882812
302;1673423456.6263163;47.128918399999996;7.2382544;59.48600387573242;1673423456.6292443;-19.121828079223633;8.160554885864258;-137.53924560546875
303;1673423456.8305047;47.1289083;7.2382409;59.88500213623047;1673423456.8334453;-19.00910186767578;7.183445930480957;-137.28599548339844
304;1673423457.0258043;47.128898299999996;7.2382275;60.28200149536133;1673423457.0287697;-19.08802032470703;7.216536045074463;-136.97633361816406
305;1673423457.2269578;47.1288884;7.2382139;60.67900466918945;1673423457.2298863;-19.178796768188477;5.405560493469238;-136.92190551757812
306;1673423457.44865;47.1288786;7.2382003;61.0780029296875;1673423457.451581;-19.575448989868164;3.94594144821167;-136.71339416503906
307;1673423457.628327;47.1288688;7.2381867;61.47300338745117;1673423457.6312566;-19.30461311340332;3.095552444458008;-136.52841186523438
308;1673423457.8255718;47.1288591;7.2381728999999995;61.86900329589844;1673423457.8285115;-19.591711044311523;2.4232077598571777;-136.3727264404297
309;1673423458.0287535;47.1288493;7.238159199999999;62.26700210571289;1673423458.032641;-19.422574996948242;2.4284255504608154;-136.5602264404297
310;1673423458.2250292;47.1288396;7.2381455;62.66500473022461;1673423458.2289326;-19.27672576904297;3.0498201847076416;-136.9106903076172
311;1673423458.4193747;47.1288297;7.2381318;63.064002990722656;1673423458.4223027;-19.3602352142334;3.6097419261932373;-136.80584716796875
312;1673423458.6255212;47.128819899999996;7.2381180999999994;63.461002349853516;1673423458.6294227;-19.337095260620117;4.399925231933594;-136.9365692138672
313;1673423458.83063;47.128809999999994;7.2381044999999995;63.85700225830078;1673423458.833572;-19.300426483154297;5.568563461303711;-137.10760498046875
314;1673423459.042526;47.1288001;7.238091;64.2540054321289;1673423459.0454447;-19.501062393188477;6.621433734893799;-137.25782775878906
315;1673423459.2554402;47.128790099999996;7.238077499999999;64.6520004272461;1673423459.2593367;-19.445533752441406;7.384644508361816;-137.30625915527344
316;1673423459.4576669;47.1287801;7.238064;65.052001953125;1673423459.458635;-19.39215660095215;7.83684778213501;-137.3834686279297
317;1673423459.6539302;47.1287702;7.2380504;65.4520034790039;1673423459.6558876;-19.54782485961914;7.872852802276611;-137.3937225341797
318;1673423459.8755777;47.128760199999995;7.2380368;65.85200500488281;1673423459.8829482;-19.498571395874023;7.294312953948975;-137.14463806152344
319;1673423460.062085;47.1287503;7.2380233;66.2490005493164;1673423460.0660083;-19.54178810119629;7.330367565155029;-137.08035278320312
320;1673423460.2652798;47.1287405;7.2380096;66.64500427246094;1673423460.2691832;-19.56952476501465;6.9324631690979;-137.0237274169922
321;1673423460.4806848;47.1287307;7.237995799999999;67.04000091552734;1673423460.4836135;-19.683151245117188;6.387091159820557;-137.05722045898438
322;1673423460.6617808;47.1287209;7.237982;67.43400573730469;1673423460.6647124;-19.83238410949707;5.966468334197998;-137.13198852539062
323;1673423460.8492699;47.1287111;7.2379682999999995;67.8290023803711;1673423460.8531723;-19.852426528930664;5.968508720397949;-136.92796325683594
324;1673423461.0739136;47.128701199999995;7.2379546999999995;68.22600555419922;1673423461.076846;-19.723957061767578;5.504186630249023;-136.91043090820312
325;1673423461.278634;47.1286913;7.2379411;68.62100219726562;1673423461.283521;-19.849328994750977;5.522570610046387;-136.8461456298828
326;1673423461.4866173;47.1286814;7.2379275;69.01700592041016;1673423461.4885921;-19.792022705078125;5.159028053283691;-136.9678955078125
327;1673423461.6888635;47.128671499999996;7.2379139;69.41400146484375;1673423461.6917918;-20.00098991394043;5.018248081207275;-136.86756896972656
328;1673423461.8880599;47.1286616;7.2379001;69.81100463867188;1673423461.8910046;-19.767000198364258;4.365187168121338;-136.69180297851562
329;1673423462.067206;47.1286517;7.2378864;70.21000671386719;1673423462.071109;-19.82803726196289;4.316244125366211;-136.79916381835938
330;1673423462.236202;47.1286418;7.237872599999999;70.61000061035156;1673423462.2381968;-19.851823806762695;4.135039329528809;-136.7857208251953
331;1673423462.4442163;47.128631899999995;7.237858999999999;71.00900268554688;1673423462.4471447;-19.623214721679688;3.9174082279205322;-136.62518310546875
332;1673423462.6396203;47.1286219;7.237845399999999;71.4070053100586;1673423462.6425493;-19.681617736816406;4.232645511627197;-136.54754638671875
333;1673423462.8194094;47.128611899999996;7.2378319;71.8070068359375;1673423462.8233166;-19.718542098999023;4.141769886016846;-136.57359313964844
334;1673423463.01675;47.1286019;7.2378183;72.21200561523438;1673423463.020654;-19.87439727783203;4.108937740325928;-136.70431518554688
335;1673423463.220854;47.128591899999996;7.2378047;72.61600494384766;1673423463.2237854;-19.92024803161621;3.951014518737793;-136.5769805908203
336;1673423463.4250953;47.128581999999994;7.2377911;73.01700592041016;1673423463.4280198;-19.97478485107422;3.774038314819336;-136.49606323242188
337;1673423463.6242878;47.128572;7.2377774;73.41800689697266;1673423463.6291845;-19.962451934814453;3.746083974838257;-136.543212890625
338;1673423463.8372116;47.128562099999996;7.2377636999999995;73.81900024414062;1673423463.8401456;-20.045753479003906;3.595717430114746;-136.47975158691406
339;1673423464.0393426;47.128552199999994;7.2377500999999995;74.22000122070312;1673423464.0422676;-19.8312931060791;3.2422361373901367;-136.43406677246094
340;1673423464.2337215;47.1285423;7.2377365;74.62000274658203;1673423464.2376852;-19.774883270263672;3.152608871459961;-136.40054321289062
341;1673423464.438922;47.128532299999996;7.2377229;75.01900482177734;1673423464.44187;-19.704057693481445;3.4099185466766357;-136.43978881835938
342;1673423464.643011;47.1285223;7.2377093;75.41800689697266;1673423464.6478827;-19.783863067626953;3.738283634185791;-136.60923767089844
343;1673423464.8530023;47.1285124;7.2376955999999995;75.81600189208984;1673423464.8549485;-19.91636085510254;3.938347101211548;-136.68711853027344
344;1673423465.0434072;47.128502499999996;7.2376819999999995;76.21100616455078;1673423465.0453594;-19.841766357421875;4.084828853607178;-136.78419494628906
345;1673423465.245656;47.1284926;7.2376684;76.60400390625;1673423465.249561;-20.146560668945312;4.579796314239502;-136.78167724609375
346;1673423465.4389963;47.1284827;7.2376548;76.9990005493164;1673423465.4419384;-20.06975555419922;4.623533725738525;-136.7578125
347;1673423465.636283;47.128472699999996;7.237641099999999;77.39300537109375;1673423465.6382346;-19.896522521972656;5.117832183837891;-136.72152709960938
348;1673423465.8345053;47.1284627;7.237627499999999;77.79000091552734;1673423465.8364744;-19.730558395385742;5.553716659545898;-136.7506866455078
349;1673423466.0473688;47.1284527;7.2376138;78.18800354003906;1673423466.04932;-20.13412094116211;5.646340847015381;-136.81008911132812
350;1673423466.252014;47.1284427;7.2376001;78.5840072631836;1673423466.2549126;-20.6497859954834;5.18845796585083;-136.82421875
351;1673423466.4507475;47.1284328;7.237586299999999;78.98100280761719;1673423466.454645;-21.081058502197266;5.167093753814697;-136.947265625
352;1673423466.652923;47.1284229;7.2375725;79.37700653076172;1673423466.6558518;-20.743301391601562;5.3898539543151855;-137.08639526367188
353;1673423466.8561437;47.1284129;7.237558699999999;79.77300262451172;1673423466.858094;-19.72988510131836;5.43937349319458;-137.01658630371094
354;1673423467.0485108;47.128403;7.237545;80.17100524902344;1673423467.0534332;-19.066102981567383;5.456284999847412;-136.95867919921875
355;1673423467.2292833;47.1283931;7.2375313;80.57200622558594;1673423467.2322118;-18.9068546295166;5.1031174659729;-136.88111877441406
356;1673423467.4432669;47.128383199999995;7.237517599999999;80.97200012207031;1673423467.4462068;-19.442293167114258;5.078600883483887;-136.8752899169922
357;1673423467.6337523;47.1283733;7.2375039;81.3740005493164;1673423467.635717;-20.48499870300293;5.1281657218933105;-136.9087371826172
358;1673423467.8242505;47.1283634;7.237490299999999;81.7760009765625;1673423467.8281405;-21.10906410217285;5.206513404846191;-136.94525146484375
359;1673423468.027361;47.1283536;7.237476699999999;82.1760025024414;1673423468.031275;-20.50296401977539;5.22615909576416;-136.97744750976562
360;1673423468.2285104;47.128343699999995;7.237463;82.5770034790039;1673423468.2314396;-19.832387924194336;5.443623065948486;-137.0232696533203
361;1673423468.449274;47.1283338;7.2374493;82.9800033569336;1673423468.453169;-19.10318946838379;5.35667610168457;-136.95606994628906
362;1673423468.651388;47.1283238;7.2374355999999995;83.38400268554688;1673423468.6533406;-18.73128318786621;5.265335559844971;-136.8293914794922
363;1673423468.874135;47.128313999999996;7.237422;83.78300476074219;1673423468.8770611;-19.855690002441406;5.055004596710205;-136.90370178222656
364;1673423469.0469708;47.1283041;7.237408299999999;84.18000030517578;1673423469.0499003;-20.64848518371582;5.067474365234375;-136.96737670898438
365;1673423469.236451;47.1282942;7.237394699999999;84.5780029296875;1673423469.2399342;-21.17192840576172;5.223964691162109;-137.0117645263672
366;1673423469.4376576;47.1282843;7.237381;84.97700500488281;1673423469.4405837;-20.616966247558594;5.335035800933838;-136.9841766357422
367;1673423469.6329548;47.128274499999996;7.237367399999999;85.3740005493164;1673423469.6368582;-19.712543487548828;5.306225776672363;-136.92344665527344
368;1673423469.8487506;47.1282646;7.2373537;85.76900482177734;1673423469.8516786;-19.17142105102539;5.278227806091309;-136.9718475341797
369;1673423470.0469856;47.1282547;7.23734;86.16000366210938;1673423470.0508971;-18.893939971923828;5.179142951965332;-136.96461486816406
370;1673423470.237407;47.1282448;7.2373264;86.552001953125;1673423470.2403655;-19.454336166381836;5.109491348266602;-136.9921875
371;1673423470.4366426;47.1282348;7.2373126999999995;86.94900512695312;1673423470.4385936;-20.449722290039062;5.017873287200928;-137.0079803466797
372;1673423470.6319747;47.1282249;7.2372990999999995;87.34700775146484;1673423470.6358871;-20.906091690063477;5.208517551422119;-137.00588989257812
373;1673423470.8341062;47.1282151;7.2372855;87.74700164794922;1673423470.837034;-20.565303802490234;5.344046592712402;-136.96768188476562
374;1673423471.0411332;47.1282052;7.2372719;88.14900207519531;1673423471.0440505;-19.90814781188965;5.409176349639893;-136.98971557617188
375;1673423471.2374876;47.128195299999994;7.2372583;88.54900360107422;1673423471.240942;-19.120140075683594;5.411548614501953;-137.0356903076172
376;1673423471.4396722;47.1281854;7.2372447;88.94800567626953;1673423471.4426148;-19.004390716552734;5.046974182128906;-136.88812255859375
377;1673423471.644739;47.1281755;7.2372311;89.35000610351562;1673423471.6486433;-19.657386779785156;4.982500076293945;-136.89886474609375
378;1673423471.830272;47.128165599999996;7.237217599999999;89.75000762939453;1673423471.8322272;-20.665206909179688;5.178730487823486;-136.94573974609375
379;1673423472.01681;47.1281557;7.237203999999999;90.14800262451172;1673423472.0187616;-21.44825553894043;5.196839809417725;-136.99574279785156
380;1673423472.2130985;47.1281458;7.237190399999999;90.54300689697266;1673423472.2150316;-20.691614151000977;5.341977119445801;-137.0374298095703
381;1673423472.4308987;47.1281359;7.237176799999999;90.93900299072266;1673423472.4338121;-20.032779693603516;5.4182233810424805;-136.98048400878906
382;1673423472.6438363;47.128125999999995;7.2371631999999995;91.33200073242188;1673423472.646768;-19.424272537231445;5.435818672180176;-136.95840454101562
383;1673423472.834278;47.128116;7.237149499999999;91.72500610351562;1673423472.8391585;-18.995342254638672;5.184932708740234;-136.88204956054688
384;1673423473.045192;47.128105999999995;7.2371358;92.12100219726562;1673423473.0481226;-19.459253311157227;5.063776969909668;-136.8828887939453
385;1673423473.2493289;47.1280961;7.2371222;92.51600646972656;1673423473.252257;-20.31505012512207;5.053970813751221;-136.93191528320312
386;1673423473.4407325;47.1280862;7.2371086;92.91400146484375;1673423473.4446363;-21.246349334716797;4.976511001586914;-136.98594665527344
387;1673423473.635057;47.1280763;7.237095;93.31100463867188;1673423473.6389604;-20.799589157104492;5.127501010894775;-137.0353546142578
388;1673423473.8479173;47.128066399999994;7.2370813;93.70600128173828;1673423473.8508513;-19.92257308959961;5.169230937957764;-137.05897521972656
389;1673423474.0422413;47.1280565;7.2370677;94.10000610351562;1673423474.045176;-19.384441375732422;5.147461414337158;-136.91458129882812
390;1673423474.2420332;47.128046499999996;7.237054;94.49400329589844;1673423474.244961;-18.737367630004883;4.94199800491333;-136.85122680664062
391;1673423474.4339201;47.1280365;7.2370404;94.88700103759766;1673423474.4387858;-19.337726593017578;4.854352951049805;-136.8952178955078
392;1673423474.6428614;47.1280265;7.2370269;95.27700805664062;1673423474.6458108;-20.19731903076172;4.82290506362915;-136.91470336914062
393;1673423474.8498988;47.128016599999995;7.2370133;95.66800689697266;1673423474.8528337;-21.11025619506836;5.055732250213623;-136.962890625
394;1673423475.0461738;47.1280066;7.2369997999999995;96.06200408935547;1673423475.0491183;-20.80474281311035;5.123979091644287;-136.9832000732422
395;1673423475.2415228;47.1279967;7.2369862;96.45600128173828;1673423475.2444692;-20.060041427612305;5.381185531616211;-136.93246459960938
396;1673423475.4641564;47.1279867;7.2369727;96.85100555419922;1673423475.4680605;-18.92923927307129;5.371272087097168;-136.8684539794922
397;1673423475.6614144;47.1279767;7.2369591;97.25100708007812;1673423475.6633658;-18.713054656982422;5.190929412841797;-136.73873901367188
398;1673423475.8508759;47.127966699999995;7.2369454;97.65200805664062;1673423475.8538046;-19.315963745117188;5.0110931396484375;-136.82373046875
399;1673423476.0589085;47.1279567;7.2369318;98.0530014038086;1673423476.0618343;-19.95480728149414;5.041661262512207;-136.9191131591797
400;1673423476.265535;47.127946699999995;7.2369181;98.4530029296875;1673423476.268464;-20.817947387695312;5.015997409820557;-136.9621124267578
401;1673423476.4672174;47.1279368;7.2369045;98.85100555419922;1673423476.4681766;-20.514436721801758;5.314538955688477;-137.00672912597656
402;1673423476.6488676;47.1279268;7.236891;99.24700164794922;1673423476.6518111;-19.887805938720703;5.482962608337402;-136.99168395996094
403;1673423476.8432574;47.127916899999995;7.2368774;99.64600372314453;1673423476.8442376;-18.683568954467773;5.459888458251953;-136.83120727539062
404;1673423477.0522213;47.127907;7.2368638;100.04600524902344;1673423477.0551493;-18.73886489868164;4.9949049949646;-136.70603942871094
405;1673423477.2612247;47.1278971;7.236850199999999;100.44800567626953;1673423477.2651274;-19.384260177612305;4.96665620803833;-136.7602081298828
406;1673423477.4702098;47.127887099999995;7.236836599999999;100.84800720214844;1673423477.4750748;-19.995677947998047;4.9556803703308105;-136.8177032470703
407;1673423477.6547637;47.1278772;7.236822999999999;101.24600219726562;1673423477.6576924;-20.82036590576172;5.04489803314209;-136.93621826171875
408;1673423477.8628335;47.1278673;7.2368095;101.64200592041016;1673423477.86577;-20.953107833862305;5.285084247589111;-136.9508514404297
409;1673423478.0513234;47.127857299999995;7.2367959;102.03800201416016;1673423478.0532758;-20.107852935791016;5.450901985168457;-136.95925903320312
410;1673423478.260372;47.1278474;7.2367823;102.43500518798828;1673423478.2652597;-19.167531967163086;5.489393711090088;-136.92437744140625
411;1673423478.464448;47.1278375;7.2367685999999996;102.8340072631836;1673423478.4673753;-18.555509567260742;4.9461283683776855;-136.80715942382812
412;1673423478.6519341;47.127827599999996;7.236755;103.23100280761719;1673423478.6548634;-18.967418670654297;4.946407794952393;-136.7027130126953
413;1673423478.857009;47.1278176;7.236741299999999;103.6300048828125;1673423478.8609247;-19.94569206237793;4.810153961181641;-136.76255798339844
414;1673423479.0396197;47.1278077;7.236727699999999;104.0300064086914;1673423479.0425475;-20.74168586730957;5.015573501586914;-136.87351989746094
415;1673423479.2301023;47.127797699999995;7.2367140999999995;104.4280014038086;1673423479.233003;-20.897748947143555;5.225579261779785;-136.96951293945312
416;1673423479.421561;47.1277879;7.2367004999999995;104.82400512695312;1673423479.4254754;-20.156692504882812;5.44290018081665;-136.96360778808594
