;pos_time;latitude;longitude;altitude;alt_time;pitch;roll;yaw
0;1673425146.0167704;47.1306425;7.2406201999999995;0.009000000543892384;1673425146.0846465;-0.07005155831575394;0.30734506249427795;90.12077331542969
1;1673425146.24518;47.1306425;7.2406201999999995;0.010000000707805157;1673425146.311799;-0.0983036458492279;-0.18995192646980286;90.1628189086914
2;1673425146.4214077;47.1306425;7.2406201999999995;0.006000000052154064;1673425146.4903667;-0.34388571977615356;-0.5008083581924438;90.36978912353516
3;1673425146.5970118;47.1306425;7.2406203;0.004000000189989805;1673425146.666914;-0.2537870407104492;-0.18133845925331116;90.30632019042969
4;1673425146.799564;47.1306425;7.2406204;0.0020000000949949026;1673425146.8849275;-0.10923423618078232;-0.3315069079399109;90.39222717285156
5;1673425147.0130231;47.1306424;7.2406203;0.0020000000949949026;1673425147.0921957;-0.11783948540687561;-0.26789477467536926;90.4339370727539
6;1673425147.2052386;47.1306424;7.2406201999999995;0.0;1673425147.2792838;-0.17807838320732117;-0.10643284767866135;90.32967376708984
7;1673425147.3986058;47.1306423;7.2406201999999995;-0.004000000189989805;1673425147.4705298;-0.1120966300368309;-0.21415773034095764;90.21224975585938
8;1673425147.5930269;47.1306424;7.2406201999999995;-0.007000000216066837;1673425147.664854;0.03655168041586876;-0.309845507144928;90.26312255859375
9;1673425147.7858095;47.1306424;7.2406201999999995;-0.009000000543892384;1673425147.8537383;-0.2701592445373535;-0.24167539179325104;90.37948608398438
10;1673425147.9931295;47.1306424;7.2406201999999995;-0.007000000216066837;1673425148.066673;-0.25432655215263367;-0.20488040149211884;90.29727935791016
11;1673425148.1949997;47.1306424;7.2406201;-0.00800000037997961;1673425148.2649808;-0.4041365087032318;-0.3225952982902527;90.39151000976562
12;1673425148.3933952;47.1306424;7.2406201;-0.009000000543892384;1673425148.4630466;-0.34340712428092957;-0.11599628627300262;90.31481170654297
13;1673425148.6002996;47.1306424;7.2406201999999995;-0.010000000707805157;1673425148.6690285;-0.15116523206233978;-0.24038779735565186;90.30062866210938
14;1673425148.8013887;47.1306424;7.2406201;0.0;1673425148.879254;-0.08811774104833603;-1.437155842781067;90.24092864990234
15;1673425148.9924035;47.1306424;7.2406201;0.0;1673425149.0649931;-0.2867881953716278;-0.9404212832450867;90.53201293945312
16;1673425149.202324;47.1306424;7.2406201;0.0010000000474974513;1673425149.2593992;-0.40180104970932007;-1.0613915920257568;90.51438903808594
17;1673425149.3977578;47.1306423;7.2406201;0.004000000189989805;1673425149.4837015;0.004319187253713608;-0.9572286605834961;90.33500671386719
18;1673425149.6025481;47.1306423;7.2406201;0.00800000037997961;1673425149.6731381;-0.3061108887195587;-1.1087133884429932;90.39408111572266
19;1673425149.794004;47.1306424;7.2406201;0.01100000087171793;1673425149.8667672;-0.022346029058098793;-1.1111981868743896;90.42496490478516
20;1673425149.9885185;47.1306424;7.2406201999999995;0.010000000707805157;1673425150.0682788;-0.031248699873685837;-1.6881673336029053;90.5619888305664
21;1673425150.192847;47.1306424;7.2406201;0.0;1673425150.2628546;-0.1713617891073227;-1.446609616279602;90.56383514404297
22;1673425150.3944132;47.1306424;7.2406201;0.0020000000949949026;1673425150.4629085;0.035219285637140274;-1.0160105228424072;90.56049346923828
23;1673425150.5795894;47.1306425;7.24062;0.0010000000474974513;1673425150.6474783;-0.14925582706928253;-1.0137971639633179;90.7432861328125
24;1673425150.7798767;47.1306425;7.24062;0.003000000026077032;1673425150.8606236;-0.2941514849662781;-0.4856375753879547;90.53863525390625
25;1673425150.9908636;47.1306425;7.2406198999999996;0.004000000189989805;1673425151.0705402;-0.09519489854574203;-0.6455360054969788;90.54999542236328
26;1673425151.2128396;47.1306425;7.240619799999999;0.0020000000949949026;1673425151.2834957;-0.17156581580638885;-0.7300776243209839;90.70526123046875
27;1673425151.406099;47.130642599999995;7.2406197;-0.0010000000474974513;1673425151.4860895;-0.3935549557209015;-0.9092676043510437;90.71051788330078
28;1673425151.6041377;47.130642599999995;7.240619799999999;-0.0020000000949949026;1673425151.679839;-0.13953101634979248;-0.6400703191757202;91.0933837890625
29;1673425151.7992122;47.130642699999996;7.240619799999999;-0.005000000353902578;1673425151.8754272;-0.536757230758667;-0.5893082618713379;92.04842376708984
30;1673425152.0191863;47.130643;7.240619799999999;-0.006000000052154064;1673425152.0871701;-0.02445906586945057;0.16252322494983673;95.25222778320312
31;1673425152.1951616;47.1306434;7.24062;0.0;1673425152.266795;-0.1627873033285141;3.0814027786254883;101.45806884765625
32;1673425152.394579;47.1306442;7.2406201999999995;0.009000000543892384;1673425152.466453;-0.8464345932006836;8.492795944213867;108.21119689941406
33;1673425152.5947871;47.1306453;7.2406203;0.020000001415610313;1673425152.6647768;-3.560267448425293;13.372065544128418;109.0405502319336
34;1673425152.7973347;47.1306465;7.2406204999999995;0.03700000047683716;1673425152.875114;-2.4521689414978027;15.741233825683594;105.2677993774414
35;1673425152.9973087;47.1306479;7.2406209;0.0650000050663948;1673425153.0737216;-1.3466248512268066;17.456266403198242;102.05599212646484
36;1673425153.216834;47.1306492;7.240621399999999;0.11100000888109207;1673425153.2932336;-0.20115715265274048;19.623714447021484;99.49961853027344
37;1673425153.4098327;47.1306504;7.2406219;0.17500001192092896;1673425153.482719;0.8206248879432678;21.100618362426758;97.46517181396484
38;1673425153.609217;47.1306513;7.2406223999999995;0.25300002098083496;1673425153.683973;2.0655899047851562;22.823928833007812;95.87924194335938
39;1673425153.8326638;47.1306519;7.2406228;0.34200000762939453;1673425153.9042804;3.052783250808716;24.715774536132812;94.56913757324219
40;1673425154.0436387;47.1306522;7.2406231;0.4540000259876251;1673425154.1151063;4.109470367431641;26.48784828186035;93.51253509521484
41;1673425154.2322073;47.1306519;7.2406232;0.5800000429153442;1673425154.3035061;5.205720901489258;28.21782112121582;92.59904479980469
42;1673425154.4191856;47.130651099999994;7.240622999999999;0.7220000624656677;1673425154.4918394;5.657480716705322;27.808259963989258;91.73471069335938
43;1673425154.6165738;47.1306497;7.2406226;0.8800000548362732;1673425154.6896296;5.481371879577637;25.243223190307617;90.93966674804688
44;1673425154.8100774;47.130648099999995;7.2406222;1.0520000457763672;1673425154.8836355;4.894744873046875;21.870853424072266;90.24664306640625
45;1673425155.0161953;47.130646299999995;7.2406216;1.2350000143051147;1673425155.0960326;4.294634819030762;17.94217300415039;89.71232604980469
46;1673425155.2486715;47.1306447;7.240621;1.4190000295639038;1673425155.3076563;3.700920343399048;17.014495849609375;89.07357788085938
47;1673425155.423743;47.130643199999994;7.2406204999999995;1.6100001335144043;1673425155.4956157;3.075730562210083;14.260457992553711;90.59312438964844
48;1673425155.6139998;47.1306422;7.2406201;1.8040001392364502;1673425155.6850276;3.0329973697662354;10.609856605529785;89.69293212890625
49;1673425155.812817;47.1306417;7.240619799999999;2.0;1673425155.884177;3.1502668857574463;14.072827339172363;89.01292419433594
50;1673425156.0024917;47.130641499999996;7.2406197;2.196000099182129;1673425156.0801244;3.5750246047973633;15.838112831115723;88.4739761352539
51;1673425156.2051108;47.1306416;7.2406196;2.3910000324249268;1673425156.2858143;4.092672824859619;13.794102668762207;87.99032592773438
52;1673425156.4017878;47.1306419;7.2406197;2.5850000381469727;1673425156.4701047;4.407827377319336;17.254718780517578;87.62762451171875
53;1673425156.591988;47.1306422;7.2406197;2.7720000743865967;1673425156.6720467;4.500572681427002;19.873674392700195;87.32147216796875
54;1673425156.8016667;47.1306425;7.240619799999999;2.9700000286102295;1673425156.8769248;4.839583873748779;17.72014617919922;87.54674530029297
55;1673425156.9959428;47.130643;7.2406198999999996;3.181000232696533;1673425157.0725951;4.88311767578125;19.309810638427734;87.72586822509766
56;1673425157.2095232;47.130643199999994;7.24062;3.389000177383423;1673425157.291665;5.16290283203125;22.24355125427246;87.72456359863281
57;1673425157.416899;47.130643299999996;7.2406201;3.5920002460479736;1673425157.4908142;5.128790378570557;18.550344467163086;87.64747619628906
58;1673425157.6028068;47.130643299999996;7.2406201999999995;3.7950000762939453;1673425157.6763396;5.152235507965088;17.905086517333984;87.7193374633789
59;1673425157.8000257;47.130643199999994;7.2406201999999995;3.995000123977661;1673425157.878367;5.17830228805542;20.76223373413086;87.69624328613281
60;1673425158.0180686;47.1306431;7.2406203;4.201000213623047;1673425158.092017;5.274458885192871;19.33673095703125;87.78479766845703
61;1673425158.2073631;47.1306431;7.2406204;4.4070000648498535;1673425158.2787466;5.049466133117676;16.79024887084961;87.72953796386719
62;1673425158.4082124;47.130643;7.2406204;4.617000102996826;1673425158.4742696;5.220944881439209;20.017637252807617;87.7567138671875
63;1673425158.597145;47.1306429;7.2406204999999995;4.817000389099121;1673425158.6636298;5.24225378036499;19.04873275756836;87.7384033203125
64;1673425158.8029096;47.1306428;7.2406204999999995;5.010000228881836;1673425158.8797505;5.143930912017822;16.37395477294922;87.65650177001953
65;1673425159.0015087;47.130642699999996;7.2406204999999995;5.205000400543213;1673425159.080147;4.871886253356934;18.46265983581543;87.82820129394531
66;1673425159.1992085;47.130642599999995;7.2406204999999995;5.401000022888184;1673425159.2770798;4.920337200164795;19.466184616088867;87.73572540283203
67;1673425159.4011822;47.130642599999995;7.2406204999999995;5.604000091552734;1673425159.4755769;5.0082879066467285;17.218669891357422;87.76283264160156
68;1673425159.5961914;47.130642599999995;7.2406204999999995;5.805000305175781;1673425159.670114;4.9731550216674805;17.60765266418457;87.72496032714844
69;1673425159.8134358;47.130642699999996;7.2406204;6.004000186920166;1673425159.8916042;4.905348300933838;20.435251235961914;87.72139739990234
70;1673425160.021348;47.130642599999995;7.2406204;6.204000473022461;1673425160.0976865;4.972799777984619;17.665597915649414;87.86116790771484
71;1673425160.2176645;47.130642599999995;7.2406204;6.4110002517700195;1673425160.289606;4.772562503814697;17.16876792907715;87.89836120605469
72;1673425160.4109523;47.130642599999995;7.2406204;6.613000392913818;1673425160.4789994;4.9541215896606445;20.294876098632812;87.72162628173828
73;1673425160.6113355;47.130642599999995;7.2406204;6.816000461578369;1673425160.6960113;4.906582355499268;18.50864601135254;87.73505401611328
74;1673425160.8275437;47.130642699999996;7.2406204;7.021000385284424;1673425160.9010055;4.828499794006348;16.668659210205078;87.76473236083984
75;1673425161.039047;47.1306428;7.2406204;7.223000526428223;1673425161.107692;5.008975028991699;20.19632911682129;87.7539291381836
76;1673425161.2167983;47.130642699999996;7.2406204;7.419000148773193;1673425161.2792957;4.940644264221191;19.336999893188477;87.83197784423828
77;1673425161.395908;47.130642699999996;7.2406204;7.618000507354736;1673425161.4684446;4.812618255615234;16.650821685791016;87.65443420410156
78;1673425161.5930862;47.130642699999996;7.2406204;7.816000461578369;1673425161.6687949;4.855427265167236;19.37872886657715;87.77694702148438
79;1673425161.808748;47.130642599999995;7.2406204;8.016000747680664;1673425161.8885596;4.945155143737793;19.97764015197754;87.74248504638672
80;1673425162.0307827;47.130642699999996;7.2406204;8.218000411987305;1673425162.105958;4.979774475097656;17.177839279174805;87.75067901611328
81;1673425162.2236426;47.1306428;7.2406204;8.419000625610352;1673425162.294789;4.875244140625;18.65082550048828;87.7826156616211
82;1673425162.413585;47.1306429;7.2406204999999995;8.616000175476074;1673425162.484999;4.942300796508789;20.542211532592773;87.77034759521484
83;1673425162.6275148;47.1306428;7.2406204999999995;8.8100004196167;1673425162.6960235;4.967443466186523;17.643280029296875;87.79500579833984
84;1673425162.8265858;47.1306429;7.2406204999999995;9.008000373840332;1673425162.8995602;4.920748710632324;17.411609649658203;87.84169006347656
85;1673425163.0289843;47.1306429;7.2406204999999995;9.206000328063965;1673425163.1043613;5.022965908050537;20.120243072509766;87.71932983398438
86;1673425163.2288458;47.1306429;7.2406204999999995;9.404000282287598;1673425163.292333;5.133979797363281;18.928369522094727;87.86299896240234
87;1673425163.4045022;47.130643;7.2406206;9.604000091552734;1673425163.4960403;5.175361633300781;16.68220329284668;87.80242156982422
88;1673425163.6204424;47.130643;7.2406207;9.803000450134277;1673425163.691308;5.122536659240723;20.466352462768555;87.7890625
89;1673425163.828833;47.1306429;7.2406207;9.998000144958496;1673425163.8998506;5.240248680114746;19.331497192382812;87.75634002685547
90;1673425164.0304236;47.1306429;7.2406207;10.205000877380371;1673425164.096522;5.021281719207764;15.83469009399414;87.79949188232422
91;1673425164.2127001;47.130642699999996;7.2406206;10.5260009765625;1673425164.2761276;5.074219703674316;20.06954574584961;88.17318725585938
92;1673425164.407895;47.1306424;7.2406206;10.897000312805176;1673425164.4835367;5.162714958190918;21.54707908630371;87.94572448730469
93;1673425164.6050365;47.130641999999995;7.2406204999999995;11.288000106811523;1673425164.6760547;4.856204986572266;17.571292877197266;87.80561828613281
94;1673425164.8158813;47.1306417;7.2406203;11.6850004196167;1673425164.8856812;4.70591926574707;16.5894718170166;87.76068115234375
95;1673425165.010094;47.130641399999995;7.2406203;12.087000846862793;1673425165.0833406;4.726653099060059;18.579931259155273;87.74903869628906
96;1673425165.2063606;47.1306412;7.2406201999999995;12.492000579833984;1673425165.2835243;4.6322479248046875;15.739828109741211;87.80328369140625
97;1673425165.4093273;47.130641;7.2406203;12.90000057220459;1673425165.4831605;4.628763675689697;14.635887145996094;87.75044250488281
98;1673425165.6134758;47.130641;7.2406201999999995;13.300000190734863;1673425165.6912;4.744194507598877;17.92624282836914;87.67626190185547
99;1673425165.7969482;47.1306411;7.2406201999999995;13.696001052856445;1673425165.8672755;4.9612627029418945;17.217357635498047;87.7837142944336
100;1673425165.9954844;47.1306413;7.2406201999999995;14.090001106262207;1673425166.0723116;4.763447284698486;15.576767921447754;87.85192108154297
101;1673425166.200078;47.1306416;7.2406201999999995;14.482000350952148;1673425166.276825;4.760155200958252;19.11942481994629;87.74456024169922
102;1673425166.3943052;47.1306419;7.2406201999999995;14.867000579833984;1673425166.4633353;5.064260959625244;19.189918518066406;87.71887969970703
103;1673425166.5927155;47.130641999999995;7.2406201999999995;15.255001068115234;1673425166.6724644;4.938832759857178;17.396591186523438;87.76461791992188
104;1673425166.796016;47.130642099999996;7.2406201;15.63900089263916;1673425166.8749673;4.898713111877441;18.849355697631836;87.813720703125
105;1673425166.9953437;47.130642099999996;7.2406201;16.027999877929688;1673425167.0770242;4.7517409324646;20.03775978088379;87.77883911132812
106;1673425167.204659;47.130642099999996;7.2406201;16.420000076293945;1673425167.2834082;4.76943302154541;17.255285263061523;87.84574890136719
107;1673425167.4138446;47.130642099999996;7.24062;16.817001342773438;1673425167.4916885;4.692890167236328;17.094209671020508;87.81233215332031
108;1673425167.6180763;47.130641999999995;7.24062;17.214000701904297;1673425167.692774;4.780782699584961;20.079784393310547;87.8316879272461
109;1673425167.813646;47.1306419;7.24062;17.610000610351562;1673425167.89332;4.793228626251221;16.915382385253906;87.72607421875
110;1673425168.021115;47.1306419;7.24062;18.00800132751465;1673425168.0934854;4.788216590881348;16.247228622436523;87.72535705566406
111;1673425168.2200217;47.1306418;7.2406198999999996;18.39900016784668;1673425168.2924767;4.769950866699219;18.792383193969727;87.75664520263672
112;1673425168.418192;47.1306419;7.2406198999999996;18.791000366210938;1673425168.4900022;4.714995861053467;18.259567260742188;87.79769134521484
113;1673425168.6146984;47.130641999999995;7.2406198999999996;19.18800163269043;1673425168.6948144;4.6305131912231445;16.187219619750977;87.7603530883789
114;1673425168.8244712;47.130642099999996;7.2406198999999996;19.58300018310547;1673425168.8986328;4.875041484832764;18.832117080688477;87.78690338134766
115;1673425169.02583;47.130642099999996;7.2406198999999996;19.974000930786133;1673425169.1044464;4.870567321777344;19.23332405090332;87.85401916503906
116;1673425169.2564342;47.130642099999996;7.24062;20.36600112915039;1673425169.3209918;4.843691349029541;16.391603469848633;87.73759460449219
117;1673425169.4471397;47.130642099999996;7.24062;20.755001068115234;1673425169.5181174;4.9670796394348145;18.05278205871582;87.73695373535156
118;1673425169.6336963;47.130642099999996;7.24062;21.14900016784668;1673425169.7083163;5.068212985992432;18.89555549621582;87.73033905029297
119;1673425169.8222277;47.130642099999996;7.24062;21.553001403808594;1673425169.8873005;4.883040428161621;17.945573806762695;87.87421417236328
120;1673425170.0099704;47.1306423;7.2406198999999996;21.951000213623047;1673425170.0866294;4.868142127990723;16.865638732910156;87.8215103149414
121;1673425170.2064679;47.1306423;7.2406198999999996;22.350000381469727;1673425170.2792728;4.879378795623779;19.836645126342773;87.65467071533203
122;1673425170.4018433;47.1306423;7.2406198999999996;22.748001098632812;1673425170.4807673;4.945408821105957;17.978878021240234;87.7452392578125
123;1673425170.6202312;47.1306424;7.2406198999999996;23.1460018157959;1673425170.6958864;4.693387031555176;16.781862258911133;87.87603759765625
124;1673425170.8484046;47.1306423;7.2406198999999996;23.53700065612793;1673425170.9190893;4.850282669067383;19.239421844482422;87.82772064208984
125;1673425171.0397515;47.1306423;7.2406198999999996;23.93000030517578;1673425171.120106;4.914875507354736;18.52072525024414;87.74784851074219
126;1673425171.240922;47.1306424;7.2406198999999996;24.32900047302246;1673425171.3224955;4.9498467445373535;16.72771644592285;87.78501892089844
127;1673425171.4605463;47.1306425;7.2406198999999996;24.726001739501953;1673425171.5280106;4.933526515960693;18.593521118164062;87.71658325195312
128;1673425171.6284137;47.1306425;7.2406198999999996;25.121000289916992;1673425171.7068393;4.917860507965088;19.84608268737793;87.7197494506836
129;1673425171.8258283;47.1306425;7.2406198999999996;25.523000717163086;1673425171.9036686;4.773126602172852;16.803007125854492;87.80353546142578
130;1673425172.0245633;47.1306425;7.2406198999999996;25.918001174926758;1673425172.0963566;4.919209003448486;17.81630516052246;87.84907531738281
131;1673425172.2209914;47.1306424;7.2406198999999996;26.314001083374023;1673425172.291522;5.0033063888549805;19.340978622436523;87.74745178222656
132;1673425172.4135277;47.1306424;7.2406198999999996;26.711000442504883;1673425172.4942613;5.01723575592041;17.2619571685791;87.789794921875
133;1673425172.6052032;47.1306425;7.2406198999999996;27.115001678466797;1673425172.6770337;4.774258613586426;17.329505920410156;87.8382339477539
134;1673425172.7996051;47.130642599999995;7.2406198999999996;27.514001846313477;1673425172.8752725;5.000800609588623;19.99942398071289;87.82828521728516
135;1673425173.007738;47.130642599999995;7.2406198999999996;27.913002014160156;1673425173.1030526;4.872148513793945;18.198787689208984;87.74962615966797
136;1673425173.2332525;47.130642599999995;7.2406198999999996;28.310001373291016;1673425173.3121207;4.874069690704346;16.893402099609375;87.71562957763672
137;1673425173.425932;47.1306425;7.2406198999999996;28.69900131225586;1673425173.5114424;5.029610633850098;19.340219497680664;87.70537567138672
138;1673425173.6542482;47.1306425;7.2406198999999996;29.090002059936523;1673425173.7194166;4.925960540771484;18.81397819519043;87.76959228515625
139;1673425173.8651185;47.1306425;7.2406198999999996;29.48600196838379;1673425173.9446247;4.865176677703857;16.91122817993164;87.88374328613281
140;1673425174.0751743;47.130642599999995;7.2406198999999996;29.88300132751465;1673425174.1369653;4.833252429962158;18.621191024780273;87.70067596435547
141;1673425174.2553685;47.130642599999995;7.2406198999999996;30.279001235961914;1673425174.3290086;5.040155410766602;19.478317260742188;87.74993133544922
142;1673425174.4550076;47.1306425;7.2406198999999996;30.673002243041992;1673425174.5273845;4.831284999847412;16.78618049621582;87.80406188964844
143;1673425174.649103;47.1306425;7.2406198999999996;31.06100082397461;1673425174.7254405;4.682886123657227;17.64381217956543;87.83062744140625
144;1673425174.8491995;47.1306424;7.2406198999999996;31.455001831054688;1673425174.922307;4.952792167663574;19.250484466552734;87.68859100341797
145;1673425175.0445116;47.1306424;7.24062;31.85500144958496;1673425175.1174388;5.062112808227539;17.714200973510742;87.77326965332031
146;1673425175.2422528;47.1306424;7.24062;32.255001068115234;1673425175.306303;4.957065105438232;17.027877807617188;87.86376190185547
147;1673425175.4271996;47.1306425;7.24062;32.65299987792969;1673425175.503989;4.856905937194824;19.653982162475586;87.7654800415039
148;1673425175.6216545;47.1306425;7.24062;33.04800033569336;1673425175.688568;5.03974723815918;18.42865562438965;87.74431610107422
149;1673425175.817189;47.1306425;7.24062;33.44900131225586;1673425175.9097981;4.807258605957031;16.62103271484375;87.77608489990234
150;1673425176.0303054;47.1306425;7.24062;33.84300231933594;1673425176.0960667;5.027651786804199;18.79010581970215;87.82159423828125
151;1673425176.2074025;47.1306425;7.2406201;34.2390022277832;1673425176.273807;5.072344779968262;18.9757080078125;87.79844665527344
152;1673425176.396523;47.1306425;7.2406201;34.643001556396484;1673425176.471677;4.998182773590088;16.31192970275879;87.780517578125
153;1673425176.5995657;47.1306425;7.2406201;35.047000885009766;1673425176.6850185;4.968966960906982;17.352020263671875;87.65121459960938
154;1673425176.8256335;47.130642599999995;7.2406201;35.44900131225586;1673425176.8997128;4.975918292999268;20.28752326965332;87.75605010986328
155;1673425177.0205712;47.130642599999995;7.2406201;35.85000228881836;1673425177.0924332;5.026525497436523;16.80488395690918;87.73117065429688
156;1673425177.2130291;47.130642599999995;7.2406201;36.24400329589844;1673425177.2936554;4.824529647827148;17.58214569091797;87.84333801269531
157;1673425177.4094155;47.130642599999995;7.2406201;36.64500045776367;1673425177.4832122;4.81450891494751;20.09866714477539;87.85374450683594
158;1673425177.6116097;47.130642599999995;7.2406201;37.04800033569336;1673425177.6873267;4.985922336578369;17.738893508911133;87.74813079833984
159;1673425177.8140762;47.130642699999996;7.2406201;37.45800018310547;1673425177.884597;4.702650547027588;16.925172805786133;87.72529602050781
160;1673425178.019941;47.1306428;7.2406201;37.86600112915039;1673425178.0909078;4.76167631149292;19.99296760559082;87.87260437011719
161;1673425178.2107275;47.1306428;7.2406201;38.268001556396484;1673425178.274292;4.938636302947998;18.806612014770508;87.82274627685547
162;1673425178.3917267;47.130642699999996;7.2406201;38.67100143432617;1673425178.4822042;5.028374671936035;16.396774291992188;87.70863342285156
163;1673425178.6216848;47.130642699999996;7.2406201999999995;39.06500244140625;1673425178.6996474;5.012422561645508;19.21036720275879;87.7015151977539
164;1673425178.8290873;47.130642599999995;7.2406201999999995;39.46000289916992;1673425178.9035516;5.040619850158691;19.11673927307129;87.72014617919922
165;1673425179.0249407;47.130642699999996;7.2406201999999995;39.861000061035156;1673425179.091345;5.028064250946045;16.28462028503418;87.80524444580078
166;1673425179.2112792;47.1306428;7.2406201999999995;40.2650032043457;1673425179.2879932;4.976198673248291;18.02967643737793;87.82563781738281
167;1673425179.4127421;47.1306428;7.2406201999999995;40.669002532958984;1673425179.4894464;5.080249786376953;20.3028507232666;87.77035522460938
168;1673425179.6118555;47.1306428;7.2406201999999995;41.073001861572266;1673425179.6911302;4.906735420227051;17.059457778930664;87.69120788574219
169;1673425179.8226464;47.130642699999996;7.2406201;41.46900177001953;1673425179.9137518;4.8368611335754395;17.219602584838867;87.78536224365234
170;1673425180.0452073;47.130642699999996;7.2406201;41.868003845214844;1673425180.1199243;4.956113338470459;19.8155460357666;87.83391571044922
171;1673425180.2466505;47.130642699999996;7.2406201999999995;42.27300262451172;1673425180.3258467;5.143828868865967;18.172388076782227;87.77977752685547
172;1673425180.4432611;47.130642699999996;7.2406201999999995;42.682003021240234;1673425180.5152416;5.0439300537109375;16.53424644470215;87.70806121826172
173;1673425180.624148;47.1306428;7.2406201999999995;43.09000015258789;1673425180.699893;5.159674167633057;19.910093307495117;87.78192901611328
174;1673425180.8295836;47.1306428;7.2406201999999995;43.493003845214844;1673425180.9065406;5.0114874839782715;19.592113494873047;87.81565856933594
175;1673425181.0527525;47.1306428;7.2406201;43.89400100708008;1673425181.1188047;4.962582588195801;16.17259979248047;87.83055114746094
176;1673425181.241658;47.130642699999996;7.2406201;44.285003662109375;1673425181.3122647;4.923819541931152;18.617036819458008;87.79566192626953
177;1673425181.4360352;47.130642699999996;7.2406201;44.67900085449219;1673425181.5065901;5.111403942108154;19.545013427734375;87.71729278564453
178;1673425181.6263168;47.130642699999996;7.2406201;45.082000732421875;1673425181.6992888;4.934727668762207;16.6651611328125;87.801025390625
179;1673425181.8288746;47.130642699999996;7.2406201;45.483001708984375;1673425181.8949513;4.964036464691162;17.685667037963867;87.80111694335938
180;1673425182.0129063;47.1306428;7.2406201;45.884002685546875;1673425182.091545;4.842823028564453;20.295940399169922;87.79187774658203
181;1673425182.214987;47.130642699999996;7.2406201;46.28600311279297;1673425182.291883;5.000026226043701;16.933208465576172;87.70378875732422
182;1673425182.419477;47.130642699999996;7.2406201;46.68000411987305;1673425182.49616;4.858234405517578;17.184757232666016;87.72594451904297
183;1673425182.6213486;47.130642599999995;7.2406201;47.077003479003906;1673425182.695388;4.961673736572266;20.01757049560547;87.76687622070312
184;1673425182.8194413;47.130642599999995;7.24062;47.47600173950195;1673425182.8886523;4.849584579467773;17.8049373626709;87.895263671875
185;1673425183.0075026;47.130642599999995;7.24062;47.88200378417969;1673425183.0849395;4.73344087600708;16.7744083404541;87.85868072509766
186;1673425183.2194967;47.130642699999996;7.24062;48.2660026550293;1673425183.3040931;4.910672664642334;20.680835723876953;87.94863891601562
187;1673425183.420732;47.1306428;7.24062;48.59600067138672;1673425183.4873316;4.894754409790039;18.844179153442383;87.88796997070312
188;1673425183.6140025;47.1306429;7.24062;48.874000549316406;1673425183.7028842;4.826671123504639;16.660600662231445;87.68485260009766
189;1673425183.8290594;47.1306431;7.2406201;49.095001220703125;1673425183.904675;5.183420181274414;20.22572135925293;87.7209243774414
190;1673425184.0305073;47.130643299999996;7.2406201;49.290000915527344;1673425184.1000273;9.646379470825195;23.015188217163086;88.27684783935547
191;1673425184.2273548;47.1306435;7.2406198999999996;49.4630012512207;1673425184.2954369;23.879911422729492;36.40834426879883;98.21763610839844
192;1673425184.424652;47.1306429;7.2406182999999995;49.62300109863281;1673425184.5078292;26.8117618560791;50.479251861572266;109.70046997070312
193;1673425184.6464458;47.130640799999995;7.240614;49.755001068115234;1673425184.7118914;21.74457359313965;58.90402603149414;118.7773208618164
194;1673425184.8136992;47.1306369;7.240606499999999;49.842002868652344;1673425184.8849876;4.059143543243408;56.49281311035156;127.57701110839844
195;1673425185.003561;47.1306313;7.240596;49.87300109863281;1673425185.0808156;-9.81194019317627;52.04227066040039;137.46600341796875
196;1673425185.2140384;47.1306246;7.240583699999999;49.906002044677734;1673425185.2956383;-22.470157623291016;47.698936462402344;147.77859497070312
197;1673425185.435303;47.1306168;7.24057;49.93300247192383;1673425185.5119002;-36.9460563659668;44.21826171875;159.08370971679688
198;1673425185.6393538;47.130607999999995;7.240554899999999;49.94700241088867;1673425185.7133272;-48.61751937866211;40.796714782714844;172.1319580078125
199;1673425185.8469927;47.130598199999994;7.2405382;49.94900131225586;1673425185.920949;-50.46225357055664;30.36115264892578;-175.71047973632812
200;1673425186.059566;47.1305877;7.24052;49.92100143432617;1673425186.1290069;-47.79201126098633;22.48961067199707;-169.56781005859375
201;1673425186.23682;47.1305768;7.2405009;49.880001068115234;1673425186.3123655;-46.7349739074707;16.743144989013672;-163.6328887939453
202;1673425186.4329965;47.1305656;7.2404815;49.83400344848633;1673425186.5040214;-46.69715881347656;11.790098190307617;-156.0723876953125
203;1673425186.6276538;47.1305543;7.2404617;49.802001953125;1673425186.7004178;-47.12955093383789;6.803053855895996;-148.65501403808594
204;1673425186.8122914;47.130542999999996;7.240441499999999;49.77700424194336;1673425186.8921177;-47.811161041259766;2.7754504680633545;-142.5777587890625
205;1673425187.0301116;47.1305317;7.2404208;49.76100158691406;1673425187.1159415;-47.351192474365234;-3.766780376434326;-135.614501953125
206;1673425187.245007;47.130520399999995;7.240399999999999;49.755001068115234;1673425187.3154273;-47.17329406738281;-14.030364990234375;-131.70632934570312
207;1673425187.4569736;47.1305088;7.240379399999999;49.746002197265625;1673425187.5221941;-45.388545989990234;-12.971012115478516;-136.768798828125
208;1673425187.639739;47.130496799999996;7.2403599;49.72300338745117;1673425187.7125564;-42.29159164428711;-9.267038345336914;-147.2335968017578
209;1673425187.8323326;47.1304847;7.2403413;49.69400405883789;1673425187.9003725;-37.73042678833008;-3.1454458236694336;-159.2320098876953
210;1673425188.0317266;47.1304727;7.2403242;49.678001403808594;1673425188.1026747;-38.6781120300293;2.5303962230682373;-168.05174255371094
211;1673425188.2324975;47.1304607;7.2403086;49.669002532958984;1673425188.3056326;-39.05282974243164;7.867853164672852;-177.22842407226562
212;1673425188.4319534;47.1304489;7.240294199999999;49.685001373291016;1673425188.512769;-40.46823501586914;15.20667552947998;173.2333526611328
213;1673425188.635404;47.1304369;7.2402809999999995;49.707000732421875;1673425188.7082076;-39.12822723388672;21.02311134338379;164.11741638183594
214;1673425188.8514423;47.1304247;7.2402688;49.742000579833984;1673425188.9268625;-40.06184768676758;30.343202590942383;157.6437530517578
215;1673425189.0482857;47.130412;7.2402571;49.77300262451172;1673425189.109493;-41.828582763671875;34.111881256103516;169.83807373046875
216;1673425189.2203634;47.130399;7.2402446;49.816001892089844;1673425189.3009615;-45.61665725708008;25.93030548095703;-171.3914337158203
217;1673425189.414738;47.130385999999994;7.2402307;49.85200119018555;1673425189.4859986;-46.50740051269531;16.53413963317871;-161.50425720214844
218;1673425189.6168985;47.1303732;7.2402155;49.88200378417969;1673425189.690684;-47.89658737182617;10.552286148071289;-154.2063446044922
219;1673425189.812475;47.130360499999995;7.2401994;49.910003662109375;1673425189.8859093;-47.891841888427734;3.8075621128082275;-145.9012451171875
220;1673425190.0117278;47.130348;7.240182399999999;49.93300247192383;1673425190.0853126;-47.23524856567383;-1.5304644107818604;-137.59275817871094
221;1673425190.2031949;47.130335599999995;7.2401649;49.93400192260742;1673425190.2724984;-46.274330139160156;-6.119045734405518;-133.24002075195312
222;1673425190.3961961;47.130323399999995;7.2401466999999995;49.952003479003906;1673425190.4701066;-49.45822525024414;-8.16370677947998;-135.93003845214844
223;1673425190.6022477;47.130311;7.2401282;49.974002838134766;1673425190.6936867;-50.799922943115234;-9.110075950622559;-138.2212371826172
224;1673425190.8310935;47.1302983;7.240109599999999;49.9890022277832;1673425190.9001358;-49.63397979736328;-6.1028313636779785;-139.58554077148438
225;1673425191.029696;47.130285199999996;7.240091;50.005001068115234;1673425191.112261;-48.99410629272461;-5.521185874938965;-139.33685302734375
226;1673425191.2498186;47.130272;7.2400723;50.012001037597656;1673425191.324202;-48.60786056518555;-5.8765869140625;-139.30715942382812
227;1673425191.4462025;47.1302587;7.2400535999999995;50.01000213623047;1673425191.5117161;-48.027854919433594;-5.840444564819336;-139.35227966308594
228;1673425191.6370482;47.1302453;7.240035;49.99500274658203;1673425191.7092526;-47.54350662231445;-6.077334880828857;-139.2480926513672
229;1673425191.839932;47.1302318;7.2400164;49.98100280761719;1673425191.9125326;-47.225887298583984;-6.668365955352783;-139.07269287109375
230;1673425192.0446165;47.130218299999996;7.2399979;49.97100067138672;1673425192.1120083;-46.86675262451172;-7.301486968994141;-139.1835174560547
231;1673425192.2329853;47.1302048;7.2399795;49.97100067138672;1673425192.303815;-47.479854583740234;-5.329047203063965;-139.44610595703125
232;1673425192.433628;47.1301913;7.2399612;49.970001220703125;1673425192.504496;-47.40343475341797;-5.473179340362549;-138.91827392578125
233;1673425192.6292143;47.1301778;7.2399428;49.96600341796875;1673425192.7110388;-47.489776611328125;-5.678770542144775;-138.92001342773438
234;1673425192.868496;47.1301643;7.2399245;49.95500183105469;1673425192.936426;-47.44701385498047;-5.856411933898926;-138.92831420898438
235;1673425193.048567;47.1301509;7.2399059999999995;49.95000076293945;1673425193.1160176;-47.363380432128906;-5.971622943878174;-138.91331481933594
236;1673425193.2481825;47.130137399999995;7.239887599999999;49.94700241088867;1673425193.3097172;-47.46772384643555;-6.06577205657959;-138.88217163085938
237;1673425193.4316208;47.1301239;7.2398693;49.94200134277344;1673425193.5149126;-47.61812973022461;-6.077276706695557;-138.87631225585938
238;1673425193.6443262;47.1301105;7.239851;49.941001892089844;1673425193.71789;-47.62810516357422;-6.052027225494385;-138.87576293945312
239;1673425193.8341556;47.130097;7.2398326;49.939002990722656;1673425193.9026165;-47.504451751708984;-6.035977840423584;-138.85255432128906
240;1673425194.0377393;47.1300836;7.2398143;49.93600082397461;1673425194.104331;-47.4886589050293;-6.012375831604004;-138.8597869873047
241;1673425194.2355554;47.1300701;7.239795999999999;49.92900085449219;1673425194.3049717;-47.06832504272461;-5.980393886566162;-138.84344482421875
242;1673425194.4589202;47.1300567;7.2397776;49.92500305175781;1673425194.533284;-47.09541702270508;-6.029150009155273;-138.7996368408203
243;1673425194.6479523;47.1300433;7.239759299999999;49.92400360107422;1673425194.710031;-47.444923400878906;-6.021353721618652;-138.82398986816406
244;1673425194.8280733;47.1300299;7.2397411;49.92500305175781;1673425194.9049983;-47.61214828491211;-6.0439605712890625;-138.8119659423828
245;1673425195.0380301;47.130016399999995;7.2397228;49.926002502441406;1673425195.1106548;-47.76286315917969;-6.005919933319092;-138.85629272460938
246;1673425195.2324934;47.130002999999995;7.2397044;49.927001953125;1673425195.3100717;-47.621681213378906;-5.926863670349121;-138.87120056152344
247;1673425195.4562798;47.1299895;7.239686;49.92400360107422;1673425195.547404;-47.34928894042969;-5.920831203460693;-138.85009765625
248;1673425195.6670232;47.129976;7.2396677;49.9170036315918;1673425195.7392578;-47.15050506591797;-5.887121200561523;-138.86160278320312
249;1673425195.8479328;47.1299626;7.2396493;49.915000915527344;1673425195.9210699;-47.25126266479492;-5.890623092651367;-138.83303833007812
250;1673425196.053349;47.1299491;7.239630999999999;49.91200256347656;1673425196.1312187;-47.48963165283203;-5.924466133117676;-138.84268188476562
251;1673425196.2550504;47.1299357;7.2396126999999995;49.913002014160156;1673425196.3336053;-47.519805908203125;-5.862637042999268;-138.86318969726562
252;1673425196.4579425;47.129922199999996;7.2395944;49.91200256347656;1673425196.528817;-47.49311447143555;-5.8466057777404785;-138.88539123535156
253;1673425196.6449687;47.129908799999995;7.239576;49.91100311279297;1673425196.715781;-47.36350631713867;-5.806850433349609;-138.90042114257812
254;1673425196.8372743;47.129895399999995;7.2395575999999995;49.90800094604492;1673425196.911733;-47.260520935058594;-5.812139987945557;-138.8990478515625
255;1673425197.0275946;47.1298819;7.239539199999999;49.90400314331055;1673425197.0962083;-47.10774612426758;-5.758406162261963;-138.90570068359375
256;1673425197.2141173;47.1298685;7.2395209;49.906002044677734;1673425197.2837877;-47.24042892456055;-5.789095401763916;-138.89366149902344
257;1673425197.4232802;47.1298551;7.2395026;49.90900421142578;1673425197.4977617;-47.64552688598633;-5.82716703414917;-138.88072204589844
258;1673425197.6328092;47.1298417;7.2394842;49.913002014160156;1673425197.7124224;-47.76066970825195;-5.76141357421875;-138.94659423828125
259;1673425197.8489828;47.1298282;7.2394658;49.91200256347656;1673425197.923792;-47.351966857910156;-5.705231189727783;-138.98516845703125
260;1673425198.0755517;47.1298148;7.239447299999999;49.90900421142578;1673425198.1488674;-46.93119812011719;-5.663718223571777;-138.99667358398438
261;1673425198.2764063;47.1298013;7.2394289;49.906002044677734;1673425198.3509748;-46.94947052001953;-5.658051013946533;-138.97108459472656
262;1673425198.4895265;47.1297879;7.239410599999999;49.91100311279297;1673425198.5684736;-47.452880859375;-5.6448564529418945;-138.99468994140625
263;1673425198.6724195;47.129774399999995;7.239392199999999;49.9160041809082;1673425198.7422416;-47.73550033569336;-5.634378433227539;-139.03260803222656
264;1673425198.8606966;47.129760999999995;7.2393738999999995;49.92100143432617;1673425198.9281225;-47.67079162597656;-5.587203502655029;-139.0611114501953
265;1673425199.0487292;47.1297475;7.239355499999999;49.92400360107422;1673425199.1186838;-47.33332443237305;-5.496003150939941;-139.07875061035156
266;1673425199.2317643;47.129734;7.239337099999999;49.927001953125;1673425199.2968924;-47.334014892578125;-5.438819408416748;-139.1041259765625
267;1673425199.4370217;47.1297206;7.2393186;49.928001403808594;1673425199.514289;-47.449684143066406;-5.487674713134766;-139.09152221679688
268;1673425199.6327841;47.1297071;7.2393002;49.93000411987305;1673425199.7045417;-47.48832702636719;-5.421537399291992;-139.15814208984375
269;1673425199.8254006;47.129693599999996;7.2392818;49.93000411987305;1673425199.9012797;-47.3027229309082;-5.368233680725098;-139.18118286132812
270;1673425200.0329118;47.129680099999995;7.2392634;49.93000411987305;1673425200.1081684;-47.20781326293945;-5.324447154998779;-139.17576599121094
271;1673425200.2333558;47.1296666;7.2392449;49.93700408935547;1673425200.3127792;-47.66377258300781;-5.3640265464782715;-139.19970703125
272;1673425200.4371786;47.1296531;7.2392264;49.94300079345703;1673425200.5186505;-48.03445816040039;-5.331894874572754;-139.27490234375
273;1673425200.654742;47.1296396;7.239207899999999;49.945003509521484;1673425200.7296348;-47.689598083496094;-5.2750468254089355;-139.31869506835938
274;1673425200.8480344;47.129626099999996;7.2391893;49.94700241088867;1673425200.9314744;-47.416412353515625;-5.171935081481934;-139.379150390625
275;1673425201.056261;47.129612599999994;7.239170799999999;49.945003509521484;1673425201.1417248;-47.20671081542969;-5.180499076843262;-139.3573760986328
276;1673425201.2730527;47.129599;7.2391521999999995;49.945003509521484;1673425201.35267;-47.291221618652344;-5.160703659057617;-139.43313598632812
277;1673425201.4768572;47.1295855;7.2391336;49.948001861572266;1673425201.555829;-47.5872688293457;-5.148036956787109;-139.46298217773438
278;1673425201.6756814;47.129571999999996;7.239115;49.94900131225586;1673425201.7506187;-47.602210998535156;-5.13125467300415;-139.52630615234375
279;1673425201.8595808;47.129558499999995;7.239096399999999;49.9530029296875;1673425201.924576;-47.56185531616211;-5.04798698425293;-139.608642578125
280;1673425202.055007;47.129545;7.2390778;49.958003997802734;1673425202.1395721;-47.56829833984375;-5.045068740844727;-139.63775634765625
281;1673425202.262292;47.1295314;7.2390592;49.9630012512207;1673425202.3469777;-47.77939987182617;-5.029068470001221;-139.72286987304688
282;1673425202.474828;47.129517899999996;7.2390405;49.96600341796875;1673425202.5789597;-47.693721771240234;-5.02357292175293;-139.77581787109375
283;1673425202.7452488;47.1295043;7.2390219;49.97300338745117;1673425202.8020086;-47.632850646972656;-4.904167175292969;-139.89524841308594
284;1673425202.8956149;47.1294908;7.2390032;49.97600173950195;1673425202.95723;-47.70960998535156;-4.854149341583252;-139.9502716064453
285;1673425203.058981;47.1294772;7.238984599999999;49.97700119018555;1673425203.128821;-47.52081298828125;-4.7397613525390625;-140.03109741210938
286;1673425203.3615167;47.129463699999995;7.238966;49.97700119018555;1673425203.4124153;-47.500831604003906;-4.716015338897705;-140.1168670654297
287;1673425203.524896;47.1294501;7.2389474;49.980003356933594;1673425203.5854263;-47.720252990722656;-4.91383171081543;-140.13902282714844
288;1673425203.6957974;47.1294365;7.2389288;49.98500061035156;1673425203.7598858;-47.69833755493164;-5.578915596008301;-140.15492248535156
289;1673425203.8866591;47.1294228;7.2389101;49.9890022277832;1673425203.9626536;-47.781349182128906;-5.044515609741211;-140.576171875
290;1673425204.0708194;47.1294091;7.2388916;49.99400329589844;1673425204.1514392;-47.61995315551758;-5.697851657867432;-140.33616638183594
291;1673425204.2777524;47.1293954;7.238873099999999;49.99700164794922;1673425204.3524609;-47.29777526855469;-6.37491512298584;-140.64671325683594
292;1673425204.4722447;47.129381599999995;7.2388547;50.00100326538086;1673425204.5371935;-47.9582405090332;-5.555301666259766;-141.1620635986328
293;1673425204.6451597;47.1293678;7.2388365;50.00300216674805;1673425204.7144582;-47.896793365478516;-5.637576103210449;-141.20965576171875
294;1673425204.8394957;47.129354;7.2388183999999995;50.00700378417969;1673425204.923517;-47.438690185546875;-5.89194393157959;-141.30838012695312
295;1673425205.0486372;47.12934;7.2388004;50.01000213623047;1673425205.1238482;-47.633087158203125;-6.035140514373779;-141.4541778564453
296;1673425205.2529387;47.129326;7.2387825999999995;50.01300048828125;1673425205.3317518;-47.75093078613281;-6.303211688995361;-141.56507873535156
297;1673425205.45353;47.1293119;7.2387649;50.0150032043457;1673425205.5281892;-47.611080169677734;-6.45733642578125;-141.73170471191406
298;1673425205.6609952;47.129297699999995;7.2387473;50.0160026550293;1673425205.7349398;-47.57487487792969;-6.788950443267822;-141.80764770507812
299;1673425205.8664823;47.1292835;7.2387299;50.0160026550293;1673425205.9472342;-47.597984313964844;-6.695000648498535;-142.0974884033203
300;1673425206.0835493;47.129269199999996;7.2387127;50.01700210571289;1673425206.1532173;-47.48250961303711;-7.232091426849365;-141.97012329101562
301;1673425206.2743013;47.1292549;7.2386957;50.02100372314453;1673425206.3456697;-46.67251205444336;-8.428962707519531;-142.0146942138672
302;1673425206.4680927;47.1292404;7.238678999999999;50.02800369262695;1673425206.5347407;-41.12400817871094;-6.633968353271484;-142.5603485107422
303;1673425206.6610818;47.1292261;7.238662799999999;50.05400085449219;1673425206.7428706;-30.250783920288086;-8.09391975402832;-140.41282653808594
304;1673425206.869757;47.1292125;7.2386474;50.082000732421875;1673425206.9457285;-18.218238830566406;-6.06474494934082;-139.9459228515625
305;1673425207.0870893;47.1292001;7.2386333;50.09700393676758;1673425207.1596112;-8.951151847839355;-6.023714065551758;-137.9977264404297
306;1673425207.3441901;47.1291896;7.238620999999999;50.10000228881836;1673425207.4179158;-4.648797512054443;-5.339043140411377;-137.63890075683594
307;1673425207.522655;47.1291808;7.2386104;50.09700393676758;1673425207.590694;-1.4910303354263306;-5.959782123565674;-137.3959503173828
308;1673425207.7041814;47.1291739;7.238601699999999;50.09600067138672;1673425207.7686868;-1.5727436542510986;-3.5120046138763428;-138.9816436767578
309;1673425207.8886676;47.1291686;7.2385946;50.10300064086914;1673425207.9602814;-4.655617713928223;-2.794132709503174;-141.0368194580078
310;1673425208.0633943;47.1291647;7.2385888;50.117000579833984;1673425208.131863;-8.524059295654297;-5.78549337387085;-140.11520385742188
311;1673425208.2597976;47.1291619;7.2385841;50.130001068115234;1673425208.3281357;-12.2018404006958;-9.399190902709961;-138.0724639892578
312;1673425208.4561763;47.1291598;7.2385804;50.13900375366211;1673425208.5316176;-15.69353199005127;-10.852119445800781;-139.0328369140625
313;1673425208.6592963;47.1291581;7.2385774;50.14800262451172;1673425208.735694;-21.466449737548828;-13.187419891357422;-139.59442138671875
314;1673425208.867386;47.1291565;7.2385749;50.18100357055664;1673425208.9357069;-41.504825592041016;-10.26071834564209;-135.20550537109375
315;1673425209.0599923;47.1291541;7.2385714;50.27900314331055;1673425209.1268744;-34.469749450683594;-6.328129768371582;-136.03024291992188
316;1673425209.2471273;47.1291509;7.2385665999999995;50.43800354003906;1673425209.324685;-21.741527557373047;-2.8315250873565674;-137.3952178955078
317;1673425209.4535134;47.1291477;7.2385611;50.695003509521484;1673425209.5272787;-34.748748779296875;-5.092483043670654;-137.89796447753906
318;1673425209.6489618;47.1291442;7.238554799999999;51.0160026550293;1673425209.7234156;-46.64558410644531;-8.091451644897461;-137.79931640625
319;1673425209.8552117;47.1291394;7.238546899999999;51.381004333496094;1673425209.9374597;-52.79253387451172;-12.040534019470215;-137.3784942626953
320;1673425210.0708938;47.1291331;7.2385378;51.7140007019043;1673425210.1406136;-48.89934158325195;-10.957479476928711;-138.7867889404297
321;1673425210.2496405;47.1291253;7.2385278;52.040000915527344;1673425210.3202088;-47.97407150268555;-8.598440170288086;-137.84547424316406
322;1673425210.4569635;47.129116499999995;7.238516799999999;52.34600067138672;1673425210.5327044;-43.69628143310547;-8.387727737426758;-138.1271209716797
323;1673425210.663714;47.1291071;7.238505099999999;52.64200210571289;1673425210.7351089;-40.9411506652832;-7.577554225921631;-137.88873291015625
324;1673425210.8577743;47.1290972;7.2384929;52.94000244140625;1673425210.9278414;-39.54180908203125;-7.127943992614746;-137.34889221191406
325;1673425211.04457;47.129087399999996;7.238480399999999;53.246002197265625;1673425211.1149564;-38.76546096801758;-7.174376487731934;-137.07579040527344
326;1673425211.2453253;47.1290774;7.238467699999999;53.564002990722656;1673425211.3230898;-38.06806564331055;-7.113759994506836;-136.84530639648438
327;1673425211.4546454;47.1290674;7.2384547999999995;53.89400100708008;1673425211.529143;-37.66762161254883;-7.045663356781006;-136.77822875976562
328;1673425211.6524467;47.129057599999996;7.2384419;54.233001708984375;1673425211.7318025;-37.51176071166992;-7.180177211761475;-136.697509765625
329;1673425211.8599045;47.129047799999995;7.238428799999999;54.582000732421875;1673425211.9293766;-37.447086334228516;-7.128521919250488;-136.76893615722656
330;1673425212.0486643;47.129038099999995;7.2384157;54.94000244140625;1673425212.1280324;-37.60015106201172;-7.399325370788574;-136.77383422851562
331;1673425212.266268;47.1290285;7.2384026;55.307003021240234;1673425212.340165;-37.84730529785156;-7.521224498748779;-136.80645751953125
332;1673425212.468806;47.1290189;7.238389499999999;55.677001953125;1673425212.5381236;-37.999813079833984;-7.755068302154541;-136.83047485351562
333;1673425212.65154;47.1290094;7.238376199999999;56.051002502441406;1673425212.7218113;-37.93391418457031;-7.9374775886535645;-136.86485290527344
334;1673425212.8534362;47.128999799999995;7.238363;56.432003021240234;1673425212.931644;-38.04941177368164;-7.853504657745361;-136.90869140625
335;1673425213.0599;47.1289902;7.238349899999999;56.81200408935547;1673425213.135219;-38.132232666015625;-7.917270660400391;-136.8832550048828
336;1673425213.244425;47.1289806;7.2383367;57.19200134277344;1673425213.319894;-38.21294403076172;-7.949522495269775;-136.8881072998047
337;1673425213.4770956;47.1289711;7.2383235;57.57500457763672;1673425213.5534842;-38.22566223144531;-7.9432806968688965;-136.91287231445312
338;1673425213.6781986;47.128961499999996;7.2383104;57.95600128173828;1673425213.7442558;-38.287593841552734;-7.976280689239502;-136.94435119628906
339;1673425213.8640363;47.1289519;7.2382972;58.33700180053711;1673425213.9417331;-38.236541748046875;-7.922915458679199;-136.96875
340;1673425214.063093;47.1289423;7.238283999999999;58.724002838134766;1673425214.160728;-38.390132904052734;-7.915270805358887;-136.91452026367188
341;1673425214.3256943;47.1289326;7.238270699999999;59.11000442504883;1673425214.4041905;-38.34280014038086;-7.835574626922607;-136.93930053710938
342;1673425214.5340788;47.1289229;7.2382575;59.493003845214844;1673425214.6048121;-38.402183532714844;-7.782515048980713;-136.92262268066406
343;1673425214.7311234;47.1289132;7.2382442;59.87900161743164;1673425214.8005512;-38.44977569580078;-7.699375629425049;-136.94915771484375
344;1673425214.9193134;47.1289035;7.238231;60.26400375366211;1673425215.0243232;-38.46757507324219;-7.7641754150390625;-136.94198608398438
345;1673425215.1273742;47.1288938;7.2382177;60.647003173828125;1673425215.2383046;-38.584693908691406;-7.824696063995361;-136.9298553466797
346;1673425215.4006195;47.1288841;7.2382044;61.03400421142578;1673425215.4516435;-38.49750900268555;-7.807411193847656;-136.95758056640625
347;1673425215.5873106;47.1288744;7.238191;61.426002502441406;1673425215.63221;-38.524662017822266;-7.851944923400879;-136.94407653808594
348;1673425215.7459016;47.1288647;7.2381777;61.81900405883789;1673425215.8202517;-38.565067291259766;-7.916737079620361;-136.92526245117188
349;1673425215.9440885;47.128854999999994;7.238164299999999;62.20700454711914;1673425216.016995;-38.49959945678711;-7.859404563903809;-136.9372100830078
350;1673425216.1409762;47.1288452;7.2381509;62.59700393676758;1673425216.2278123;-38.53443145751953;-7.8820319175720215;-136.94105529785156
351;1673425216.3289542;47.1288355;7.2381375;62.983001708984375;1673425216.3919687;-38.576881408691406;-7.870654582977295;-136.94483947753906
352;1673425216.5076876;47.1288257;7.238124099999999;63.37300491333008;1673425216.580544;-38.58441162109375;-7.7989068031311035;-136.9470672607422
353;1673425216.6962125;47.1288159;7.2381107;63.76400375366211;1673425216.7599664;-38.55466842651367;-7.836650371551514;-136.91917419433594
354;1673425216.8806336;47.1288061;7.2380971999999995;64.15399932861328;1673425216.9552555;-38.44078063964844;-7.866711616516113;-136.9407958984375
355;1673425217.0811741;47.1287962;7.2380837;64.54700469970703;1673425217.155484;-38.44017791748047;-7.770386695861816;-136.9606475830078
356;1673425217.2951055;47.128786399999996;7.238070199999999;64.93800354003906;1673425217.3597813;-38.473819732666016;-7.85694694519043;-136.92477416992188
357;1673425217.4809546;47.128776699999996;7.2380568;65.32600402832031;1673425217.5551846;-38.48970031738281;-7.822833061218262;-136.9091339111328
358;1673425217.6761687;47.128766899999995;7.2380434;65.71100616455078;1673425217.7464538;-38.44285583496094;-7.801191329956055;-136.95404052734375
359;1673425217.9010236;47.1287571;7.238029999999999;66.10100555419922;1673425217.9816878;-38.686344146728516;-7.805077075958252;-136.91554260253906
360;1673425218.0991669;47.1287473;7.2380166;66.49100494384766;1673425218.1602693;-38.58993148803711;-7.662775039672852;-136.97683715820312
361;1673425218.2722678;47.1287375;7.238003099999999;66.88300323486328;1673425218.3606288;-38.60182189941406;-7.812999248504639;-136.92013549804688
362;1673425218.4765422;47.1287277;7.2379896;67.2750015258789;1673425218.5445983;-38.59564208984375;-7.875412464141846;-136.9242706298828
363;1673425218.6657152;47.1287179;7.2379761;67.66500091552734;1673425218.740082;-38.54305648803711;-7.68387508392334;-136.95782470703125
364;1673425218.8670173;47.128707999999996;7.2379627;68.05400085449219;1673425218.9433453;-38.46626663208008;-7.82406759262085;-136.90443420410156
365;1673425219.0587628;47.128698199999995;7.2379491;68.44000244140625;1673425219.1283607;-38.463470458984375;-7.674882411956787;-136.9527587890625
366;1673425219.251044;47.128688399999994;7.2379356999999995;68.8290023803711;1673425219.3350186;-38.58309555053711;-7.800644874572754;-136.90550231933594
367;1673425219.4680722;47.1286786;7.2379222;69.22000122070312;1673425219.5415535;-38.542747497558594;-7.838058948516846;-136.91940307617188
368;1673425219.663445;47.1286688;7.2379086;69.60900115966797;1673425219.73819;-38.601341247558594;-7.796078205108643;-136.9482421875
369;1673425219.8698158;47.128659;7.237895099999999;70.00300598144531;1673425219.9384658;-38.54537582397461;-7.8045477867126465;-136.93312072753906
370;1673425220.0770166;47.1286491;7.237881499999999;70.39900207519531;1673425220.1513605;-38.5411376953125;-7.935548305511475;-136.93069458007812
371;1673425220.2926254;47.128639299999996;7.237868;70.79400634765625;1673425220.3748035;-38.676536560058594;-7.803157806396484;-136.96734619140625
372;1673425220.536085;47.128629499999995;7.2378545;71.18800354003906;1673425220.5997667;-38.534236907958984;-7.870382308959961;-136.92178344726562
373;1673425220.7050555;47.128619699999994;7.2378409999999995;71.58200073242188;1673425220.7807803;-38.72343063354492;-7.862241268157959;-136.9772186279297
374;1673425220.9043763;47.1286098;7.2378274;71.97700500488281;1673425220.9683561;-38.58966827392578;-7.8818559646606445;-136.9526824951172
375;1673425221.08428;47.1285999;7.2378138;72.37200164794922;1673425221.1601937;-38.61271667480469;-7.987536907196045;-136.94302368164062
376;1673425221.2786868;47.1285901;7.2378002;72.77000427246094;1673425221.3442514;-38.632633209228516;-7.959722518920898;-136.97055053710938
377;1673425221.4583416;47.128580199999995;7.2377867;73.16699981689453;1673425221.532562;-38.634674072265625;-7.798484802246094;-136.9723663330078
378;1673425221.6616504;47.1285703;7.2377731999999995;73.56400299072266;1673425221.7349157;-38.577110290527344;-7.7397332191467285;-136.9885711669922
379;1673425221.8583703;47.1285604;7.2377595999999995;73.96000671386719;1673425221.9315248;-38.55672073364258;-7.814465045928955;-136.94342041015625
380;1673425222.0596352;47.128550499999996;7.2377461;74.35600280761719;1673425222.132505;-38.63451385498047;-7.858890533447266;-136.91781616210938
381;1673425222.2523232;47.1285406;7.237732599999999;74.7490005493164;1673425222.3310633;-38.64078140258789;-7.896551132202148;-136.92025756835938
382;1673425222.4521568;47.1285308;7.237718999999999;75.14300537109375;1673425222.5275226;-38.68384552001953;-7.783445835113525;-136.9490966796875
383;1673425222.6487339;47.1285208;7.2377055;75.53800201416016;1673425222.7238755;-38.635597229003906;-7.892526626586914;-136.915771484375
384;1673425222.865662;47.128510899999995;7.237692;75.9330062866211;1673425222.9357848;-38.70499801635742;-7.832020282745361;-136.94984436035156
385;1673425223.0561705;47.128501;7.2376784;76.32500457763672;1673425223.1417294;-38.63702392578125;-7.835516452789307;-136.95828247070312
386;1673425223.2669153;47.1284911;7.237664799999999;76.71900177001953;1673425223.3461096;-38.67845153808594;-7.939988613128662;-136.9384002685547
387;1673425223.473281;47.128481199999996;7.237651199999999;77.11200714111328;1673425223.5507045;-38.74147415161133;-7.812281131744385;-136.9766845703125
388;1673425223.6786797;47.1284712;7.2376377;77.51200103759766;1673425223.7511268;-38.60771942138672;-8.026471138000488;-136.91497802734375
389;1673425223.8694346;47.1284613;7.2376241;77.91200256347656;1673425223.9457421;-38.68634796142578;-7.905915260314941;-136.93722534179688
390;1673425224.078686;47.128451299999995;7.2376105;78.31100463867188;1673425224.1554065;-38.70245361328125;-7.98492431640625;-136.91041564941406
391;1673425224.2832232;47.1284414;7.2375969;78.7090072631836;1673425224.363738;-38.52690124511719;-7.921636581420898;-136.9625701904297
392;1673425224.4961896;47.1284314;7.2375833;79.10700225830078;1673425224.569933;-38.55115509033203;-7.9094014167785645;-136.88409423828125
393;1673425224.6907983;47.1284214;7.2375697;79.50800323486328;1673425224.7723515;-38.573909759521484;-7.871020793914795;-136.94114685058594
394;1673425224.8875797;47.1284114;7.2375561;79.906005859375;1673425224.9580927;-38.51457595825195;-7.834097862243652;-136.88685607910156
395;1673425225.0867724;47.1284014;7.237542599999999;80.30500030517578;1673425225.1562304;-38.475521087646484;-7.796726226806641;-136.9003143310547
396;1673425225.284238;47.1283914;7.237528999999999;80.7020034790039;1673425225.3611;-38.5504264831543;-7.714051246643066;-136.8820037841797
397;1673425225.5126624;47.128381399999995;7.2375153999999995;81.10000610351562;1673425225.5947976;-38.53273391723633;-7.807819366455078;-136.88180541992188
398;1673425225.7210474;47.1283714;7.2375017999999995;81.49800109863281;1673425225.8007624;-38.5753173828125;-7.762032508850098;-136.8935089111328
399;1673425225.9182644;47.1283615;7.2374883;81.89600372314453;1673425225.982071;-38.60429382324219;-7.729809284210205;-136.89064025878906
400;1673425226.0860736;47.1283515;7.2374747;82.29500579833984;1673425226.1479187;-38.530670166015625;-7.681265354156494;-136.8809356689453
401;1673425226.2615147;47.1283415;7.2374611;82.69600677490234;1673425226.3466682;-38.565162658691406;-7.706823825836182;-136.8662872314453
402;1673425226.4768906;47.128331499999994;7.2374475;83.09200286865234;1673425226.5541508;-38.50068664550781;-7.771814823150635;-136.8383331298828
403;1673425226.6802785;47.1283216;7.2374338;83.49000549316406;1673425226.7468996;-38.608333587646484;-7.9700398445129395;-136.85992431640625
404;1673425226.8964138;47.1283117;7.2374202;83.88800048828125;1673425226.972649;-38.549652099609375;-7.864838600158691;-136.8976593017578
405;1673425227.0925605;47.128301799999996;7.2374065;84.28900146484375;1673425227.1528385;-38.49909591674805;-7.976639270782471;-136.864013671875
406;1673425227.2773662;47.1282918;7.2373929;84.69100189208984;1673425227.3447158;-38.454551696777344;-7.765913486480713;-136.92849731445312
407;1673425227.472812;47.128281799999996;7.2373793;85.09200286865234;1673425227.554159;-38.39398956298828;-7.830135345458984;-136.86068725585938
408;1673425227.68413;47.128271899999994;7.2373655999999995;85.49200439453125;1673425227.7572463;-38.4453125;-7.907783508300781;-136.85580444335938
409;1673425227.8860462;47.128262;7.237352;85.89100646972656;1673425227.9566503;-38.50129699707031;-7.978549480438232;-136.85508728027344
410;1673425228.0778081;47.1282521;7.237338299999999;86.29100036621094;1673425228.1451528;-38.51932907104492;-8.07433795928955;-136.88320922851562
411;1673425228.2676933;47.128242199999995;7.2373246;86.69100189208984;1673425228.346302;-38.54606628417969;-7.9511566162109375;-136.8884735107422
412;1673425228.4714887;47.1282323;7.237311;87.08700561523438;1673425228.5549893;-38.7039680480957;-8.066493034362793;-136.8690948486328
413;1673425228.671969;47.1282224;7.2372974;87.48600769042969;1673425228.7464;-38.57860565185547;-7.953272342681885;-136.8692169189453
414;1673425228.865056;47.128212399999995;7.237283799999999;87.88600158691406;1673425228.94005;-38.65399169921875;-7.873827934265137;-136.88687133789062
415;1673425229.0649714;47.1282025;7.2372703;88.28500366210938;1673425229.1403065;-38.69533157348633;-7.783470630645752;-136.87290954589844
416;1673425229.2689655;47.1281926;7.237256599999999;88.68500518798828;1673425229.3518274;-38.614810943603516;-7.948225021362305;-136.8548126220703
417;1673425229.4776192;47.128182599999995;7.2372429;89.08600616455078;1673425229.5526617;-38.62020492553711;-7.805176258087158;-136.86610412597656
418;1673425229.67927;47.1281726;7.2372293;89.48500061035156;1673425229.7501223;-38.444297790527344;-7.869936466217041;-136.85888671875
419;1673425229.8737009;47.128162599999996;7.2372155;89.88300323486328;1673425229.9494922;-38.46751403808594;-7.803473472595215;-136.87185668945312
