;pos_time;latitude;longitude;altitude;alt_time;pitch;roll;yaw
0;1673423558.3345923;47.1306424;7.2406196;-0.058000002056360245;1673423558.424933;0.11157762259244919;-0.1045585349202156;90.34822845458984
1;1673423558.4986594;47.1306424;7.2406197;-0.05900000408291817;1673423558.601682;0.15021595358848572;-0.2107587307691574;90.30636596679688
2;1673423558.6978652;47.1306424;7.2406197;-0.05900000408291817;1673423558.7979558;0.07572316378355026;-0.3099895417690277;90.2269515991211
3;1673423558.8770113;47.1306424;7.240619799999999;-0.06000000238418579;1673423558.991835;0.18085049092769623;-0.5008900761604309;90.1861343383789
4;1673423559.074352;47.1306425;7.240619799999999;-0.05700000375509262;1673423559.2306054;0.009466788731515408;-0.32341310381889343;90.21831512451172
5;1673423559.3085194;47.1306425;7.2406198999999996;-0.05300000309944153;1673423559.4387908;-0.14095266163349152;-0.5391108989715576;90.35179901123047
6;1673423559.512526;47.1306425;7.24062;-0.052000001072883606;1673423559.609776;0.02895100973546505;-0.09370144456624985;90.19213104248047
7;1673423559.6800597;47.1306425;7.2406198999999996;-0.05300000309944153;1673423559.7869976;0.025277994573116302;-0.4671977758407593;90.2020263671875
8;1673423559.8597531;47.1306425;7.2406198999999996;-0.05300000309944153;1673423559.9734917;-0.010026437230408192;-0.31390058994293213;90.19347381591797
9;1673423560.065771;47.1306424;7.2406198999999996;-0.05300000309944153;1673423560.1746857;0.21411867439746857;-0.4267578125;90.09794616699219
10;1673423560.252337;47.1306424;7.2406198999999996;-0.055000003427267075;1673423560.361224;-0.0416145958006382;-0.2831810712814331;90.35438537597656
11;1673423560.4545338;47.1306424;7.2406198999999996;-0.05900000408291817;1673423560.5663376;-0.23631809651851654;-0.2723868191242218;90.20313262939453
12;1673423560.6508074;47.1306424;7.2406198999999996;-0.06000000238418579;1673423560.7655325;-0.1777040809392929;-0.34131988883018494;90.17357635498047
13;1673423560.8529713;47.1306424;7.2406198999999996;-0.06200000271201134;1673423560.9716187;-0.030637819319963455;-0.18511563539505005;90.08588409423828
14;1673423561.0609603;47.1306423;7.2406198999999996;-0.0010000000474974513;1673423561.176664;-0.11825855821371078;0.9298750162124634;90.15310668945312
15;1673423561.268949;47.1306423;7.24062;-0.0020000000949949026;1673423561.3866594;-0.09592919796705246;0.35794126987457275;90.21968078613281
16;1673423561.4701796;47.1306423;7.24062;-0.003000000026077032;1673423561.58207;0.16035310924053192;0.6476273536682129;90.26585388183594
17;1673423561.6694684;47.1306423;7.24062;-0.004000000189989805;1673423561.7841947;0.07627183198928833;0.4877488613128662;90.18608856201172
18;1673423561.8735468;47.1306423;7.24062;-0.003000000026077032;1673423561.9843764;-0.21808214485645294;0.4204053282737732;90.2526626586914
19;1673423562.0649593;47.1306423;7.2406198999999996;-0.0010000000474974513;1673423562.181623;0.01720116287469864;0.8575095534324646;90.19795227050781
20;1673423562.2719862;47.1306423;7.2406198999999996;0.0010000000474974513;1673423562.3857718;0.39761438965797424;0.9097033739089966;90.17353820800781
21;1673423562.4595685;47.1306423;7.2406198999999996;0.0;1673423562.5762408;-0.001602719770744443;0.6124329566955566;90.2033462524414
22;1673423562.649992;47.1306423;7.2406198999999996;-0.0020000000949949026;1673423562.7734952;0.2269601821899414;0.9290291666984558;90.23218536376953
23;1673423562.8658297;47.1306423;7.2406198999999996;-0.004000000189989805;1673423562.9834917;0.20064470171928406;0.31566354632377625;90.2885971069336
24;1673423563.0728426;47.1306423;7.2406198999999996;-0.004000000189989805;1673423563.1807656;0.22399598360061646;0.31142139434814453;90.21640014648438
25;1673423563.2575495;47.1306423;7.2406198999999996;-0.010000000707805157;1673423563.378165;0.306533545255661;0.12773039937019348;90.18499755859375
26;1673423563.4587617;47.1306422;7.2406198999999996;-0.009000000543892384;1673423563.5774;0.040706779807806015;0.6409227252006531;90.24015808105469
27;1673423563.6746202;47.1306422;7.240619799999999;-0.013000000268220901;1673423563.7922761;0.07292313128709793;0.5178480744361877;90.24275207519531
28;1673423563.880648;47.130642099999996;7.240619799999999;-0.01600000075995922;1673423564.0194352;0.047325264662504196;0.6776661276817322;90.35858917236328
29;1673423564.0994911;47.1306418;7.240619799999999;-0.018000001087784767;1673423564.1957526;0.17499351501464844;0.5085679888725281;90.63385009765625
30;1673423564.2851732;47.130641499999996;7.2406198999999996;-0.005000000353902578;1673423564.400876;0.3062427043914795;-1.5498353242874146;92.24910736083984
31;1673423564.5054004;47.130640899999996;7.240619799999999;0.010000000707805157;1673423564.6124063;0.2812066078186035;-4.5359063148498535;95.74673461914062
32;1673423564.6973252;47.13064;7.240619799999999;0.020000001415610313;1673423564.8126454;0.41870200634002686;-9.176953315734863;99.30775451660156
33;1673423564.888778;47.1306389;7.240619799999999;0.03400000184774399;1673423564.9888914;1.0035972595214844;-13.567051887512207;101.0978012084961
34;1673423565.0762882;47.1306376;7.2406197;0.04700000211596489;1673423565.189078;0.6787582039833069;-16.282732009887695;99.37474822998047
35;1673423565.2686782;47.130635999999996;7.240619499999999;0.0690000057220459;1673423565.3844008;0.4251694977283478;-18.124929428100586;97.80726623535156
36;1673423565.4727767;47.1306345;7.240619199999999;0.10300000756978989;1673423565.5943296;-0.06687012314796448;-19.828594207763672;96.58998107910156
37;1673423565.686605;47.1306332;7.2406188;0.1469999998807907;1673423565.8126042;-0.6250762343406677;-21.60987663269043;95.64566040039062
38;1673423565.89459;47.1306321;7.2406184;0.1980000138282776;1673423566.0069184;-1.329508900642395;-23.39783477783203;94.92189025878906
39;1673423566.0967157;47.1306313;7.2406179999999996;0.2580000162124634;1673423566.2159188;-2.0654234886169434;-25.2083683013916;94.26830291748047
40;1673423566.300388;47.1306309;7.2406177;0.3290000259876251;1673423566.397044;-2.865062952041626;-26.993383407592773;93.8211898803711
41;1673423566.4707754;47.130631;7.2406175;0.40800002217292786;1673423566.5835776;-3.6910319328308105;-28.916484832763672;93.33592224121094
42;1673423566.6710012;47.1306315;7.2406174;0.4910000264644623;1673423566.7837763;-4.336961269378662;-30.525964736938477;92.9271469116211
43;1673423566.8643453;47.1306327;7.2406174;0.5800000429153442;1673423566.972271;-4.663288593292236;-28.150331497192383;92.49104309082031
44;1673423567.0509217;47.1306343;7.2406177;0.6730000376701355;1673423567.1705363;-4.540526390075684;-24.924053192138672;92.16692352294922
45;1673423567.2569578;47.1306363;7.2406179999999996;0.7730000615119934;1673423567.3785899;-4.2284345626831055;-22.091325759887695;91.99324035644531
46;1673423567.454323;47.1306383;7.2406184;0.878000020980835;1673423567.5700321;-3.55583119392395;-19.013412475585938;91.84034729003906
47;1673423567.6564455;47.130640199999995;7.2406188;0.9940000176429749;1673423567.7711735;-3.159174680709839;-14.268572807312012;91.65573120117188
48;1673423567.854667;47.1306417;7.2406193;1.125;1673423567.975253;-2.395237922668457;-13.042698860168457;92.14749145507812
49;1673423568.0636544;47.1306429;7.2406197;1.2680000066757202;1673423568.1803033;-1.8838164806365967;-14.970501899719238;92.690185546875
50;1673423568.266732;47.1306435;7.24062;1.4220000505447388;1673423568.3805544;-1.615695834159851;-12.744584083557129;92.85542297363281
51;1673423568.4728234;47.1306437;7.2406201999999995;1.5880000591278076;1673423568.5963497;-1.6800838708877563;-14.573527336120605;91.5195541381836
52;1673423568.6729949;47.1306436;7.2406203;1.7660000324249268;1673423568.7945845;-1.5235122442245483;-19.781219482421875;92.54484558105469
53;1673423568.8859296;47.1306434;7.2406203;1.9440001249313354;1673423569.0055213;-1.8190371990203857;-17.101186752319336;92.57752990722656
54;1673423569.1008244;47.1306431;7.2406203;2.120000123977661;1673423569.2048163;-2.3868157863616943;-18.065378189086914;92.84844207763672
55;1673423569.2810376;47.1306428;7.2406201999999995;2.3000001907348633;1673423569.3894227;-2.053809881210327;-21.944425582885742;93.37521362304688
56;1673423569.4699948;47.130642599999995;7.2406201;2.4820001125335693;1673423569.575937;-2.145146369934082;-20.397785186767578;93.52538299560547
57;1673423569.659447;47.1306424;7.24062;2.6740000247955322;1673423569.7741723;-2.063046455383301;-18.64185333251953;93.44892120361328
58;1673423569.863521;47.1306422;7.2406201;2.864000082015991;1673423569.9850838;-2.1849136352539062;-21.706371307373047;93.59258270263672
59;1673423570.0734584;47.130642099999996;7.2406201;3.0480000972747803;1673423570.184284;-1.9369680881500244;-21.512435913085938;93.60961151123047
60;1673423570.2697504;47.1306422;7.2406201;3.2240002155303955;1673423570.3903546;-2.1362464427948;-17.072917938232422;93.37545776367188
61;1673423570.4728894;47.1306423;7.2406201;3.4040000438690186;1673423570.5846937;-2.401606559753418;-19.422094345092773;93.5455093383789
62;1673423570.664289;47.1306424;7.24062;3.5870001316070557;1673423570.7760832;-2.327885389328003;-19.89480209350586;93.6091537475586
63;1673423570.8576252;47.1306424;7.2406198999999996;3.7710001468658447;1673423570.9830973;-2.4956727027893066;-17.383729934692383;93.30631256103516
64;1673423571.0909927;47.1306423;7.2406198999999996;3.9620001316070557;1673423571.222847;-2.480205774307251;-18.322038650512695;93.43661499023438
65;1673423571.2975607;47.130642099999996;7.2406198999999996;4.1610002517700195;1673423571.4079502;-2.35123872756958;-21.517436981201172;93.49419403076172
66;1673423571.4963264;47.130641999999995;7.240619799999999;4.355000019073486;1673423571.6164935;-2.5818636417388916;-18.01592445373535;93.41902923583984
67;1673423571.696518;47.130641999999995;7.240619799999999;4.551000118255615;1673423571.8205614;-2.836292028427124;-18.050302505493164;93.31981658935547
68;1673423571.914815;47.130641999999995;7.240619799999999;4.747000217437744;1673423572.0324697;-2.3326425552368164;-21.024240493774414;93.57555389404297
69;1673423572.1130297;47.1306419;7.240619799999999;4.943000316619873;1673423572.2219005;-2.3951029777526855;-19.47408676147461;93.56025695800781
70;1673423572.3039231;47.1306417;7.240619799999999;5.139000415802002;1673423572.4465158;-2.7165651321411133;-17.958831787109375;93.31426239013672
71;1673423572.5535069;47.130641499999996;7.240619799999999;5.332000255584717;1673423572.6516666;-2.532942533493042;-21.540876388549805;93.4793472290039
72;1673423572.73028;47.130641399999995;7.2406197;5.526000499725342;1673423572.8342714;-2.5706260204315186;-20.628978729248047;93.43213653564453
73;1673423572.91681;47.1306413;7.2406197;5.717000484466553;1673423573.0178716;-2.6418027877807617;-17.70526695251465;93.3167724609375
74;1673423573.0842397;47.130641399999995;7.2406197;5.906000137329102;1673423573.187265;-2.583322525024414;-20.325632095336914;93.42678833007812
75;1673423573.2678285;47.130641499999996;7.240619799999999;6.095000267028809;1673423573.38164;-2.4686176776885986;-20.801471710205078;93.5151596069336
76;1673423573.4680638;47.130641499999996;7.240619799999999;6.2910003662109375;1673423573.5789149;-2.6551778316497803;-18.11150360107422;93.21489715576172
77;1673423573.662414;47.130641399999995;7.240619799999999;6.491000175476074;1673423573.7781143;-2.6229248046875;-19.126131057739258;93.4361572265625
78;1673423573.8577514;47.1306413;7.2406198999999996;6.690000534057617;1673423573.9812815;-2.3633878231048584;-21.971616744995117;93.55528259277344
79;1673423574.0696616;47.1306413;7.2406198999999996;6.88200044631958;1673423574.183419;-2.392435312271118;-18.277202606201172;93.41334533691406
80;1673423574.2728128;47.130641399999995;7.24062;7.074000358581543;1673423574.442869;-2.453685760498047;-18.42618751525879;93.29493713378906
81;1673423574.5302677;47.130641499999996;7.2406201;7.266000270843506;1673423574.672323;-2.294450283050537;-21.419822692871094;93.50590515136719
82;1673423574.7353797;47.130641499999996;7.2406201;7.462000370025635;1673423574.8237522;-2.332674980163574;-18.969276428222656;93.53656768798828
83;1673423574.9008617;47.130641499999996;7.2406201;7.659000396728516;1673423575.0142286;-2.6283655166625977;-17.837369918823242;93.24980163574219
84;1673423575.094303;47.130641399999995;7.2406201;7.8560004234313965;1673423575.2109964;-2.337576150894165;-21.401975631713867;93.5437240600586
85;1673423575.2921333;47.130641399999995;7.2406201;8.052000045776367;1673423575.4430122;-2.4784598350524902;-20.687959671020508;93.40879821777344
86;1673423575.53144;47.130641399999995;7.2406201;8.242000579833984;1673423575.6364143;-2.5639915466308594;-17.67550277709961;93.37452697753906
87;1673423575.7189808;47.130641499999996;7.2406201;8.430000305175781;1673423575.8268802;-2.5432114601135254;-20.240299224853516;93.55583953857422
88;1673423575.93093;47.1306416;7.2406201;8.618000030517578;1673423576.0789328;-2.242708444595337;-20.524089813232422;93.57842254638672
89;1673423576.1478648;47.1306416;7.2406201999999995;8.812000274658203;1673423576.2382743;-2.551867723464966;-17.701337814331055;93.24559020996094
90;1673423576.3090837;47.1306416;7.2406201999999995;9.00200080871582;1673423576.4179912;-2.5237553119659424;-19.391820907592773;93.35931396484375
91;1673423576.486311;47.130641499999996;7.2406201999999995;9.193000793457031;1673423576.5923276;-2.306708335876465;-21.747962951660156;93.619384765625
92;1673423576.6650977;47.130641499999996;7.2406201999999995;9.383000373840332;1673423576.781778;-2.3541412353515625;-17.879026412963867;93.30970001220703
93;1673423576.8741593;47.130641499999996;7.2406201999999995;9.574000358581543;1673423577.002742;-2.5511302947998047;-18.707990646362305;93.33126831054688
94;1673423577.0901923;47.1306416;7.2406201999999995;9.766000747680664;1673423577.2000484;-2.2664549350738525;-21.2259521484375;93.52418518066406
95;1673423577.2870123;47.1306416;7.2406201999999995;9.960000038146973;1673423577.4061272;-2.272920608520508;-18.911453247070312;93.44183349609375
96;1673423577.4866931;47.1306416;7.2406201999999995;10.164000511169434;1673423577.601518;-2.2713615894317627;-16.71337127685547;93.1843490600586
97;1673423577.6791587;47.1306416;7.2406203;10.451000213623047;1673423577.7822917;-2.449293613433838;-20.698822021484375;93.32002258300781
98;1673423577.8628633;47.1306417;7.2406203;10.820000648498535;1673423577.9827442;-2.432776689529419;-22.286720275878906;93.46347045898438
99;1673423578.081305;47.130641999999995;7.2406204;11.201000213623047;1673423578.2057106;-2.507828712463379;-17.01174545288086;93.2380142211914
100;1673423578.2932398;47.1306424;7.2406204;11.59000015258789;1673423578.4275694;-2.2581729888916016;-17.654142379760742;93.3924789428711
101;1673423578.500974;47.130642699999996;7.2406204999999995;11.988000869750977;1673423578.6072361;-2.0386950969696045;-19.20283317565918;93.63206481933594
102;1673423578.7114713;47.1306429;7.2406204999999995;12.395000457763672;1673423578.8071277;-2.1968252658843994;-16.218111038208008;93.31829071044922
103;1673423578.8765585;47.1306429;7.2406204999999995;12.801000595092773;1673423578.9867597;-2.237626075744629;-16.25876808166504;93.36119842529297
104;1673423579.0682275;47.1306428;7.2406204999999995;13.205000877380371;1673423579.1976728;-2.075254201889038;-20.149080276489258;93.56077575683594
105;1673423579.2808638;47.130642599999995;7.2406204999999995;13.605000495910645;1673423579.4010797;-2.1843838691711426;-17.546573638916016;93.45135498046875
106;1673423579.4813986;47.1306425;7.2406204999999995;14.007000923156738;1673423579.600791;-2.70153546333313;-16.790353775024414;93.27104949951172
107;1673423579.6834111;47.1306425;7.2406204;14.409000396728516;1673423579.795444;-2.383066415786743;-19.88912582397461;93.50377655029297
108;1673423579.8722003;47.1306424;7.2406204;14.816000938415527;1673423579.981726;-2.2159180641174316;-19.325355529785156;93.55094909667969
109;1673423580.0692408;47.1306423;7.2406203;15.225000381469727;1673423580.1860948;-2.5889179706573486;-17.428272247314453;93.32135009765625
110;1673423580.2717185;47.130642099999996;7.2406203;15.640000343322754;1673423580.3924766;-2.35978102684021;-19.58268165588379;93.47293853759766
111;1673423580.476017;47.130641999999995;7.2406203;16.053001403808594;1673423580.5901518;-2.1561532020568848;-20.93022918701172;93.56344604492188
112;1673423580.6756978;47.130641999999995;7.2406203;16.46000099182129;1673423580.7890568;-2.4603374004364014;-17.208932876586914;93.39628601074219
113;1673423580.8716571;47.130642099999996;7.2406203;16.85500144958496;1673423580.9815085;-2.4385228157043457;-18.448083877563477;93.41075897216797
114;1673423581.0640285;47.1306422;7.2406203;17.25400161743164;1673423581.181088;-2.3448033332824707;-20.51129913330078;93.49593353271484
115;1673423581.2710853;47.1306422;7.2406201999999995;17.658000946044922;1673423581.3874133;-2.364455223083496;-17.964372634887695;93.35969543457031
116;1673423581.4637713;47.1306422;7.2406201999999995;18.06100082397461;1673423581.5736377;-2.527381658554077;-17.439044952392578;93.2488021850586
117;1673423581.6552901;47.130642099999996;7.2406201;18.454999923706055;1673423581.7719688;-2.4001712799072266;-20.684375762939453;93.4776382446289
118;1673423581.858493;47.130642099999996;7.2406201;18.851001739501953;1673423581.9752045;-2.3886146545410156;-18.71474838256836;93.44129943847656
119;1673423582.0645404;47.130642099999996;7.2406201;19.246000289916992;1673423582.1851082;-2.577822208404541;-16.854713439941406;93.40062713623047
120;1673423582.2725105;47.1306422;7.2406201;19.636001586914062;1673423582.3931801;-2.430025100708008;-19.757781982421875;93.43219757080078
121;1673423582.4815352;47.1306423;7.2406201;20.029001235961914;1673423582.6030927;-2.4703867435455322;-19.280672073364258;93.46004486083984
122;1673423582.6865885;47.1306424;7.24062;20.428001403808594;1673423582.796464;-2.8466498851776123;-16.890878677368164;93.39712524414062
123;1673423582.876058;47.1306423;7.240619799999999;20.830001831054688;1673423582.9810476;-2.7740609645843506;-18.632461547851562;93.50753021240234
124;1673423583.0567346;47.1306423;7.240619799999999;21.23000144958496;1673423583.1724427;-2.781858205795288;-20.690916061401367;93.59574127197266
125;1673423583.2598379;47.1306424;7.240619799999999;21.62900161743164;1673423583.3785026;-2.8877570629119873;-16.87189292907715;93.30054473876953
126;1673423583.463004;47.1306424;7.240619799999999;22.025001525878906;1673423583.577774;-2.773073673248291;-17.73107147216797;93.44048309326172
127;1673423583.6651747;47.1306425;7.240619799999999;22.424001693725586;1673423583.7760508;-2.386519432067871;-20.333988189697266;93.42757415771484
128;1673423583.8566208;47.1306425;7.2406198999999996;22.826000213623047;1673423583.9635766;-2.436905860900879;-17.773998260498047;93.3211441040039
129;1673423584.0568478;47.1306424;7.2406198999999996;23.23200035095215;1673423584.1832871;-2.5373055934906006;-17.095672607421875;93.28575897216797
130;1673423584.2677772;47.1306424;7.24062;23.64000129699707;1673423584.37867;-2.462254524230957;-20.216358184814453;93.55390930175781
131;1673423584.4563832;47.1306423;7.24062;24.045001983642578;1673423584.5682719;-2.337353229522705;-18.945241928100586;93.4316177368164
132;1673423584.6654615;47.1306424;7.24062;24.44700050354004;1673423584.7801874;-2.639970064163208;-16.594018936157227;93.27458953857422
133;1673423584.8744185;47.1306424;7.24062;24.84200096130371;1673423584.9833336;-2.352123737335205;-19.346712112426758;93.57353210449219
134;1673423585.062995;47.1306425;7.24062;25.24300193786621;1673423585.187539;-2.245553731918335;-19.401872634887695;93.63752746582031
135;1673423585.277021;47.1306425;7.24062;25.649002075195312;1673423585.4007025;-2.4076859951019287;-17.045026779174805;93.32197570800781
136;1673423585.4852388;47.1306424;7.24062;26.062002182006836;1673423585.5833397;-2.7474777698516846;-17.62620735168457;93.44764709472656
137;1673423585.6600988;47.1306423;7.24062;26.470001220703125;1673423585.7718978;-2.461815357208252;-20.955991744995117;93.5965576171875
138;1673423585.869057;47.1306422;7.24062;26.874000549316406;1673423586.0003772;-2.6162285804748535;-17.63606834411621;93.24020385742188
139;1673423586.0916808;47.1306422;7.24062;27.269001007080078;1673423586.2073846;-2.8053646087646484;-17.481449127197266;93.36009979248047
140;1673423586.2958918;47.1306422;7.24062;27.668001174926758;1673423586.3930492;-2.42447566986084;-20.887636184692383;93.5674057006836
141;1673423586.4736762;47.1306422;7.24062;28.069002151489258;1673423586.5865107;-2.516392230987549;-18.30154037475586;93.4570541381836
142;1673423586.6700041;47.1306422;7.24062;28.47100067138672;1673423586.7886353;-2.6559829711914062;-17.009323120117188;93.20012664794922
143;1673423586.871156;47.130642099999996;7.2406201;28.8700008392334;1673423586.9868765;-2.4072415828704834;-20.000328063964844;93.54084014892578
144;1673423587.0781856;47.130642099999996;7.2406201;29.269001007080078;1673423587.205712;-2.542919158935547;-19.460294723510742;93.56883239746094
145;1673423587.2970543;47.130642099999996;7.2406201;29.665000915527344;1673423587.4099226;-2.700068473815918;-16.946178436279297;93.3652572631836
146;1673423587.504161;47.1306422;7.2406201;30.055002212524414;1673423587.6189096;-2.6639392375946045;-18.93869972229004;93.48307800292969
147;1673423587.7053318;47.1306423;7.2406201;30.452001571655273;1673423587.8112738;-2.359341859817505;-19.613998413085938;93.65972137451172
148;1673423587.8908644;47.1306423;7.2406201;30.852001190185547;1673423587.9997349;-2.667027711868286;-17.220378875732422;93.32051086425781
149;1673423588.0852425;47.1306423;7.2406201;31.255001068115234;1673423588.194245;-2.7129690647125244;-17.91793441772461;93.3338623046875
150;1673423588.296466;47.1306422;7.24062;31.65900230407715;1673423588.3965712;-2.632179021835327;-21.061798095703125;93.51017761230469
151;1673423588.475168;47.1306422;7.24062;32.0620002746582;1673423588.5899043;-2.6458940505981445;-18.053470611572266;93.32606506347656
152;1673423588.6676528;47.1306422;7.24062;32.45600128173828;1673423588.783438;-2.8372604846954346;-17.085498809814453;93.16839599609375
153;1673423588.8649943;47.1306422;7.24062;32.85600280761719;1673423588.9826558;-2.551612377166748;-20.611495971679688;93.4644546508789
154;1673423589.0749311;47.1306423;7.2406201;33.25699996948242;1673423589.1955163;-2.498934507369995;-18.47894859313965;93.44474029541016
155;1673423589.2918215;47.1306423;7.2406201;33.659000396728516;1673423589.40856;-2.7921977043151855;-16.850093841552734;93.28562927246094
156;1673423589.500842;47.1306423;7.2406201;34.05900192260742;1673423589.6136196;-2.4893641471862793;-19.581823348999023;93.49044036865234
157;1673423589.692235;47.1306423;7.2406201;34.45600128173828;1673423589.8079374;-2.5020101070404053;-20.17116928100586;93.57109069824219
158;1673423589.8816755;47.1306424;7.2406201;34.85100173950195;1673423590.0012853;-2.900658130645752;-16.489418029785156;93.39286041259766
159;1673423590.0886889;47.1306425;7.2406201;35.2390022277832;1673423590.1926749;-2.8368022441864014;-18.037710189819336;93.3802261352539
160;1673423590.2732415;47.130642599999995;7.2406201;35.63300323486328;1673423590.3919082;-2.659233331680298;-20.16131019592285;93.60818481445312
161;1673423590.4754589;47.130642599999995;7.2406201;36.03300094604492;1673423590.5853066;-2.720228433609009;-17.43244171142578;93.38408660888672
162;1673423590.6629767;47.130642599999995;7.2406201;36.4370002746582;1673423590.7796865;-2.700669765472412;-17.013484954833984;93.37092590332031
163;1673423590.883674;47.1306425;7.2406201;36.84100341796875;1673423590.9906244;-2.458732843399048;-20.597997665405273;93.51716613769531
164;1673423591.076157;47.1306425;7.2406201;37.24400329589844;1673423591.18891;-2.549686908721924;-18.584545135498047;93.48164367675781
165;1673423591.274363;47.1306424;7.2406201;37.638999938964844;1673423591.3872979;-2.835164785385132;-16.84528160095215;93.2022476196289
166;1673423591.4796555;47.1306424;7.2406201;38.03900146484375;1673423591.594448;-2.637810707092285;-20.086694717407227;93.41651153564453
167;1673423591.694605;47.1306424;7.2406201999999995;38.441001892089844;1673423591.8122518;-2.4011590480804443;-19.068666458129883;93.57920837402344
168;1673423591.9016058;47.1306424;7.2406201999999995;38.84400177001953;1673423592.0075827;-2.76216197013855;-16.977426528930664;93.38093566894531
169;1673423592.085252;47.1306424;7.2406201;39.24700164794922;1673423592.1902487;-2.7135913372039795;-18.904909133911133;93.447265625
170;1673423592.275791;47.1306424;7.2406201;39.64900207519531;1673423592.391532;-2.5554513931274414;-20.260974884033203;93.50440979003906
171;1673423592.4740458;47.1306424;7.2406201;40.051002502441406;1673423592.591721;-2.7991602420806885;-16.63389778137207;93.393798828125
172;1673423592.6898363;47.1306424;7.2406201;40.441001892089844;1673423592.8055413;-2.7840311527252197;-18.13223648071289;93.53433990478516
173;1673423592.8890338;47.1306425;7.24062;40.8390007019043;1673423592.998917;-2.7694947719573975;-20.263898849487305;93.60694885253906
174;1673423593.0824366;47.1306425;7.2406198999999996;41.2400016784668;1673423593.2021024;-2.7852141857147217;-18.004121780395508;93.44928741455078
175;1673423593.2881417;47.1306425;7.2406198999999996;41.643001556396484;1673423593.4092498;-2.9553980827331543;-16.921627044677734;93.3093490600586
176;1673423593.51035;47.1306424;7.2406198999999996;42.044002532958984;1673423593.621138;-2.79482102394104;-20.345735549926758;93.43433380126953
177;1673423593.7085385;47.1306424;7.240619799999999;42.444000244140625;1673423593.8414688;-3.0119173526763916;-18.795480728149414;93.36421203613281
178;1673423593.9205248;47.1306423;7.240619799999999;42.83500289916992;1673423594.0323584;-3.0728557109832764;-16.755876541137695;93.25590515136719
179;1673423594.1178036;47.1306423;7.240619799999999;43.23200225830078;1673423594.2208266;-3.069650650024414;-19.18161392211914;93.35206604003906
180;1673423594.3224237;47.1306424;7.240619799999999;43.63100051879883;1673423594.4279304;-2.705227851867676;-19.524578094482422;93.59501647949219
181;1673423594.5094714;47.1306424;7.240619799999999;44.03300094604492;1673423594.6134603;-3.027256965637207;-16.78744888305664;93.38230895996094
182;1673423594.709642;47.1306424;7.240619799999999;44.439002990722656;1673423594.8077953;-2.905517578125;-18.118438720703125;93.37398529052734
183;1673423594.8854327;47.1306424;7.2406198999999996;44.84800338745117;1673423595.0118742;-2.851722478866577;-20.31205177307129;93.47542572021484
184;1673423595.0953903;47.1306424;7.2406198999999996;45.25200271606445;1673423595.1993892;-2.966475248336792;-17.348567962646484;93.34806823730469
185;1673423595.2789762;47.1306424;7.2406198999999996;45.64200210571289;1673423595.3937483;-2.9379875659942627;-17.51656723022461;93.4300537109375
186;1673423595.481239;47.1306424;7.2406198999999996;46.03900146484375;1673423595.5930533;-2.8186604976654053;-20.43195915222168;93.55316925048828
187;1673423595.6736488;47.1306424;7.2406198999999996;46.43800354003906;1673423595.7922788;-2.908749580383301;-18.837024688720703;93.46025848388672
188;1673423595.8787985;47.1306425;7.2406198999999996;46.8390007019043;1673423595.985776;-2.844060182571411;-16.719608306884766;93.34477996826172
189;1673423596.0770798;47.1306424;7.2406198999999996;47.24100112915039;1673423596.1918075;-2.7627744674682617;-19.304346084594727;93.58177947998047
190;1673423596.2764087;47.1306424;7.24062;47.6410026550293;1673423596.3970993;-2.6658358573913574;-20.148496627807617;93.57949829101562
191;1673423596.504019;47.1306423;7.24062;48.035003662109375;1673423596.6246183;-2.937924385070801;-17.782146453857422;93.3104019165039
192;1673423596.7121072;47.1306423;7.24062;48.402000427246094;1673423596.8160696;-2.9656822681427;-19.383615493774414;93.37281799316406
193;1673423596.9006414;47.1306423;7.2406198999999996;48.71900177001953;1673423597.0105631;-2.8287010192871094;-19.60079574584961;93.41088104248047
194;1673423597.0892024;47.1306423;7.2406198999999996;48.98800277709961;1673423597.2010956;-3.072275161743164;-16.678852081298828;93.28307342529297
195;1673423597.2875543;47.130642099999996;7.240619799999999;49.21200180053711;1673423597.4140062;-2.8372528553009033;-18.327739715576172;93.4284896850586
196;1673423597.5043986;47.1306418;7.2406197;49.39800262451172;1673423597.6240041;14.011943817138672;-2.1961488723754883;97.05228424072266
197;1673423597.7094529;47.130641;7.240618899999999;49.55500411987305;1673423597.808563;27.610942840576172;27.25408363342285;110.10004425048828
198;1673423597.888154;47.1306387;7.2406158;49.682003021240234;1673423598.006801;31.27446746826172;43.92489242553711;119.06143188476562
199;1673423598.0962346;47.1306339;7.2406092;49.78200149536133;1673423598.2110193;20.422529220581055;47.21762466430664;125.60479736328125
200;1673423598.2925968;47.1306266;7.240599;49.83100128173828;1673423598.4112623;6.02417516708374;49.2462158203125;137.57394409179688
201;1673423598.4996176;47.1306168;7.2405858;49.867000579833984;1673423598.6114337;-8.66753101348877;49.435813903808594;147.68670654296875
202;1673423598.6880882;47.1306048;7.240570099999999;49.893001556396484;1673423598.806749;-24.65089225769043;46.661705017089844;158.43649291992188
203;1673423598.8931828;47.1305907;7.2405522;49.9160041809082;1673423599.002052;-38.22889709472656;42.68352508544922;172.0770263671875
204;1673423599.0855505;47.130574499999994;7.240532;49.93400192260742;1673423599.1963723;-48.85324478149414;38.4661979675293;-175.63424682617188
205;1673423599.297;47.1305561;7.2405092;49.94900131225586;1673423599.4161294;-55.76741409301758;32.94102096557617;-164.37948608398438
206;1673423599.5064516;47.1305358;7.240483599999999;49.932003021240234;1673423599.616318;-52.34330368041992;25.294387817382812;-155.79554748535156
207;1673423599.693959;47.130514299999994;7.240455799999999;49.87900161743164;1673423599.8048642;-46.87767791748047;20.627126693725586;-150.4297637939453
208;1673423599.8864133;47.130492;7.2404265;49.814002990722656;1673423600.0030842;-48.25187683105469;14.221620559692383;-143.26181030273438
209;1673423600.089504;47.130469399999996;7.2403961;49.746002197265625;1673423600.1993682;-47.62094497680664;12.076642990112305;-137.50338745117188
210;1673423600.2799203;47.1304465;7.2403647;49.68600082397461;1673423600.4015174;-44.1474609375;5.825192451477051;-130.1710968017578
211;1673423600.4919016;47.130423799999996;7.240332899999999;49.64200210571289;1673423600.625198;-44.52638626098633;1.126152515411377;-129.3703155517578
212;1673423600.7057624;47.1304008;7.2403008;49.60300064086914;1673423600.8224757;-44.309940338134766;2.322751998901367;-132.83407592773438
213;1673423600.9147534;47.130377599999996;7.2402688;49.586002349853516;1673423601.0355458;-46.005619049072266;3.5401744842529297;-134.19009399414062
214;1673423601.134703;47.130354;7.2402368;49.586002349853516;1673423601.2406461;-47.836116790771484;5.024312496185303;-134.9093475341797
215;1673423601.316869;47.130330199999996;7.2402047;49.60400390625;1673423601.4164662;-47.763954162597656;6.159866809844971;-135.19317626953125
216;1673423601.4931293;47.1303061;7.2401725;49.63200378417969;1673423601.618597;-47.249454498291016;6.897094249725342;-135.30589294433594
217;1673423601.6933434;47.130282099999995;7.2401402;49.660003662109375;1673423601.8091295;-47.899696350097656;7.342560768127441;-135.37286376953125
218;1673423601.8916776;47.130258;7.2401076;49.70100402832031;1673423602.0200608;-48.135459899902344;7.695559978485107;-135.36151123046875
219;1673423602.1133819;47.1302337;7.2400747999999995;49.749000549316406;1673423602.225276;-48.91718673706055;7.696454048156738;-135.21209716796875
220;1673423602.3035936;47.1302093;7.240041499999999;49.79500198364258;1673423602.4158835;-49.2453727722168;7.563852787017822;-135.1197967529297
221;1673423602.5101633;47.130184799999995;7.2400079999999996;49.836002349853516;1673423602.6357007;-48.77825927734375;7.041910648345947;-134.9296875
222;1673423602.7134392;47.1301603;7.2399743;49.87000274658203;1673423602.8194706;-48.38346481323242;6.898882865905762;-134.94923400878906
223;1673423602.9118977;47.1301358;7.2399404;49.897003173828125;1673423603.0280526;-47.993438720703125;6.796728610992432;-134.94583129882812
224;1673423603.102248;47.130111299999996;7.2399065;49.906002044677734;1673423603.221773;-47.26841735839844;6.652211666107178;-135.01678466796875
225;1673423603.3058949;47.1300867;7.2398726;49.91800308227539;1673423603.4262733;-47.2501335144043;6.825294017791748;-135.18753051757812
226;1673423603.5214882;47.130062099999996;7.239838499999999;49.93300247192383;1673423603.6401787;-47.94999694824219;6.910470962524414;-135.2686004638672
227;1673423603.7226992;47.1300375;7.2398045;49.95100402832031;1673423603.822815;-48.567787170410156;6.8674750328063965;-135.24273681640625
228;1673423603.9131415;47.1300129;7.239770399999999;49.967002868652344;1673423604.040595;-48.50439453125;6.7449469566345215;-135.21604919433594
229;1673423604.131927;47.1299882;7.239736199999999;49.97700119018555;1673423604.2541063;-48.01634979248047;6.6184868812561035;-135.2113800048828
230;1673423604.3385925;47.129963599999996;7.2397022;49.97100067138672;1673423604.4640758;-47.38071823120117;6.691975116729736;-135.29275512695312
231;1673423604.5514703;47.1299389;7.2396682;49.97200393676758;1673423604.6471257;-47.59346008300781;6.738853454589844;-135.34762573242188
232;1673423604.7433612;47.129914299999996;7.239634199999999;49.97300338745117;1673423604.8444784;-48.04525375366211;6.783106803894043;-135.38345336914062
233;1673423604.917228;47.1298896;7.2396002;49.97600173950195;1673423605.0144062;-48.22443771362305;6.71547794342041;-135.33770751953125
234;1673423605.0998552;47.1298649;7.2395662;49.974002838134766;1673423605.2177162;-48.052589416503906;6.651995658874512;-135.3060302734375
235;1673423605.3107748;47.1298402;7.239532199999999;49.97100067138672;1673423605.422586;-47.8230094909668;6.66798734664917;-135.31724548339844
236;1673423605.508033;47.1298154;7.2394982;49.96600341796875;1673423605.613003;-47.63928985595703;6.645339488983154;-135.31845092773438
237;1673423605.6974745;47.1297907;7.2394643;49.957000732421875;1673423605.8161373;-47.506168365478516;6.555044651031494;-135.3083038330078
238;1673423605.9015834;47.129766;7.2394304;49.95000076293945;1673423606.0221868;-47.523983001708984;6.623013019561768;-135.35826110839844
239;1673423606.1017962;47.1297414;7.2393965;49.94400405883789;1673423606.2096767;-47.72928237915039;6.676485061645508;-135.34649658203125
240;1673423606.2907732;47.129716699999996;7.2393626;49.94200134277344;1673423606.4010959;-47.92055892944336;6.696496963500977;-135.31765747070312
241;1673423606.4924226;47.129692;7.2393288;49.941001892089844;1673423606.6032426;-47.86865234375;6.702699184417725;-135.29444885253906
242;1673423606.684787;47.1296673;7.2392949;49.939002990722656;1673423606.8103247;-47.75697326660156;6.528787612915039;-135.20472717285156
243;1673423606.9045417;47.1296426;7.239261099999999;49.93800354003906;1673423607.0212233;-47.67215347290039;6.53312873840332;-135.20834350585938
244;1673423607.114483;47.1296179;7.2392273;49.94400405883789;1673423607.2272677;-47.90187454223633;6.763782501220703;-135.26490783691406
245;1673423607.3621926;47.129593299999996;7.2391935;49.95100402832031;1673423607.467189;-48.34540557861328;6.659524917602539;-135.14369201660156
246;1673423607.5395699;47.1295686;7.2391596;49.95600128173828;1673423607.6625693;-48.33819580078125;6.5254693031311035;-135.07711791992188
247;1673423607.7536182;47.129543899999994;7.2391257;49.95900344848633;1673423607.868347;-47.998287200927734;6.523046493530273;-135.05043029785156
248;1673423607.9386568;47.129519099999996;7.2390918;49.9640007019043;1673423608.0456922;-47.9642448425293;6.419031620025635;-134.9643096923828
249;1673423608.1384213;47.1294943;7.239057799999999;49.96600341796875;1673423608.2497435;-47.893104553222656;6.407555103302002;-134.9413604736328
250;1673423608.331432;47.1294696;7.2390238;49.96600341796875;1673423608.4415553;-47.914127349853516;6.398407936096191;-134.88235473632812
251;1673423608.5240705;47.129444799999995;7.2389899;49.96800231933594;1673423608.6454082;-48.026607513427734;6.367830753326416;-134.837646484375
252;1673423608.722543;47.129419999999996;7.2389559;49.970001220703125;1673423608.836347;-47.57271194458008;8.64274787902832;-135.35626220703125
253;1673423608.9239016;47.1293953;7.238921899999999;49.97100067138672;1673423609.0425525;-47.263179779052734;12.851917266845703;-135.81256103515625
254;1673423609.1260602;47.1293709;7.238887699999999;49.97100067138672;1673423609.2398167;-46.50331115722656;8.998703956604004;-133.645751953125
255;1673423609.322886;47.1293467;7.238853199999999;49.97500228881836;1673423609.4361546;-38.189720153808594;9.806416511535645;-133.57530212402344
256;1673423609.5196655;47.129323;7.2388188;50.00300216674805;1673423609.639318;-22.01326560974121;11.95832633972168;-134.8136444091797
257;1673423609.7257314;47.129300099999995;7.2387855;50.02100372314453;1673423609.8502266;-3.106671094894409;10.609823226928711;-135.8311767578125
258;1673423609.9337285;47.1292787;7.2387543;50.03000259399414;1673423610.0552926;11.733384132385254;9.647686958312988;-137.00491333007812
259;1673423610.133963;47.1292593;7.2387263;50.02300262451172;1673423610.244195;19.937705993652344;11.704769134521484;-137.421875
260;1673423610.3273184;47.1292422;7.238702099999999;50.00800323486328;1673423610.437443;27.50079917907715;12.837748527526855;-137.8018035888672
261;1673423610.5207255;47.1292276;7.238681499999999;49.96900177001953;1673423610.6374614;25.59824562072754;7.507951736450195;-139.39744567871094
262;1673423610.725397;47.1292152;7.238664399999999;49.8900032043457;1673423610.8478703;27.048690795898438;8.391410827636719;-139.65399169921875
263;1673423610.9339228;47.129205;7.2386504;49.836002349853516;1673423611.044631;30.11471176147461;11.71397876739502;-139.44081115722656
264;1673423611.1293855;47.1291969;7.2386389;49.803001403808594;1673423611.240269;28.97986602783203;12.970685005187988;-138.37384033203125
265;1673423611.3247945;47.1291909;7.238629599999999;49.807003021240234;1673423611.4356263;20.80931854248047;13.905560493469238;-137.2337188720703
266;1673423611.5162008;47.1291862;7.2386218;49.83400344848633;1673423611.6324282;11.183550834655762;10.747077941894531;-136.6669158935547
267;1673423611.7113152;47.1291823;7.2386149;49.87700271606445;1673423611.831535;1.9169625043869019;8.93876838684082;-136.33319091796875
268;1673423611.9193664;47.129178499999995;7.2386086;49.922000885009766;1673423612.0352561;-0.08777180314064026;6.698511123657227;-136.77688598632812
269;1673423612.1248608;47.1291744;7.2386023999999995;49.96200180053711;1673423612.248838;0.17490966618061066;7.421292781829834;-137.59262084960938
270;1673423612.3272378;47.1291702;7.2385968;49.987003326416016;1673423612.4378834;3.8198039531707764;6.281386375427246;-138.16378784179688
271;1673423612.5354319;47.129165799999996;7.2385915;50.00600051879883;1673423612.6795568;8.480400085449219;6.206702709197998;-138.06163024902344
272;1673423612.7461379;47.1291614;7.2385867;50.02800369262695;1673423612.8396764;12.936927795410156;7.857138633728027;-137.43023681640625
273;1673423612.9162827;47.129157299999996;7.2385822;50.047000885009766;1673423613.0228505;14.739001274108887;9.229543685913086;-136.68569946289062
274;1673423613.1083922;47.1291534;7.2385781;50.07200241088867;1673423613.2469249;-10.026050567626953;16.83626937866211;-139.19058227539062
275;1673423613.344145;47.1291495;7.2385736;50.12900161743164;1673423613.4782917;-20.214086532592773;10.475174903869629;-138.60845947265625
276;1673423613.558382;47.1291447;7.2385674;50.21900177001953;1673423613.6764202;-17.196414947509766;6.41818904876709;-137.55029296875
277;1673423613.7603655;47.1291386;7.23856;50.40400314331055;1673423613.8650947;-17.268903732299805;8.834600448608398;-137.47047424316406
278;1673423613.940385;47.1291314;7.2385515;50.71200180053711;1673423614.0484643;-32.26861572265625;18.774152755737305;-138.1870574951172
279;1673423614.132039;47.1291231;7.238541;51.07500076293945;1673423614.243242;-28.99939727783203;16.30957794189453;-136.03981018066406
280;1673423614.326266;47.129114;7.238528199999999;51.45900344848633;1673423614.43638;-24.76277732849121;15.255231857299805;-136.26345825195312
281;1673423614.5219166;47.129104399999996;7.2385136999999995;51.86000061035156;1673423614.6398182;-19.42686653137207;11.393733024597168;-135.97866821289062
282;1673423614.7213798;47.1290944;7.2384981999999995;52.275001525878906;1673423614.8365283;-14.934877395629883;8.066160202026367;-136.34251403808594
283;1673423614.9192061;47.129084399999996;7.238482299999999;52.691001892089844;1673423615.0301735;-9.983983039855957;5.99822473526001;-136.5922088623047
284;1673423615.1234121;47.1290744;7.2384666;53.10400390625;1673423615.2360554;-7.286428451538086;6.983591079711914;-137.1761932373047
285;1673423615.318682;47.129064299999996;7.2384512999999995;53.512001037597656;1673423615.4349678;-5.671911716461182;8.305188179016113;-137.6032257080078
286;1673423615.5281358;47.1290543;7.238436699999999;53.91800308227539;1673423615.6396549;-6.352837085723877;8.474481582641602;-137.78048706054688
287;1673423615.7327936;47.1290445;7.2384227999999995;54.320003509521484;1673423615.8373342;-7.574228763580322;8.083218574523926;-137.93092346191406
288;1673423615.9160316;47.1290346;7.2384096;54.72300338745117;1673423616.0230777;-9.301411628723145;6.998934745788574;-137.41603088378906
289;1673423616.1215775;47.1290249;7.2383969;55.12400436401367;1673423616.2341123;-10.641408920288086;6.961195945739746;-136.95639038085938
290;1673423616.3172293;47.1290152;7.238384399999999;55.522003173828125;1673423616.436144;-11.275418281555176;7.867794513702393;-136.6283721923828
291;1673423616.5121346;47.1290055;7.2383719;55.923004150390625;1673423616.6400626;-12.169168472290039;9.66826057434082;-136.59136962890625
292;1673423616.747047;47.1289957;7.2383592;56.327003479003906;1673423616.8664494;-12.971830368041992;11.907647132873535;-136.82687377929688
293;1673423616.9509947;47.128985899999996;7.2383463;56.728004455566406;1673423617.0856514;-13.483576774597168;13.454789161682129;-137.1459503173828
294;1673423617.1761994;47.128976099999996;7.238333099999999;57.12600326538086;1673423617.2830882;-14.100423812866211;12.7205171585083;-137.0724639892578
295;1673423617.3677912;47.128966299999995;7.2383197;57.52300262451172;1673423617.4735823;-14.14645004272461;10.611968040466309;-137.2001953125
296;1673423617.559319;47.1289562;7.2383063;57.92000198364258;1673423617.683225;-13.49626350402832;8.808128356933594;-137.11517333984375
297;1673423617.766564;47.128946199999994;7.2382928;58.31900405883789;1673423617.8852797;-12.543435096740723;8.305476188659668;-136.77285766601562
298;1673423617.957499;47.1289361;7.2382791;58.720001220703125;1673423618.054705;-11.214188575744629;9.040791511535645;-136.80471801757812
299;1673423618.1463468;47.128926199999995;7.238265299999999;59.12200164794922;1673423618.2674909;-11.069117546081543;10.421943664550781;-136.75367736816406
300;1673423618.3827858;47.1289162;7.2382515;59.525001525878906;1673423618.4947705;-11.053522109985352;11.81539535522461;-136.87132263183594
301;1673423618.5761836;47.1289064;7.2382377;59.923004150390625;1673423618.7008584;-11.656691551208496;12.237929344177246;-137.1937255859375
302;1673423618.7831945;47.128896499999996;7.2382241;60.32100296020508;1673423618.8917794;-12.348908424377441;12.099390983581543;-137.26344299316406
303;1673423618.9698625;47.1288866;7.2382105999999995;60.71900177001953;1673423619.0794337;-12.5433931350708;11.016359329223633;-136.96534729003906
304;1673423619.1636975;47.1288766;7.2381972;61.11600112915039;1673423619.2694275;-12.708608627319336;9.435508728027344;-136.6985321044922
305;1673423619.3522294;47.128866599999995;7.2381836999999996;61.5160026550293;1673423619.4714606;-12.553608894348145;8.580671310424805;-136.53147888183594
306;1673423619.5593877;47.1288567;7.2381702;61.91800308227539;1673423619.672544;-12.233214378356934;8.500103950500488;-136.5263671875
307;1673423619.7576888;47.1288468;7.238156699999999;62.31700134277344;1673423619.8809435;-12.166353225708008;8.591329574584961;-136.5947265625
308;1673423619.9591918;47.1288371;7.238143099999999;62.71400451660156;1673423620.0709422;-11.952030181884766;9.697713851928711;-136.82273864746094
309;1673423620.1607442;47.1288274;7.2381293;63.11100387573242;1673423620.2703946;-12.088552474975586;10.894744873046875;-136.76400756835938
310;1673423620.3573632;47.1288176;7.238115499999999;63.509002685546875;1673423620.4581544;-12.015788078308105;11.58184814453125;-136.91400146484375
311;1673423620.5334895;47.1288079;7.238101599999999;63.90500259399414;1673423620.6481862;-12.219926834106445;11.902942657470703;-137.3688507080078
312;1673423620.7277877;47.128797999999996;7.2380876999999995;64.302001953125;1673423620.851456;-12.545686721801758;11.295312881469727;-137.0163116455078
313;1673423620.94059;47.128788199999995;7.2380739;64.69800567626953;1673423621.059598;-12.74503231048584;11.082181930541992;-136.8979949951172
314;1673423621.1380947;47.1287783;7.2380602;65.0979995727539;1673423621.251959;-12.710728645324707;9.510117530822754;-136.47073364257812
315;1673423621.343885;47.1287683;7.2380466;65.4990005493164;1673423621.4602299;-12.857342720031738;9.494400024414062;-136.6594696044922
316;1673423621.5408669;47.128758399999995;7.238033199999999;65.90299987792969;1673423621.6636443;-12.702401161193848;8.385017395019531;-136.63951110839844
317;1673423621.745342;47.1287484;7.2380198;66.30500030517578;1673423621.8603094;-12.636528968811035;8.386467933654785;-136.39393615722656
318;1673423621.9447222;47.1287385;7.2380065;66.70800018310547;1673423622.054464;-12.530866622924805;8.126912117004395;-136.36199951171875
319;1673423622.1356387;47.1287285;7.2379929999999995;67.10700225830078;1673423622.2549756;-12.325115203857422;9.065621376037598;-136.49038696289062
320;1673423622.3393393;47.1287185;7.2379796;67.5050048828125;1673423622.4530122;-12.21966552734375;9.065889358520508;-136.38790893554688
321;1673423622.5355191;47.128708599999996;7.237965999999999;67.90299987792969;1673423622.6381102;-12.330195426940918;9.439030647277832;-136.8125
322;1673423622.7147834;47.128698799999995;7.2379523;68.3010025024414;1673423622.8227417;-12.206151962280273;9.682452201843262;-136.62901306152344
323;1673423622.9054263;47.128689;7.237938499999999;68.70100402832031;1673423623.0253363;-12.292757987976074;10.010909080505371;-136.6894989013672
324;1673423623.1111956;47.128679299999995;7.2379247;69.10000610351562;1673423623.2434618;-12.240326881408691;10.574088096618652;-136.79359436035156
325;1673423623.3390887;47.1286694;7.2379108;69.49700164794922;1673423623.4620514;-12.247085571289062;10.748059272766113;-136.86459350585938
326;1673423623.532583;47.1286595;7.2378971;69.89400482177734;1673423623.6419377;-12.436481475830078;11.004517555236816;-136.81637573242188
327;1673423623.729841;47.128649599999996;7.237883399999999;70.29700469970703;1673423623.858162;-12.27448844909668;10.548754692077637;-136.92819213867188
328;1673423623.9428089;47.1286397;7.2378697999999995;70.69800567626953;1673423624.0592215;-12.53279972076416;11.500497817993164;-136.98263549804688
329;1673423624.1456604;47.1286296;7.2378563;71.10000610351562;1673423624.2564967;-12.292295455932617;11.526409149169922;-136.82945251464844
330;1673423624.3444865;47.1286196;7.237842799999999;71.4990005493164;1673423624.4621377;-12.602608680725098;12.530118942260742;-137.00636291503906
331;1673423624.5439036;47.128609499999996;7.2378293;71.89900207519531;1673423624.6546087;-12.60296630859375;12.697335243225098;-137.00543212890625
332;1673423624.7356062;47.1285995;7.2378158;72.30000305175781;1673423624.8629692;-12.69244384765625;12.779474258422852;-137.1875457763672
333;1673423624.947677;47.1285896;7.2378021;72.70000457763672;1673423625.0628557;-12.582716941833496;12.491867065429688;-137.01853942871094
334;1673423625.148306;47.128579599999995;7.2377885;73.10000610351562;1673423625.2684126;-12.817076683044434;12.168371200561523;-137.16798400878906
335;1673423625.3478262;47.1285697;7.2377749;73.50100708007812;1673423625.4597223;-12.904932975769043;12.176002502441406;-137.0414276123047
336;1673423625.542671;47.1285598;7.2377613;73.9020004272461;1673423625.657899;-13.069750785827637;11.822273254394531;-136.90704345703125
337;1673423625.7386217;47.128549899999996;7.2377477;74.3010025024414;1673423625.8526201;-13.161065101623535;11.710972785949707;-136.84832763671875
338;1673423625.938285;47.12854;7.237734;74.7030029296875;1673423626.0526612;-13.173203468322754;11.694083213806152;-136.83688354492188
339;1673423626.135079;47.1285301;7.237720299999999;75.10000610351562;1673423626.2557826;-12.887017250061035;11.28300952911377;-136.90208435058594
340;1673423626.348149;47.1285203;7.2377065;75.49500274658203;1673423626.4631946;-12.836925506591797;11.2645263671875;-137.09552001953125
341;1673423626.5382571;47.128510399999996;7.2376928;75.89100646972656;1673423626.6450298;-12.453483581542969;10.87159538269043;-137.03736877441406
342;1673423626.7226691;47.1285005;7.237679;76.29000091552734;1673423626.8647695;-12.392749786376953;10.858304977416992;-137.07369995117188
343;1673423626.9482734;47.1284905;7.2376653;76.69000244140625;1673423627.080061;-12.575013160705566;10.704076766967773;-136.98367309570312
344;1673423627.1702347;47.128480599999996;7.2376515999999995;77.08900451660156;1673423627.2878542;-13.24846076965332;10.633377075195312;-136.97296142578125
345;1673423627.3630903;47.1284707;7.237637899999999;77.49000549316406;1673423627.4731846;-13.200753211975098;9.871448516845703;-136.583740234375
346;1673423627.5789628;47.1284608;7.2376242;77.89200592041016;1673423627.7162764;-12.962218284606934;9.445440292358398;-136.30972290039062
347;1673423627.8019273;47.1284509;7.2376106;78.29300689697266;1673423627.9373515;-12.700148582458496;9.461732864379883;-136.23919677734375
348;1673423628.021359;47.128441099999996;7.237597;78.69400024414062;1673423628.1172533;-12.499224662780762;9.392610549926758;-136.3340301513672
349;1673423628.2145417;47.1284312;7.2375834;79.09500122070312;1673423628.3308864;-12.712291717529297;9.573663711547852;-136.76553344726562
350;1673423628.4365504;47.1284213;7.237569799999999;79.49500274658203;1673423628.5707147;-12.719710350036621;9.351790428161621;-137.00457763671875
351;1673423628.6382287;47.1284114;7.2375561;79.89400482177734;1673423628.776162;-12.900547981262207;9.423540115356445;-137.23387145996094
352;1673423628.8677917;47.128401499999995;7.2375425;80.29100036621094;1673423628.9615467;-13.423336029052734;9.298539161682129;-137.0853729248047
353;1673423629.0355463;47.1283916;7.2375288;80.68400573730469;1673423629.1552415;-13.548574447631836;9.379477500915527;-136.82745361328125
354;1673423629.2418854;47.1283817;7.2375150999999995;81.0770034790039;1673423629.350597;-12.962250709533691;9.449984550476074;-136.77523803710938
355;1673423629.436488;47.1283718;7.237501399999999;81.47500610351562;1673423629.519525;-11.893012046813965;9.488053321838379;-136.59335327148438
356;1673423629.6086786;47.128361999999996;7.2374876;81.87200164794922;1673423629.7258651;-11.18482494354248;10.085439682006836;-136.5860137939453
357;1673423629.8080382;47.1283521;7.2374738;82.27400207519531;1673423629.9177957;-11.876851081848145;9.919962882995605;-136.8017120361328
358;1673423629.9938807;47.1283422;7.2374601;82.67200469970703;1673423630.0956097;-12.630085945129395;9.369634628295898;-136.79148864746094
359;1673423630.1778016;47.1283323;7.2374464;83.07100677490234;1673423630.276277;-13.906820297241211;9.57509708404541;-136.96531677246094
360;1673423630.3514476;47.128322399999995;7.2374328;83.47200775146484;1673423630.459787;-14.238712310791016;10.14737606048584;-137.05743408203125
361;1673423630.5419717;47.1283125;7.2374192;83.87700653076172;1673423630.6629877;-13.522154808044434;10.532845497131348;-137.05426025390625
362;1673423630.7494779;47.1283026;7.2374056;84.2820053100586;1673423630.8601058;-12.679220199584961;10.434561729431152;-136.95281982421875
363;1673423630.9403672;47.128292699999996;7.2373921;84.6820068359375;1673423631.0562372;-11.590660095214844;10.415059089660645;-136.86570739746094
364;1673423631.141868;47.1282828;7.237378499999999;85.0790023803711;1673423631.2503006;-11.503084182739258;10.43806266784668;-136.86752319335938
365;1673423631.3361588;47.1282728;7.237364899999999;85.47000122070312;1673423631.4500551;-12.289708137512207;9.965624809265137;-136.82635498046875
366;1673423631.5353227;47.128262899999996;7.2373512;85.86500549316406;1673423631.6637168;-13.41639232635498;10.238395690917969;-136.8238983154297
367;1673423631.7497568;47.1282529;7.2373376;86.26000213623047;1673423631.8645475;-14.454941749572754;10.484779357910156;-136.9743194580078
368;1673423631.94368;47.1282429;7.2373237999999995;86.6550064086914;1673423632.0586584;-14.082611083984375;10.558465003967285;-137.0826416015625
369;1673423632.15063;47.128232999999994;7.237310099999999;87.05000305175781;1673423632.2655878;-12.670129776000977;10.576715469360352;-137.06710815429688
370;1673423632.3540764;47.1282231;7.2372964;87.44500732421875;1673423632.4672334;-11.774239540100098;10.517160415649414;-136.98304748535156
371;1673423632.5494342;47.128213099999996;7.2372827;87.83700561523438;1673423632.6583152;-11.023733139038086;10.339816093444824;-136.8643798828125
372;1673423632.7479527;47.128203199999994;7.2372691;88.23100280761719;1673423632.8656292;-11.416170120239258;10.348105430603027;-136.9624786376953
373;1673423632.9550908;47.1281933;7.2372555;88.62800598144531;1673423633.0581026;-12.643497467041016;10.197378158569336;-137.0100555419922
374;1673423633.143565;47.128183299999996;7.2372418;89.02300262451172;1673423633.2614434;-13.903342247009277;10.158015251159668;-137.01634216308594
375;1673423633.347578;47.1281733;7.237228;89.41800689697266;1673423633.461327;-14.04526138305664;10.435861587524414;-136.9710693359375
376;1673423633.5523934;47.1281634;7.2372143;89.81300354003906;1673423633.6734383;-13.051905632019043;10.378402709960938;-136.86785888671875
377;1673423633.7608113;47.128153499999996;7.2372007;90.20700073242188;1673423633.8962998;-12.215593338012695;10.426606178283691;-136.98306274414062
378;1673423633.9717927;47.128143699999995;7.2371871;90.60700225830078;1673423634.0735857;-11.368648529052734;10.313244819641113;-136.9838409423828
379;1673423634.1504529;47.1281338;7.2371735;91.00200653076172;1673423634.2700758;-11.380096435546875;10.260068893432617;-136.9419708251953
380;1673423634.359577;47.1281239;7.237159999999999;91.39700317382812;1673423634.4831023;-12.326555252075195;10.16047477722168;-136.9606475830078
381;1673423634.5618718;47.128113899999995;7.2371463;91.79200744628906;1673423634.6793783;-13.56041431427002;10.211421012878418;-137.09495544433594
382;1673423634.7687402;47.1281039;7.2371326;92.18600463867188;1673423634.8688414;-14.17618179321289;10.382218360900879;-137.03904724121094
383;1673423634.9494097;47.128093899999996;7.237119;92.5790023803711;1673423635.0750535;-13.343534469604492;10.634122848510742;-137.043212890625
384;1673423635.1696153;47.1280839;7.2371053;92.97400665283203;1673423635.2804646;-12.053587913513184;10.566335678100586;-136.893310546875
385;1673423635.3619704;47.128074;7.2370917;93.37200164794922;1673423635.475828;-11.262311935424805;10.495282173156738;-136.88905334472656
386;1673423635.5634265;47.128064099999996;7.2370782;93.76800537109375;1673423635.6874034;-11.06485366821289;10.22662353515625;-136.79273986816406
387;1673423635.780406;47.1280541;7.2370646;94.15900421142578;1673423635.8802702;-11.71331787109375;10.253436088562012;-136.97972106933594
388;1673423635.960706;47.1280442;7.2370510999999995;94.54900360107422;1673423636.064161;-12.878915786743164;10.34118938446045;-136.9952850341797
389;1673423636.1505625;47.128034199999995;7.2370375;94.94200134277344;1673423636.2672563;-13.849761962890625;10.288484573364258;-137.16983032226562
390;1673423636.3466372;47.1280243;7.237023799999999;95.34000396728516;1673423636.4545848;-13.874858856201172;10.465533256530762;-137.1826629638672
391;1673423636.5363264;47.1280143;7.2370103;95.73400115966797;1673423636.656266;-12.465486526489258;10.533639907836914;-137.02505493164062
392;1673423636.746621;47.128004399999995;7.2369967;96.12600708007812;1673423636.860392;-11.638265609741211;10.320704460144043;-136.73646545410156
393;1673423636.941153;47.1279945;7.2369832;96.52000427246094;1673423637.064274;-11.132041931152344;10.123849868774414;-136.6673583984375
394;1673423637.148105;47.1279846;7.2369696;96.91500091552734;1673423637.272987;-11.39577579498291;10.141195297241211;-136.83468627929688
395;1673423637.3563764;47.127974699999996;7.2369561;97.3080062866211;1673423637.468438;-12.529875755310059;10.188253402709961;-136.9224395751953
396;1673423637.547112;47.1279647;7.2369426;97.70000457763672;1673423637.6561902;-13.502005577087402;10.443353652954102;-136.98788452148438
397;1673423637.7425852;47.1279547;7.236929099999999;98.08900451660156;1673423637.8663058;-14.166069030761719;10.762892723083496;-137.1460723876953
398;1673423637.9548213;47.1279447;7.2369156;98.48200225830078;1673423638.0777836;-13.588022232055664;10.928563117980957;-137.148193359375
399;1673423638.1608841;47.1279348;7.236902;98.87800598144531;1673423638.2757037;-12.522455215454102;10.825823783874512;-136.95155334472656
400;1673423638.367819;47.1279249;7.2368885;99.2760009765625;1673423638.4802918;-11.361069679260254;10.662866592407227;-136.6986541748047
401;1673423638.566109;47.127914999999994;7.2368749999999995;99.67500305175781;1673423638.675356;-11.405216217041016;10.373316764831543;-136.62142944335938
402;1673423638.765333;47.1279051;7.2368615;100.07400512695312;1673423638.8856084;-12.183768272399902;10.391739845275879;-136.66195678710938
403;1673423638.9723492;47.1278952;7.2368479;100.4780044555664;1673423639.0732803;-13.41618537902832;10.281132698059082;-136.8527374267578
404;1673423639.1500907;47.127885299999996;7.2368342;100.8810043334961;1673423639.2609718;-14.03708553314209;10.32657527923584;-136.97500610351562
405;1673423639.3373854;47.1278753;7.236820499999999;101.28400421142578;1673423639.4482245;-14.054841041564941;10.545655250549316;-137.11935424804688
406;1673423639.529996;47.1278654;7.2368068;101.68400573730469;1673423639.663556;-13.477893829345703;10.400216102600098;-137.0347137451172
407;1673423639.7637413;47.1278556;7.2367931;102.0830078125;1673423639.8766816;-12.129379272460938;10.60326862335205;-136.99258422851562
408;1673423639.9603596;47.127845699999995;7.236779599999999;102.48100280761719;1673423640.0762644;-11.226385116577148;10.38090705871582;-136.81800842285156
409;1673423640.1620562;47.1278358;7.236765999999999;102.8800048828125;1673423640.2745223;-11.383687019348145;10.0357027053833;-136.713134765625
410;1673423640.3613372;47.1278259;7.2367525;103.27900695800781;1673423640.485518;-12.678457260131836;10.013370513916016;-136.7371063232422
411;1673423640.5793643;47.127815899999995;7.2367387999999995;103.677001953125;1673423640.6887283;-13.857914924621582;10.241786003112793;-136.83673095703125
412;1673423640.7752976;47.127806;7.2367251999999995;104.07600402832031;1673423640.8899207;-14.353083610534668;10.44393253326416;-137.01419067382812
413;1673423640.9734457;47.127796;7.236711499999999;104.47500610351562;1673423641.0930986;-14.024580955505371;10.679789543151855;-137.06832885742188
414;1673423641.1776047;47.127786;7.236697899999999;104.87600708007812;1673423641.2903502;-12.85432243347168;10.68197250366211;-136.9904327392578
415;1673423641.3568738;47.1277761;7.2366842;105.27600860595703;1673423641.4732964;-11.906219482421875;10.729209899902344;-136.93714904785156
416;1673423641.5647945;47.127766099999995;7.2366706;105.67900848388672;1673423641.6746387;-11.179082870483398;10.590888023376465;-136.82614135742188
417;1673423641.7505677;47.1277562;7.2366569;106.0820083618164;1673423641.8660462;-11.728164672851562;10.45291519165039;-136.8238525390625
418;1673423641.9443626;47.1277463;7.2366433;106.48300170898438;1673423642.053269;-12.869558334350586;10.210254669189453;-136.84939575195312
