;pos_time;latitude;longitude;altitude;alt_time;pitch;roll;yaw
0;1673424982.7470565;47.130642599999995;7.24062;-0.030000001192092896;1673424982.8164523;0.014144827611744404;-0.18603232502937317;90.50044250488281
1;1673424982.9404824;47.130642599999995;7.2406198999999996;-0.03200000151991844;1673424983.0124874;0.05717364326119423;-0.09195993095636368;90.52706909179688
2;1673424983.1415415;47.1306425;7.2406198999999996;-0.03400000184774399;1673424983.214316;-0.008287478238344193;0.03462200239300728;90.34017181396484
3;1673424983.3529718;47.1306424;7.2406198999999996;-0.04000000283122063;1673424983.4400456;-0.12343501299619675;-0.17850516736507416;90.48109436035156
4;1673424983.5798824;47.1306424;7.2406198999999996;-0.0430000014603138;1673424983.6472256;-0.12859439849853516;0.13761594891548157;90.34331512451172
5;1673424983.7840738;47.1306424;7.2406198999999996;-0.04500000178813934;1673424983.8531303;0.03522505611181259;-0.15337586402893066;90.44316101074219
6;1673424983.9777682;47.1306424;7.2406198999999996;-0.046000003814697266;1673424984.0511653;0.26549339294433594;-0.014598671346902847;90.29939270019531
7;1673424984.1898537;47.1306424;7.2406198999999996;-0.04800000041723251;1673424984.2632344;0.058013200759887695;-0.2048509567975998;90.50334930419922
8;1673424984.3924391;47.1306424;7.24062;-0.05100000277161598;1673424984.4588196;-0.004504404496401548;0.019412647932767868;90.2970962524414
9;1673424984.5800107;47.1306425;7.24062;0.0;1673424984.6525226;-0.036785852164030075;-0.7503395080566406;90.31339263916016
10;1673424984.7729356;47.1306425;7.24062;0.0;1673424984.8373928;-0.18797564506530762;-0.5554622411727905;90.45064544677734
11;1673424984.9594944;47.1306425;7.24062;0.0;1673424985.0360558;-0.23809322714805603;-0.38767001032829285;90.2523193359375
12;1673424985.177589;47.1306425;7.2406198999999996;0.0020000000949949026;1673424985.245911;0.1188458725810051;-0.6483401656150818;90.32347869873047
13;1673424985.3730516;47.1306425;7.24062;0.003000000026077032;1673424985.4441197;0.013887748122215271;-0.3126392066478729;90.3226089477539
14;1673424985.5766764;47.1306425;7.24062;0.006000000052154064;1673424985.6391268;-0.2140459269285202;-0.5469693541526794;90.3338394165039
15;1673424985.761443;47.130642599999995;7.2406201;0.00800000037997961;1673424985.840677;-0.03357773274183273;-0.4559870958328247;90.50650024414062
16;1673424985.9743416;47.130642599999995;7.2406201;0.010000000707805157;1673424986.0476565;-0.1777825951576233;-0.8079508543014526;90.44473266601562
17;1673424986.1861413;47.130642599999995;7.2406201;0.0;1673424986.254592;-0.2815597653388977;-1.0210416316986084;90.33404541015625
18;1673424986.375484;47.1306425;7.2406201999999995;0.0020000000949949026;1673424986.4398956;-0.12263622879981995;-0.4086395800113678;90.44328308105469
19;1673424986.56368;47.1306425;7.2406201999999995;0.0020000000949949026;1673424986.6335714;-0.032265227288007736;-0.9056103825569153;90.42593383789062
20;1673424986.793282;47.1306425;7.2406201999999995;0.0010000000474974513;1673424986.8657124;0.03143378347158432;-0.7300583124160767;90.57128143310547
21;1673424986.9928408;47.1306425;7.2406203;0.0020000000949949026;1673424987.0805361;0.14313124120235443;-0.3510643243789673;90.41971588134766
22;1673424987.1931024;47.130642599999995;7.2406201999999995;0.0020000000949949026;1673424987.2528052;0.08846242725849152;-0.5451416969299316;90.60502624511719
23;1673424987.3712518;47.1306425;7.2406201999999995;0.004000000189989805;1673424987.4473855;0.2006049007177353;-0.32073864340782166;90.26688385009766
24;1673424987.5830152;47.130642599999995;7.2406203;0.003000000026077032;1673424987.6505368;0.1425415575504303;-0.4310797452926636;89.79048156738281
25;1673424987.789043;47.130642599999995;7.2406203;0.0020000000949949026;1673424987.8610601;0.25170543789863586;-0.6047513484954834;89.45028686523438
26;1673424987.9908872;47.130642699999996;7.2406203;0.0;1673424988.0602794;0.7202000021934509;-0.2780087888240814;88.52836608886719
27;1673424988.1921911;47.1306429;7.2406201999999995;0.003000000026077032;1673424988.2595897;1.0028244256973267;2.393882989883423;85.69231414794922
28;1673424988.3919501;47.130643199999994;7.2406201;0.007000000216066837;1673424988.4563546;1.9348742961883545;7.352936267852783;83.25602722167969
29;1673424988.5787222;47.1306434;7.24062;0.023000001907348633;1673424988.6472304;4.241759300231934;12.717669486999512;83.98384094238281
30;1673424988.7744887;47.1306435;7.2406198999999996;0.046000003814697266;1673424988.8408995;2.5605082511901855;12.65735149383545;85.6494369506836
31;1673424988.984361;47.1306434;7.2406198999999996;0.08800000697374344;1673424989.0586705;1.8366247415542603;8.32896900177002;86.7597427368164
32;1673424989.1781096;47.130643199999994;7.2406198999999996;0.15600000321865082;1673424989.2429082;1.8663362264633179;11.092960357666016;87.17635345458984
33;1673424989.3745923;47.1306431;7.2406198999999996;0.242000013589859;1673424989.4440637;1.7724225521087646;10.56406307220459;87.33331298828125
34;1673424989.5657163;47.1306428;7.24062;0.3400000035762787;1673424989.6417441;2.4399712085723877;5.67161226272583;87.77124786376953
35;1673424989.7695265;47.130642599999995;7.2406201;0.45100003480911255;1673424989.8403828;2.8338613510131836;9.249308586120605;87.93889617919922
36;1673424989.9687912;47.1306424;7.2406201;0.5820000171661377;1673424990.041397;3.0981545448303223;10.330225944519043;88.2101821899414
37;1673424990.160037;47.1306424;7.2406201;0.7260000109672546;1673424990.2271762;2.506002426147461;6.83256721496582;88.7264404296875
38;1673424990.3484948;47.1306423;7.2406201;0.8860000371932983;1673424990.41898;2.0754902362823486;9.836602210998535;88.62471008300781
39;1673424990.5436356;47.1306423;7.2406201;1.0600000619888306;1673424990.6102042;1.5546443462371826;11.069358825683594;88.05732727050781
40;1673424990.7336612;47.1306422;7.24062;1.2470000982284546;1673424990.8031297;2.137136936187744;6.254118919372559;88.04618835449219
41;1673424990.9286308;47.130642099999996;7.24062;1.437000036239624;1673424990.99853;2.6232974529266357;7.9985480308532715;87.17693328857422
42;1673424991.12529;47.130641999999995;7.24062;1.630000114440918;1673424991.1931753;2.9540040493011475;11.598885536193848;87.44609069824219
43;1673424991.3215322;47.130642099999996;7.2406198999999996;1.8230000734329224;1673424991.3912594;2.553368091583252;7.406196594238281;87.84162902832031
44;1673424991.517838;47.130642099999996;7.240619799999999;2.0210001468658447;1673424991.5896428;1.797755479812622;8.291282653808594;87.62979125976562
45;1673424991.7161913;47.1306422;7.2406197;2.2190001010894775;1673424991.7860389;1.4693782329559326;11.69482135772705;87.00621795654297
46;1673424991.9312909;47.1306422;7.2406196;2.4180002212524414;1673424992.0168722;1.7417913675308228;7.656744956970215;86.9049072265625
47;1673424992.160979;47.1306422;7.2406196;2.619000196456909;1673424992.2406173;2.151843547821045;7.124246120452881;87.05657958984375
48;1673424992.3683126;47.1306422;7.2406197;2.821000099182129;1673424992.4395726;2.761852264404297;12.249353408813477;87.19468688964844
49;1673424992.5697649;47.1306423;7.2406197;3.0230002403259277;1673424992.641184;2.88862943649292;9.254928588867188;87.20249938964844
50;1673424992.7667508;47.1306424;7.240619799999999;3.2230000495910645;1673424992.8358202;2.3593966960906982;8.071430206298828;86.90481567382812
51;1673424992.9684632;47.1306425;7.2406197;3.42900013923645;1673424993.0404909;2.027822732925415;11.879706382751465;86.50927734375
52;1673424993.1663966;47.1306425;7.2406197;3.631000280380249;1673424993.232803;1.8216668367385864;9.268021583557129;86.7736587524414
53;1673424993.3614979;47.1306424;7.2406197;3.829000234603882;1673424993.4325767;1.924193263053894;6.265766620635986;87.19917297363281
54;1673424993.5628488;47.1306423;7.2406197;4.0320000648498535;1673424993.6377792;2.401496171951294;11.023606300354004;87.16120910644531
55;1673424993.7690725;47.1306423;7.2406197;4.238000392913818;1673424993.837067;2.9475035667419434;10.1058931350708;87.13774108886719
56;1673424993.9662335;47.1306424;7.240619799999999;4.440999984741211;1673424994.0380173;2.6611201763153076;7.441936492919922;86.98773193359375
57;1673424994.1715229;47.1306424;7.2406197;4.646000385284424;1673424994.2386925;2.208043336868286;10.37553596496582;86.64215850830078
58;1673424994.3700044;47.1306425;7.2406197;4.8460001945495605;1673424994.4360468;1.7826889753341675;10.713935852050781;86.54828643798828
59;1673424994.5619743;47.1306424;7.2406197;5.047000408172607;1673424994.6363459;1.807918906211853;5.937831878662109;86.88462829589844
60;1673424994.7660563;47.1306423;7.2406197;5.252000331878662;1673424994.836539;2.0583691596984863;9.874171257019043;86.99140167236328
61;1673424994.9685833;47.1306423;7.2406197;5.460000038146973;1673424995.0592775;2.599644899368286;11.68766975402832;87.0246353149414
62;1673424995.1987002;47.1306424;7.240619799999999;5.669000148773193;1673424995.2565193;2.854926347732544;7.668718338012695;86.97979736328125
63;1673424995.3662517;47.1306425;7.240619799999999;5.871000289916992;1673424995.4363084;2.6531553268432617;9.433484077453613;86.90155792236328
64;1673424995.568754;47.130642599999995;7.240619799999999;6.075000286102295;1673424995.6426008;2.2422454357147217;11.694633483886719;86.74673461914062
65;1673424995.7706394;47.130642599999995;7.240619799999999;6.278000354766846;1673424995.8408542;1.847834587097168;7.502904415130615;86.90601348876953
66;1673424995.960969;47.1306425;7.240619799999999;6.479000091552734;1673424996.0266407;1.6895880699157715;8.586746215820312;87.07438659667969
67;1673424996.1542566;47.1306424;7.240619799999999;6.679000377655029;1673424996.2350113;2.4711620807647705;12.66556453704834;86.85855102539062
68;1673424996.3666053;47.1306425;7.240619799999999;6.875000476837158;1673424996.4411154;2.5955545902252197;8.144920349121094;86.90406799316406
69;1673424996.5694313;47.1306425;7.240619799999999;7.068000316619873;1673424996.6453857;2.5066537857055664;8.198912620544434;86.91484832763672
70;1673424996.814187;47.1306425;7.240619799999999;7.26300048828125;1673424996.8868735;2.4022843837738037;11.71564769744873;86.79781341552734
71;1673424997.0623183;47.1306425;7.2406197;7.461000442504883;1673424997.116075;2.0072875022888184;8.650115013122559;86.93477630615234
72;1673424997.213341;47.1306424;7.2406197;7.660000324249268;1673424997.2679799;1.5877081155776978;7.721196174621582;87.1043930053711
73;1673424997.375868;47.1306423;7.2406197;7.8600006103515625;1673424997.4418297;1.7786768674850464;12.195289611816406;86.80506134033203
74;1673424997.5629675;47.1306423;7.2406197;8.06100082397461;1673424997.6363416;2.117535352706909;8.644282341003418;86.62354278564453
75;1673424997.7679074;47.1306423;7.240619799999999;8.258000373840332;1673424997.841294;2.6454360485076904;6.692965030670166;86.87590026855469
76;1673424997.9732037;47.1306424;7.2406198999999996;8.456000328063965;1673424998.0562103;2.630399465560913;11.223553657531738;86.98027038574219
77;1673424998.1781783;47.1306423;7.2406198999999996;8.656000137329102;1673424998.250174;2.4566454887390137;9.953017234802246;87.10650634765625
78;1673424998.3733919;47.1306423;7.2406198999999996;8.855999946594238;1673424998.4407935;2.0951483249664307;7.304327011108398;87.01152038574219
79;1673424998.568298;47.1306423;7.2406198999999996;9.058000564575195;1673424998.6392386;1.784631371498108;11.564752578735352;86.8119125366211
80;1673424998.7736292;47.1306424;7.2406198999999996;9.261000633239746;1673424998.85655;1.9243009090423584;10.010183334350586;86.6478500366211
81;1673424998.9919639;47.1306424;7.24062;9.467000007629395;1673424999.0828412;2.26062273979187;6.411747932434082;86.70591735839844
82;1673424999.2399552;47.1306425;7.24062;9.670000076293945;1673424999.3083131;2.577223062515259;10.831006050109863;86.92108154296875
83;1673424999.429059;47.1306425;7.24062;9.873000144958496;1673424999.4933755;2.8154213428497314;10.999750137329102;86.9916000366211
84;1673424999.6121724;47.1306424;7.24062;10.074000358581543;1673424999.6873717;2.7502496242523193;6.748704433441162;86.94668579101562
85;1673424999.8116062;47.1306424;7.24062;10.303000450134277;1673424999.8799803;1.8798826932907104;10.411604881286621;86.8748550415039
86;1673425000.006124;47.1306424;7.24062;10.640000343322754;1673425000.077442;2.2339963912963867;13.154722213745117;86.68109893798828
87;1673425000.209724;47.1306422;7.2406201;11.018000602722168;1673425000.2742856;2.2459421157836914;7.940074920654297;86.84883880615234
88;1673425000.3959036;47.130641999999995;7.2406201;11.408000946044922;1673425000.4632843;2.3995890617370605;7.372267723083496;87.08190155029297
89;1673425000.5888069;47.1306418;7.2406201;11.804000854492188;1673425000.6569402;2.5781993865966797;10.80568790435791;87.09614562988281
90;1673425000.7880151;47.1306416;7.2406201;12.204000473022461;1673425000.8621967;2.622411012649536;7.5701584815979;87.0656509399414
91;1673425000.984267;47.130641499999996;7.2406201;12.60400104522705;1673425001.057162;2.1780707836151123;5.832920074462891;86.97454071044922
92;1673425001.1857572;47.130641399999995;7.2406201;13.006000518798828;1673425001.2620316;2.1277880668640137;9.996772766113281;86.7560806274414
93;1673425001.3944397;47.1306416;7.2406201;13.41100025177002;1673425001.4588864;2.0169312953948975;8.143525123596191;86.83250427246094
94;1673425001.5837727;47.1306418;7.2406201999999995;13.815000534057617;1673425001.6561742;2.2053287029266357;6.618523597717285;86.96256256103516
95;1673425001.7853966;47.130641999999995;7.2406201999999995;14.2160005569458;1673425001.8564222;2.3593785762786865;11.16583251953125;86.98706817626953
96;1673425001.9888153;47.1306422;7.2406201;14.618000984191895;1673425002.0620701;2.6629464626312256;11.176969528198242;87.05445098876953
97;1673425002.1884604;47.1306422;7.2406201;15.022000312805176;1673425002.2603366;2.499664306640625;7.523756980895996;87.09456634521484
98;1673425002.3901904;47.1306422;7.2406201;15.427000999450684;1673425002.459771;2.2363059520721436;10.117372512817383;86.95498657226562
99;1673425002.5912008;47.1306422;7.2406201;15.835000991821289;1673425002.666191;2.4570515155792236;10.851127624511719;86.85614013671875
100;1673425002.7915053;47.1306423;7.2406201;16.2450008392334;1673425002.860092;2.224870443344116;7.706760883331299;86.93003845214844
101;1673425002.9882348;47.1306422;7.2406201;16.6510009765625;1673425003.0640774;2.163034677505493;9.474103927612305;87.00133514404297
102;1673425003.1942632;47.1306422;7.2406201;17.05500030517578;1673425003.264402;2.459312677383423;11.515079498291016;86.83186340332031
103;1673425003.385207;47.130642099999996;7.2406201;17.45600128173828;1673425003.459004;2.524109125137329;6.84625244140625;86.93367767333984
104;1673425003.5979862;47.130641999999995;7.2406201;17.858001708984375;1673425003.6688557;2.4935154914855957;7.5387797355651855;86.98941802978516
105;1673425003.7927647;47.130642099999996;7.2406201;18.267000198364258;1673425003.8616734;2.40132737159729;11.269454956054688;86.9212417602539
106;1673425003.9863956;47.1306422;7.2406201;18.679000854492188;1673425004.057258;2.4471170902252197;8.381839752197266;86.98745727539062
107;1673425004.1843045;47.1306422;7.2406201;19.09000015258789;1673425004.257454;2.1936147212982178;8.064085006713867;86.97826385498047
108;1673425004.383908;47.1306423;7.2406201;19.499000549316406;1673425004.4524045;2.205690383911133;11.4956693649292;86.74066925048828
109;1673425004.5853114;47.1306422;7.2406201;19.913000106811523;1673425004.6562333;2.446455717086792;8.302203178405762;86.85920715332031
110;1673425004.7837074;47.1306422;7.2406201;20.330001831054688;1673425004.8567567;2.5033652782440186;6.491639614105225;86.9319839477539
111;1673425004.9855735;47.1306423;7.2406201;20.746000289916992;1673425005.0529609;2.611927032470703;11.425422668457031;86.9281234741211
112;1673425005.1787343;47.1306425;7.2406201;21.157001495361328;1673425005.2532883;2.63732647895813;10.221667289733887;87.01448059082031
113;1673425005.3880618;47.130642599999995;7.2406201;21.565000534057617;1673425005.4639394;2.367480993270874;7.62477445602417;87.06807708740234
114;1673425005.5976484;47.130642599999995;7.2406201;21.96900177001953;1673425005.6670022;2.324113130569458;10.473350524902344;86.8380355834961
115;1673425005.7933388;47.1306425;7.2406201;22.36400032043457;1673425005.8623343;2.398872137069702;10.319645881652832;86.70610809326172
116;1673425005.9972484;47.1306424;7.24062;22.760000228881836;1673425006.0727656;2.5143845081329346;6.288787364959717;86.90323638916016
117;1673425006.198311;47.1306424;7.24062;23.165000915527344;1673425006.268629;2.4764394760131836;9.286771774291992;86.83090209960938
118;1673425006.3965423;47.1306425;7.24062;23.57400131225586;1673425006.4648867;2.6383934020996094;11.229023933410645;86.92711639404297
119;1673425006.594522;47.130642699999996;7.2406198999999996;23.985000610351562;1673425006.66971;2.425611734390259;8.175540924072266;87.07554626464844
120;1673425006.8003376;47.130642699999996;7.2406198999999996;24.389001846313477;1673425006.867781;2.319404363632202;8.875383377075195;87.0089111328125
121;1673425006.9952936;47.130642599999995;7.2406198999999996;24.784000396728516;1673425007.0611923;2.1198742389678955;11.597878456115723;86.86141967773438
122;1673425007.1946712;47.130642599999995;7.240619799999999;25.1820011138916;1673425007.2593815;2.3144583702087402;7.429111957550049;86.94017028808594
123;1673425007.3855226;47.130642599999995;7.240619799999999;25.582000732421875;1673425007.4573126;2.0823216438293457;7.726011753082275;86.855224609375
124;1673425007.589783;47.130642699999996;7.2406197;25.985000610351562;1673425007.6640701;2.2777371406555176;12.071110725402832;86.75122833251953
125;1673425007.8031452;47.1306429;7.2406196;26.38800048828125;1673425007.8802292;2.4259538650512695;9.373172760009766;86.94039154052734
126;1673425008.0228734;47.1306429;7.2406196;26.788002014160156;1673425008.0949762;2.440607786178589;8.172855377197266;87.11919403076172
127;1673425008.2263935;47.1306428;7.2406196;27.187002182006836;1673425008.2980204;2.3571183681488037;11.170032501220703;86.89480590820312
128;1673425008.423869;47.130642699999996;7.2406196;27.575000762939453;1673425008.4902923;2.266521453857422;9.086143493652344;86.93505096435547
129;1673425008.6232054;47.130642699999996;7.2406196;27.966001510620117;1673425008.69033;1.9867836236953735;7.320525646209717;87.01095581054688
130;1673425008.8266077;47.1306428;7.2406196;28.363000869750977;1673425008.8948054;2.257091522216797;11.625187873840332;86.78010559082031
131;1673425009.023101;47.1306428;7.2406196;28.755001068115234;1673425009.0885255;2.4806907176971436;10.276066780090332;86.7283706665039
132;1673425009.2088969;47.1306428;7.2406196;29.1460018157959;1673425009.276507;2.732985019683838;6.9169392585754395;86.86389923095703
133;1673425009.4112053;47.1306428;7.2406196;29.536001205444336;1673425009.4838734;2.398623466491699;9.56417465209961;86.82994079589844
134;1673425009.6184049;47.130642699999996;7.2406196;29.924001693725586;1673425009.7256799;2.495124578475952;10.863175392150879;86.87104034423828
135;1673425009.8842998;47.130642699999996;7.2406196;30.32000160217285;1673425009.9541714;1.9751836061477661;7.201746940612793;87.10208129882812
136;1673425010.0629046;47.130642699999996;7.240619499999999;30.71900177001953;1673425010.1202202;1.9019633531570435;9.501873016357422;87.08043670654297
137;1673425010.2379315;47.1306428;7.240619499999999;31.114002227783203;1673425010.3014748;2.368330717086792;11.920223236083984;86.85157775878906
138;1673425010.4127495;47.1306429;7.240619499999999;31.505001068115234;1673425010.469509;2.315376043319702;8.295475959777832;86.88761138916016
139;1673425010.600697;47.1306429;7.240619499999999;31.894001007080078;1673425010.6732762;2.247734546661377;8.107990264892578;86.89553833007812
140;1673425010.7997897;47.1306429;7.240619499999999;32.284000396728516;1673425010.8720043;2.197711706161499;11.870134353637695;86.77924346923828
141;1673425010.9850333;47.1306428;7.240619499999999;32.66800308227539;1673425011.0532131;2.3807032108306885;8.36259937286377;87.02409362792969
142;1673425011.1728654;47.1306428;7.2406196;33.055999755859375;1673425011.2414093;2.309997081756592;8.34001636505127;87.03827667236328
143;1673425011.3698316;47.1306428;7.2406196;33.448001861572266;1673425011.4507117;2.0810978412628174;12.190332412719727;86.91834259033203
144;1673425011.5962555;47.1306429;7.2406196;33.8390007019043;1673425011.6725316;2.1802010536193848;9.404193878173828;86.97994995117188
145;1673425011.804527;47.1306428;7.2406197;34.229000091552734;1673425011.8769765;2.1725685596466064;7.680436134338379;87.00100708007812
146;1673425012.0195863;47.130642699999996;7.2406197;34.61800003051758;1673425012.0830371;2.34944748878479;11.454231262207031;86.7796630859375
147;1673425012.223655;47.130642599999995;7.2406197;35.00300216674805;1673425012.292866;2.566283941268921;9.124310493469238;86.75782775878906
148;1673425012.421897;47.1306424;7.2406197;35.393001556396484;1673425012.4920306;2.4043946266174316;6.47260856628418;86.79902648925781
149;1673425012.6212277;47.1306425;7.2406197;35.79100036621094;1673425012.68795;1.9934418201446533;10.483773231506348;86.84744262695312
150;1673425012.8137398;47.1306425;7.2406197;36.191001892089844;1673425012.886284;2.0736851692199707;9.550407409667969;86.90643310546875
151;1673425013.0165582;47.130642599999995;7.2406197;36.5890007019043;1673425013.0869877;1.891032099723816;6.863824367523193;87.16436004638672
152;1673425013.2039342;47.130642599999995;7.2406197;36.98800277709961;1673425013.2727551;1.9829833507537842;10.480305671691895;87.03942108154297
153;1673425013.3945227;47.130642699999996;7.2406197;37.387001037597656;1673425013.4584901;2.3269686698913574;11.68147087097168;86.9569320678711
154;1673425013.58414;47.130642699999996;7.2406197;37.777000427246094;1673425013.6498477;2.339124917984009;7.7407331466674805;86.92193603515625
155;1673425013.7732027;47.1306428;7.240619799999999;38.17000198364258;1673425013.8416736;2.2654330730438232;8.60726547241211;86.78277587890625
156;1673425013.9649372;47.1306429;7.240619799999999;38.566001892089844;1673425014.0364928;2.3171613216400146;11.478747367858887;86.70263671875
157;1673425014.173092;47.130643;7.240619799999999;38.96000289916992;1673425014.255903;2.262145519256592;8.626808166503906;86.89134979248047
158;1673425014.3947198;47.1306431;7.2406198999999996;39.35100173950195;1673425014.4650793;2.250746250152588;8.26900863647461;87.0147476196289
159;1673425014.5846863;47.130643;7.2406198999999996;39.74400329589844;1673425014.6503754;2.306884288787842;12.24565601348877;86.894287109375
160;1673425014.7841349;47.1306429;7.24062;40.12800216674805;1673425014.868372;2.4222910404205322;9.96412467956543;86.91187286376953
161;1673425014.9853537;47.1306428;7.24062;40.5150032043457;1673425015.0616329;2.4342281818389893;6.697539329528809;87.03860473632812
162;1673425015.2002513;47.1306428;7.24062;40.906002044677734;1673425015.272508;2.3642406463623047;10.972603797912598;87.0162124633789
163;1673425015.4083297;47.1306428;7.24062;41.29800033569336;1673425015.4857771;2.3842549324035645;10.702927589416504;86.94196319580078
164;1673425015.6148612;47.1306428;7.24062;41.6870002746582;1673425015.687414;2.20348858833313;7.296568393707275;87.08565521240234
165;1673425015.8160367;47.130642699999996;7.24062;42.07500076293945;1673425015.886592;2.1412549018859863;10.09062385559082;86.84798431396484
166;1673425016.0172813;47.130642699999996;7.24062;42.46500015258789;1673425016.0807552;2.476245403289795;11.217497825622559;86.68009185791016
167;1673425016.2063909;47.130642599999995;7.24062;42.85100173950195;1673425016.271402;2.505944013595581;6.7954325675964355;86.76029968261719
168;1673425016.4008458;47.130642699999996;7.24062;43.24400329589844;1673425016.4708252;2.2389512062072754;8.991766929626465;86.81210327148438
169;1673425016.5982673;47.1306428;7.24062;43.6400032043457;1673425016.667124;2.3373074531555176;11.244866371154785;86.87348175048828
170;1673425016.784038;47.1306429;7.24062;44.03600311279297;1673425016.852543;2.297166347503662;7.895447254180908;87.06211853027344
171;1673425016.9792728;47.1306429;7.24062;44.43100357055664;1673425017.054306;2.115422487258911;8.98893928527832;87.129150390625
172;1673425017.194495;47.1306429;7.24062;44.82400131225586;1673425017.2722547;2.316230297088623;12.44344711303711;86.91968536376953
173;1673425017.4106703;47.1306429;7.24062;45.211002349853516;1673425017.4855156;2.430975914001465;8.327299118041992;86.97695922851562
174;1673425017.6175885;47.1306428;7.24062;45.60200119018555;1673425017.68946;2.2219109535217285;8.203030586242676;86.85626983642578
175;1673425017.817615;47.1306429;7.24062;45.99400329589844;1673425017.8854;2.2436492443084717;11.238070487976074;86.79369354248047
176;1673425017.9998462;47.1306429;7.2406198999999996;46.384002685546875;1673425018.0639086;2.192784547805786;8.886617660522461;86.84297180175781
177;1673425018.1838763;47.1306428;7.2406198999999996;46.7760009765625;1673425018.256428;2.1854357719421387;7.158499240875244;87.0411148071289
178;1673425018.3909543;47.1306428;7.2406198999999996;47.16800308227539;1673425018.4637709;2.1746087074279785;12.09934139251709;86.97676849365234
179;1673425018.600583;47.1306429;7.2406198999999996;47.56100082397461;1673425018.6838844;2.399775505065918;9.85149097442627;87.00519561767578
180;1673425018.8188689;47.1306429;7.2406198999999996;47.948001861572266;1673425018.8932905;2.1088674068450928;8.415306091308594;86.84418487548828
181;1673425019.0259376;47.1306429;7.2406198999999996;48.310001373291016;1673425019.0985003;2.176525115966797;11.515863418579102;86.86947631835938
182;1673425019.2249112;47.1306429;7.2406198999999996;48.62600326538086;1673425019.2963467;2.2761528491973877;9.998832702636719;86.8385009765625
183;1673425019.417262;47.130643;7.2406198999999996;48.88900375366211;1673425019.4838996;2.1025543212890625;6.374452114105225;86.7677230834961
184;1673425019.6055036;47.130643;7.2406198999999996;49.105003356933594;1673425019.6755073;2.104159116744995;10.415467262268066;86.56766510009766
185;1673425019.8010204;47.130643199999994;7.2406198999999996;49.28400421142578;1673425019.881692;7.823110580444336;15.32544231414795;87.60498809814453
186;1673425020.020631;47.130643199999994;7.2406196;49.43600082397461;1673425020.1133544;23.2665958404541;30.56572914123535;98.72813415527344
187;1673425020.2403738;47.1306424;7.2406178;49.583003997802734;1673425020.3116248;27.385143280029297;46.02544021606445;110.55906677246094
188;1673425020.4366522;47.1306401;7.240613199999999;49.708003997802734;1673425020.5001333;23.47760581970215;55.78337097167969;118.6541519165039
189;1673425020.6421952;47.1306355;7.2406051;49.802001953125;1673425020.7443314;4.923568248748779;58.81528091430664;128.29638671875
190;1673425020.8714466;47.1306288;7.2405938999999995;49.858001708984375;1673425020.952817;-11.312446594238281;56.83440399169922;138.18060302734375
191;1673425021.0627046;47.1306203;7.2405802999999995;49.88500213623047;1673425021.1286323;-23.437217712402344;49.77159881591797;148.88262939453125
192;1673425021.2453132;47.1306103;7.2405649;49.88900375366211;1673425021.316608;-36.35240936279297;44.22628402709961;160.25650024414062
193;1673425021.4396396;47.1305991;7.2405478;49.88200378417969;1673425021.507166;-47.68724822998047;42.08842086791992;172.45703125
194;1673425021.633034;47.1305865;7.2405289999999995;49.85300064086914;1673425021.7078998;-50.47849655151367;31.80868148803711;-173.85635375976562
195;1673425021.8314629;47.1305731;7.2405083999999995;49.78700256347656;1673425021.8998384;-42.70665740966797;21.964200973510742;-168.09202575683594
196;1673425022.0299237;47.130559299999994;7.2404869;49.7130012512207;1673425022.1016102;-44.5313720703125;17.91814422607422;-163.52947998046875
197;1673425022.2250931;47.1305452;7.2404649999999995;49.65800094604492;1673425022.293427;-46.958702087402344;12.99824047088623;-155.11366271972656
198;1673425022.4198983;47.130530799999995;7.2404427;49.61900329589844;1673425022.4879568;-47.26563262939453;8.236072540283203;-147.38546752929688
199;1673425022.6145499;47.1305164;7.240419999999999;49.595001220703125;1673425022.6917686;-47.4205207824707;4.044350624084473;-141.04725646972656
200;1673425022.840574;47.1305019;7.2403967;49.583003997802734;1673425022.9094296;-47.20222473144531;-2.2461564540863037;-134.4134063720703
201;1673425023.03003;47.1304873;7.2403732;49.586002349853516;1673425023.0956118;-48.57113265991211;-9.749412536621094;-131.41567993164062
202;1673425023.221091;47.130472499999996;7.2403496;49.59100341796875;1673425023.29121;-47.378787994384766;-8.932034492492676;-135.41419982910156
203;1673425023.4277816;47.130457199999995;7.2403265;49.59400177001953;1673425023.4988267;-46.936710357666016;-7.407029628753662;-137.74331665039062
204;1673425023.6277795;47.1304417;7.2403039;49.60300064086914;1673425023.7049267;-47.627174377441406;-6.6439361572265625;-138.5001983642578
205;1673425023.8393369;47.1304258;7.2402818;49.621002197265625;1673425023.9116836;-48.396728515625;-5.252551555633545;-139.23402404785156
206;1673425024.050905;47.1304096;7.2402600999999995;49.64200210571289;1673425024.1172986;-49.29437255859375;-3.692457675933838;-139.88844299316406
207;1673425024.2290988;47.1303931;7.2402384;49.665000915527344;1673425024.3043044;-49.50534439086914;-2.799583673477173;-140.21177673339844
208;1673425024.4303231;47.1303766;7.2402166;49.685001373291016;1673425024.5006206;-49.12086868286133;-2.562516212463379;-140.055419921875
209;1673425024.638363;47.130359899999995;7.240194799999999;49.702003479003906;1673425024.7118003;-48.41367721557617;-2.607081413269043;-139.8180694580078
210;1673425024.8461885;47.1303431;7.2401729999999995;49.71600341796875;1673425024.9213624;-48.11020278930664;-2.6477861404418945;-139.54898071289062
211;1673425025.055581;47.1303262;7.240151099999999;49.72100067138672;1673425025.1479208;-47.88024139404297;-2.8250951766967773;-139.27420043945312
212;1673425025.2718503;47.1303093;7.240129199999999;49.72200393676758;1673425025.3308196;-47.44440841674805;-2.784581422805786;-139.13619995117188
213;1673425025.4515927;47.130292399999995;7.2401073;49.72700119018555;1673425025.5201328;-47.74121856689453;-2.912153482437134;-139.00576782226562
214;1673425025.6471522;47.1302756;7.2400854;49.73500061035156;1673425025.7146235;-48.023887634277344;-3.0690953731536865;-138.8338623046875
215;1673425025.8300972;47.1302588;7.2400633999999995;49.743003845214844;1673425025.9003832;-48.06089401245117;-3.1080315113067627;-138.72422790527344
216;1673425026.03331;47.130241999999996;7.2400414;49.75400161743164;1673425026.0966933;-48.217472076416016;-3.139348268508911;-138.63345336914062
217;1673425026.2165873;47.1302252;7.2400193999999995;49.76300048828125;1673425026.2835867;-48.28247833251953;-3.1332476139068604;-138.55905151367188
218;1673425026.4158492;47.1302083;7.2399973;49.77000045776367;1673425026.4957576;-48.168277740478516;-3.1811273097991943;-138.44320678710938
219;1673425026.62828;47.130191499999995;7.2399751;49.76900100708008;1673425026.7039182;-47.750083923339844;-3.0612599849700928;-138.40130615234375
220;1673425026.8201923;47.1301746;7.2399529;49.772003173828125;1673425026.8900611;-47.688655853271484;-3.2374250888824463;-138.256591796875
221;1673425027.0165129;47.1301579;7.2399306999999995;49.7760009765625;1673425027.0899067;-48.04056167602539;-3.224466562271118;-138.2352752685547
222;1673425027.2252436;47.130141099999996;7.2399084;49.77700424194336;1673425027.3011746;-48.14279556274414;-3.3243725299835205;-138.14942932128906
223;1673425027.4375694;47.1301244;7.2398861;49.77700424194336;1673425027.5339568;-47.98116683959961;-3.2296030521392822;-138.1499481201172
224;1673425027.6647155;47.130107599999995;7.239863799999999;49.77900314331055;1673425027.7375154;-47.86978530883789;-3.22379994392395;-138.1128387451172
225;1673425027.864949;47.1300909;7.2398415;49.77900314331055;1673425027.9328957;-47.87506866455078;-3.259735107421875;-138.07777404785156
226;1673425028.056234;47.130074199999996;7.2398191;49.78000259399414;1673425028.1235936;-48.015357971191406;-3.2717461585998535;-138.051513671875
227;1673425028.2640748;47.1300576;7.2397966;49.781002044677734;1673425028.3319492;-47.99738311767578;-3.289109706878662;-138.01995849609375
228;1673425028.4515579;47.1300409;7.239774199999999;49.78200149536133;1673425028.5198803;-48.01771926879883;-3.2674992084503174;-138.0130615234375
229;1673425028.6449292;47.1300242;7.239751699999999;49.78300094604492;1673425028.7230115;-48.07224655151367;-3.1885223388671875;-138.02362060546875
230;1673425028.8611271;47.1300075;7.2397291;49.785003662109375;1673425028.931403;-48.1546630859375;-3.300374746322632;-137.94546508789062
231;1673425029.0526335;47.129990899999996;7.2397066;49.788002014160156;1673425029.1246285;-48.18439865112305;-3.2306716442108154;-137.97560119628906
232;1673425029.2522926;47.1299742;7.2396841;49.790000915527344;1673425029.3240032;-48.15986633300781;-3.1858081817626953;-137.9878387451172
233;1673425029.488375;47.129957499999996;7.2396614999999995;49.79300308227539;1673425029.5521123;-48.11309814453125;-3.1969497203826904;-137.98492431640625
234;1673425029.6717303;47.1299409;7.2396388;49.7920036315918;1673425029.7496283;-48.03623962402344;-3.2789814472198486;-137.95213317871094
235;1673425029.876569;47.1299243;7.2396161999999995;49.79500198364258;1673425029.9454374;-48.05717468261719;-3.3028652667999268;-137.9484405517578
236;1673425030.0475323;47.129907599999996;7.2395935;49.798004150390625;1673425030.109011;-48.096675872802734;-3.2980077266693115;-137.95614624023438
237;1673425030.237995;47.129891;7.2395708999999995;49.79900360107422;1673425030.3134375;-48.03882598876953;-3.2165889739990234;-137.99949645996094
238;1673425030.4401393;47.1298744;7.2395482;49.79900360107422;1673425030.5163555;-47.9671516418457;-3.164750576019287;-138.0111846923828
239;1673425030.6485782;47.129857799999996;7.2395255999999995;49.79900360107422;1673425030.720224;-47.84834289550781;-3.2045347690582275;-137.96395874023438
240;1673425030.8470957;47.1298412;7.2395029;49.80000305175781;1673425030.917408;-47.817867279052734;-3.143251657485962;-138.01454162597656
241;1673425031.0488284;47.1298245;7.2394802;49.80500411987305;1673425031.1270125;-47.85221862792969;-3.222583055496216;-137.9785919189453
242;1673425031.263767;47.129807899999996;7.239457499999999;49.80800247192383;1673425031.3283057;-47.95803451538086;-3.23992919921875;-137.97100830078125
243;1673425031.4640648;47.1297913;7.2394348;49.81300354003906;1673425031.5417244;-47.986270904541016;-3.176950693130493;-138.03102111816406
244;1673425031.6676946;47.1297747;7.239412;49.820003509521484;1673425031.7320988;-48.113651275634766;-3.1766018867492676;-138.0244598388672
245;1673425031.8492067;47.1297581;7.2393893;49.82500076293945;1673425031.9176779;-48.200218200683594;-3.183063507080078;-138.06509399414062
246;1673425032.0484104;47.129741499999994;7.2393665;49.82600402832031;1673425032.1307058;-47.92143630981445;-3.0983357429504395;-138.0962371826172
247;1673425032.2503328;47.129725;7.239343799999999;49.829002380371094;1673425032.317675;-47.784912109375;-3.1338324546813965;-138.07220458984375
248;1673425032.4419358;47.1297084;7.2393212;49.83400344848633;1673425032.5110922;-47.9263801574707;-3.1297812461853027;-138.1033477783203
249;1673425032.645925;47.129691799999996;7.239298499999999;49.842002868652344;1673425032.7138622;-48.202457427978516;-3.1065821647644043;-138.1056365966797
250;1673425032.853094;47.1296752;7.2392758;49.84600067138672;1673425032.9285398;-48.199066162109375;-3.132594347000122;-138.1224365234375
251;1673425033.0622926;47.1296586;7.239253;49.85200119018555;1673425033.1336927;-48.02766036987305;-3.0035505294799805;-138.18763732910156
252;1673425033.2641108;47.129642;7.2392303;49.85700225830078;1673425033.3298006;-47.89777755737305;-3.001206636428833;-138.18923950195312
253;1673425033.4463644;47.1296253;7.2392075;49.86100387573242;1673425033.5150967;-47.866371154785156;-3.030661106109619;-138.1715850830078
254;1673425033.6424162;47.1296087;7.239184799999999;49.86600112915039;1673425033.710948;-47.8938102722168;-3.0081703662872314;-138.1781005859375
255;1673425033.8373156;47.129591999999995;7.239161999999999;49.87000274658203;1673425033.9101481;-47.87587356567383;-2.8999063968658447;-138.22242736816406
256;1673425034.0398057;47.1295754;7.239139199999999;49.87200164794922;1673425034.113801;-47.75765609741211;-2.8711977005004883;-138.2487335205078
257;1673425034.2433286;47.1295587;7.2391165;49.87700271606445;1673425034.3185453;-47.8048210144043;-2.9637632369995117;-138.22337341308594
258;1673425034.4496381;47.129542099999995;7.2390935999999995;49.884002685546875;1673425034.526907;-47.99851608276367;-3.01224946975708;-138.2362518310547
259;1673425034.661058;47.1295255;7.2390707999999995;49.8910026550293;1673425034.7320533;-48.05305099487305;-2.9429969787597656;-138.28591918945312
260;1673425034.8687296;47.129508799999996;7.2390481;49.89800262451172;1673425034.9522834;-47.96091079711914;-2.8306331634521484;-138.36257934570312
261;1673425035.1041994;47.1294922;7.2390253;49.90300369262695;1673425035.1923027;-47.86316680908203;-2.8077590465545654;-138.36123657226562
262;1673425035.3187177;47.1294756;7.2390026;49.90800094604492;1673425035.405605;-47.84939193725586;-2.740213632583618;-138.40631103515625
263;1673425035.5189247;47.129459;7.2389798;49.913002014160156;1673425035.5858274;-47.83460235595703;-2.720161199569702;-138.4640655517578
264;1673425035.708125;47.1294423;7.238957;49.922000885009766;1673425035.772381;-47.90076446533203;-3.159046173095703;-138.3856964111328
265;1673425035.8840618;47.1294257;7.2389342;49.93300247192383;1673425035.9653852;-48.021453857421875;-3.1637768745422363;-138.5308380126953
266;1673425036.0831783;47.129408999999995;7.2389114;49.94400405883789;1673425036.1468594;-48.52820587158203;-2.8234622478485107;-138.6083526611328
267;1673425036.2789395;47.1293922;7.2388886999999995;49.954002380371094;1673425036.343421;-48.10990524291992;-4.2756733894348145;-138.35215759277344
268;1673425036.470538;47.1293754;7.2388658999999995;49.96000289916992;1673425036.5400105;-48.06065368652344;-3.537299871444702;-138.89523315429688
269;1673425036.6768353;47.129358499999995;7.2388433;49.9640007019043;1673425036.7402852;-48.03002166748047;-3.6794888973236084;-138.9433135986328
270;1673425036.8682806;47.1293416;7.2388208;49.970001220703125;1673425036.9405394;-47.88247299194336;-4.0325703620910645;-138.99664306640625
271;1673425037.0753381;47.1293247;7.2387983;49.97500228881836;1673425037.1446567;-48.031864166259766;-4.080825328826904;-139.1029815673828
272;1673425037.2745516;47.1293077;7.238776;49.97900390625;1673425037.3439202;-48.145957946777344;-4.3866963386535645;-139.2197723388672
273;1673425037.4758177;47.1292906;7.2387538;49.983001708984375;1673425037.54414;-48.182472229003906;-4.415800094604492;-139.3167266845703
274;1673425037.6723447;47.1292735;7.2387318;49.98800277709961;1673425037.742769;-44.97410202026367;-4.672913551330566;-139.50416564941406
275;1673425037.871843;47.129256399999996;7.238709999999999;50.00700378417969;1673425037.9363856;-35.20408248901367;-4.609586238861084;-139.2067108154297
276;1673425038.0655782;47.1292397;7.2386889;50.03600311279297;1673425038.129053;-19.456235885620117;-4.857232093811035;-138.0655975341797
277;1673425038.264815;47.129224099999995;7.2386693;50.052001953125;1673425038.327317;-7.1036176681518555;-3.4283273220062256;-137.30418395996094
278;1673425038.4647002;47.129210199999996;7.2386516;50.057003021240234;1673425038.5357842;1.6383665800094604;-2.359614610671997;-136.96482849121094
279;1673425038.668192;47.1291982;7.2386363;50.057003021240234;1673425038.7563255;8.910591125488281;-0.19066524505615234;-137.62066650390625
280;1673425038.8857212;47.1291885;7.2386235999999995;50.04600143432617;1673425038.954699;8.840508460998535;-1.4360634088516235;-139.22293090820312
281;1673425039.0860467;47.129180899999994;7.2386133;50.0420036315918;1673425039.1520767;6.517668724060059;-8.23299789428711;-138.04014587402344
282;1673425039.2729774;47.1291752;7.2386053;50.038002014160156;1673425039.343448;2.4549407958984375;-0.8848981261253357;-138.59890747070312
283;1673425039.4684677;47.129170699999996;7.2385993;50.04500198364258;1673425039.5407991;-1.2682874202728271;-5.556395530700684;-137.0821075439453
284;1673425039.6649358;47.1291672;7.2385945;50.05900192260742;1673425039.7375603;-5.480823040008545;-5.925539016723633;-137.08560180664062
285;1673425039.8648937;47.1291642;7.2385907;50.07200241088867;1673425039.936225;-10.506821632385254;-7.030111312866211;-137.19577026367188
286;1673425040.0674937;47.1291617;7.2385874;50.082000732421875;1673425040.1320245;-13.798665046691895;-5.892181396484375;-137.23904418945312
287;1673425040.2683234;47.1291593;7.2385845;50.09300231933594;1673425040.350469;-15.055428504943848;-5.108677864074707;-136.87649536132812
288;1673425040.4833205;47.129157;7.2385816;50.10400390625;1673425040.5497217;-14.280214309692383;-1.709152340888977;-136.92909240722656
289;1673425040.6835492;47.129154799999995;7.2385787;50.11600112915039;1673425040.7510698;-26.725130081176758;-0.9777162075042725;-137.0100555419922
290;1673425040.8740032;47.1291523;7.2385752;50.17900085449219;1673425040.9444504;-34.66972351074219;1.1915334463119507;-138.2080841064453
291;1673425041.0968451;47.1291491;7.2385701;50.28700256347656;1673425041.1619635;-20.799835205078125;-0.3680562973022461;-138.31195068359375
292;1673425041.288513;47.1291455;7.2385641;50.454002380371094;1673425041.351022;-15.95910358428955;-0.3572801649570465;-138.00584411621094
293;1673425041.4768577;47.129142099999996;7.238557999999999;50.69000244140625;1673425041.5521789;-14.523995399475098;1.986269235610962;-137.9312744140625
294;1673425041.6833065;47.1291389;7.2385518;50.98800277709961;1673425041.7587852;-26.48434829711914;-2.5063676834106445;-137.4307098388672
295;1673425041.870382;47.129135399999996;7.238544999999999;51.345001220703125;1673425041.9348;-48.70894241333008;-10.46082878112793;-136.72662353515625
296;1673425042.0601993;47.1291302;7.238536799999999;51.70900344848633;1673425042.131993;-49.36916732788086;-7.856905460357666;-137.5109100341797
297;1673425042.2587507;47.129123;7.2385269;52.04900360107422;1673425042.3252323;-46.646759033203125;-7.388852119445801;-137.2705078125
298;1673425042.45731;47.1291145;7.2385158;52.36700439453125;1673425042.5293205;-43.26655197143555;-6.554067611694336;-137.2946319580078
299;1673425042.660474;47.129104999999996;7.2385037;52.67400360107422;1673425042.7292418;-39.39811325073242;-4.134225368499756;-137.91961669921875
300;1673425042.8535593;47.1290949;7.2384908999999995;52.98100280761719;1673425042.9214468;-36.04183578491211;-3.8096988201141357;-137.1656494140625
301;1673425043.0423625;47.1290845;7.2384778;53.2910041809082;1673425043.1093812;-34.187538146972656;-2.8527169227600098;-137.31993103027344
302;1673425043.2403975;47.1290741;7.2384642999999995;53.61300277709961;1673425043.3132906;-32.813499450683594;-2.94948673248291;-136.98060607910156
303;1673425043.4419072;47.129063699999996;7.2384508;53.94400405883789;1673425043.5088136;-31.986324310302734;-3.1343154907226562;-136.9105987548828
304;1673425043.637442;47.1290534;7.2384371;54.288002014160156;1673425043.7125745;-31.283559799194336;-3.611145257949829;-136.71600341796875
305;1673425043.8433008;47.1290433;7.2384235;54.64400100708008;1673425043.9152436;-31.12184715270996;-3.859227418899536;-136.64207458496094
306;1673425044.0522192;47.129033299999996;7.23841;55.00800323486328;1673425044.1238618;-31.194913864135742;-3.9307620525360107;-136.6762237548828
307;1673425044.2434273;47.1290234;7.2383964999999995;55.37700271606445;1673425044.312507;-31.523941040039062;-3.8866634368896484;-136.74676513671875
308;1673425044.4361706;47.1290136;7.2383831;55.75200271606445;1673425044.5083122;-32.03340530395508;-3.7160561084747314;-136.87351989746094
309;1673425044.6354032;47.1290039;7.2383695999999995;56.130001068115234;1673425044.7187963;-32.38762664794922;-3.6394498348236084;-136.9881591796875
310;1673425044.8445313;47.128994299999995;7.2383562999999995;56.512001037597656;1673425044.924754;-32.95338821411133;-3.577558755874634;-137.0716552734375
311;1673425045.058215;47.1289847;7.2383428;56.89800262451172;1673425045.13195;-33.19303894042969;-4.233884334564209;-136.94821166992188
312;1673425045.2675707;47.128975;7.238329299999999;57.28900146484375;1673425045.3408492;-33.24992752075195;-4.553839206695557;-136.9225616455078
313;1673425045.464438;47.1289653;7.238315699999999;57.682003021240234;1673425045.538627;-32.96025085449219;-5.36651086807251;-136.7320098876953
314;1673425045.6666;47.1289555;7.2383022;58.07600402832031;1673425045.728234;-32.6405143737793;-5.419118881225586;-136.7666015625
315;1673425045.8568904;47.1289458;7.2382887;58.47200393676758;1673425045.9311926;-32.629573822021484;-4.936644554138184;-136.8926239013672
316;1673425046.0818663;47.128935999999996;7.2382753;58.8640022277832;1673425046.1522887;-32.77829360961914;-4.485589981079102;-136.94876098632812
317;1673425046.2667444;47.128926199999995;7.2382618999999995;59.259002685546875;1673425046.332471;-32.597354888916016;-4.021481990814209;-137.1116180419922
318;1673425046.474859;47.1289164;7.2382485;59.65300369262695;1673425046.5494118;-32.748260498046875;-3.6119096279144287;-137.0927734375
319;1673425046.678823;47.1289065;7.2382352;60.04700469970703;1673425046.7522051;-32.90903854370117;-3.900334119796753;-137.00001525878906
320;1673425046.8673785;47.1288967;7.2382218;60.4430046081543;1673425046.939747;-33.04281234741211;-4.36259126663208;-136.8999786376953
321;1673425047.073782;47.1288869;7.2382083999999995;60.83500289916992;1673425047.144393;-32.964210510253906;-4.52060079574585;-136.78164672851562
322;1673425047.2748387;47.1288771;7.238194999999999;61.22700119018555;1673425047.347247;-33.12484359741211;-4.689858913421631;-136.7505340576172
323;1673425047.4781878;47.128867199999995;7.238181699999999;61.6150016784668;1673425047.5514293;-33.08417892456055;-4.683751583099365;-136.7849884033203
324;1673425047.6795607;47.1288574;7.2381683;62.00300216674805;1673425047.7527936;-33.09532928466797;-3.9274516105651855;-136.99981689453125
325;1673425047.8759644;47.1288475;7.238154799999999;62.39800262451172;1673425047.9542594;-33.07456588745117;-3.675013780593872;-137.04083251953125
326;1673425048.0717597;47.1288376;7.2381414;62.79600143432617;1673425048.139588;-32.97270965576172;-3.484574317932129;-137.1375274658203
327;1673425048.2760615;47.128827699999995;7.238127899999999;63.191001892089844;1673425048.3455834;-33.1397705078125;-3.413278341293335;-137.10903930664062
328;1673425048.4814317;47.1288179;7.2381144;63.58700180053711;1673425048.5733745;-33.064292907714844;-4.127352714538574;-136.8997802734375
329;1673425048.6971734;47.128808;7.2381009;63.97900390625;1673425048.7699332;-33.17387390136719;-4.2423224449157715;-136.87673950195312
330;1673425048.9328296;47.1287982;7.2380873999999995;64.37200164794922;1673425049.000434;-33.239593505859375;-4.7100019454956055;-136.7242431640625
331;1673425049.1263094;47.1287883;7.2380739;64.76499938964844;1673425049.1917696;-33.23036575317383;-4.410926342010498;-136.7645263671875
332;1673425049.3066783;47.1287783;7.2380603;65.15800476074219;1673425049.3719385;-33.139244079589844;-4.110271453857422;-136.85186767578125
333;1673425049.4954934;47.1287684;7.2380467;65.5510025024414;1673425049.5623324;-33.15496063232422;-3.768369197845459;-137.005615234375
334;1673425049.6889932;47.128758499999996;7.2380331;65.94400024414062;1673425049.7614279;-32.93227005004883;-3.4890310764312744;-137.07936096191406
335;1673425049.9004834;47.128748599999994;7.2380195;66.33900451660156;1673425049.968812;-33.07368850708008;-3.56623911857605;-137.0734405517578
336;1673425050.0973034;47.1287387;7.2380058;66.73400115966797;1673425050.1717837;-33.023677825927734;-4.159844398498535;-136.89439392089844
337;1673425050.303134;47.1287288;7.2379922;67.13600158691406;1673425050.3800466;-33.083168029785156;-4.46241569519043;-136.78945922851562
338;1673425050.5107298;47.128718899999996;7.2379786;67.53700256347656;1673425050.5753574;-32.84951400756836;-4.853472709655762;-136.78929138183594
339;1673425050.6890817;47.128709099999995;7.237965;67.93800354003906;1673425050.7585447;-32.91319274902344;-4.9846391677856445;-136.7292938232422
340;1673425050.8854597;47.1286992;7.2379514;68.33800506591797;1673425050.9609141;-32.885189056396484;-4.781651496887207;-136.7726287841797
341;1673425051.0901165;47.1286893;7.2379378;68.73500061035156;1673425051.1584368;-33.01248550415039;-4.423685550689697;-136.86471557617188
342;1673425051.2888005;47.1286795;7.2379242999999995;69.1310043334961;1673425051.3583205;-33.18244934082031;-3.989593982696533;-137.016845703125
343;1673425051.4823813;47.128669599999995;7.2379107;69.52900695800781;1673425051.5600622;-33.009952545166016;-3.7462663650512695;-137.0272674560547
344;1673425051.6983123;47.1286597;7.2378971;69.9280014038086;1673425051.7730799;-33.19209289550781;-3.5504777431488037;-137.10812377929688
345;1673425051.8968456;47.1286498;7.2378836;70.3270034790039;1673425051.9688594;-33.24173355102539;-4.041104316711426;-136.94224548339844
346;1673425052.1017897;47.128639899999996;7.23787;70.72200012207031;1673425052.1735373;-33.150184631347656;-4.294792175292969;-136.84170532226562
347;1673425052.2971902;47.12863;7.2378564;71.11400604248047;1673425052.3657525;-33.06684875488281;-4.688570499420166;-136.7606964111328
348;1673425052.470553;47.1286201;7.2378427;71.5060043334961;1673425052.536631;-33.0832405090332;-4.845087051391602;-136.73556518554688
349;1673425052.6678073;47.1286102;7.2378291;71.89800262451172;1673425052.739879;-33.03173828125;-4.550512790679932;-136.81207275390625
350;1673425052.8690147;47.128600299999995;7.237815599999999;72.29199981689453;1673425052.9410172;-33.19382858276367;-4.261715412139893;-136.89939880371094
351;1673425053.057375;47.1285904;7.2378021;72.68700408935547;1673425053.123444;-33.17967224121094;-4.015753746032715;-136.9842529296875
352;1673425053.2607138;47.1285805;7.2377886;73.08600616455078;1673425053.3341224;-33.16960906982422;-3.535515546798706;-137.0243682861328
353;1673425053.4779282;47.128570599999996;7.237775;73.48700714111328;1673425053.551417;-33.22491455078125;-3.466484785079956;-137.06253051757812
354;1673425053.6725397;47.1285607;7.237761399999999;73.88800048828125;1673425053.7366579;-33.15824508666992;-3.528355836868286;-137.02838134765625
355;1673425053.8694766;47.1285508;7.2377477;74.28400421142578;1673425053.9403672;-33.2579460144043;-3.560821771621704;-137.02703857421875
356;1673425054.071124;47.1285409;7.2377341;74.67900085449219;1673425054.150683;-33.30195236206055;-3.8907008171081543;-136.94720458984375
357;1673425054.2769928;47.128530999999995;7.2377204;75.07400512695312;1673425054.3425045;-33.200992584228516;-4.210763454437256;-136.85037231445312
358;1673425054.4690914;47.1285211;7.2377066999999995;75.47100067138672;1673425054.5374513;-33.06804275512695;-4.447351932525635;-136.8638458251953
359;1673425054.6700196;47.1285112;7.237692999999999;75.86800384521484;1673425054.7391844;-33.11986541748047;-4.704658031463623;-136.77978515625
360;1673425054.875925;47.128501299999996;7.2376793;76.26600646972656;1673425054.9389586;-33.0688591003418;-4.528501033782959;-136.8240966796875
361;1673425055.0646548;47.128491399999994;7.2376657;76.66800689697266;1673425055.1443264;-33.115840911865234;-4.666769981384277;-136.78955078125
362;1673425055.2763598;47.1284815;7.237652;77.06600189208984;1673425055.343417;-33.207881927490234;-4.567899703979492;-136.81214904785156
363;1673425055.4776628;47.1284716;7.2376384;77.46300506591797;1673425055.5468447;-33.1556396484375;-4.158707618713379;-136.91275024414062
364;1673425055.6786914;47.1284616;7.2376248;77.86000061035156;1673425055.748402;-33.098182678222656;-4.27367639541626;-136.91094970703125
365;1673425055.8752964;47.1284517;7.2376111;78.2560043334961;1673425055.943815;-33.18893814086914;-3.9216220378875732;-136.98033142089844
366;1673425056.070435;47.1284418;7.2375975;78.65300750732422;1673425056.144843;-33.288536071777344;-3.795569658279419;-136.99851989746094
367;1673425056.267856;47.128431899999995;7.2375839;79.04900360107422;1673425056.333766;-33.337249755859375;-3.819762706756592;-137.0028839111328
368;1673425056.4544227;47.128422;7.2375703;79.44200134277344;1673425056.532199;-33.240638732910156;-3.7945332527160645;-136.99954223632812
369;1673425056.6521254;47.1284121;7.2375566;79.83300018310547;1673425056.7215931;-33.3856086730957;-3.917853593826294;-136.96275329589844
370;1673425056.8491101;47.1284022;7.237542899999999;80.2300033569336;1673425056.923841;-33.318145751953125;-4.268189907073975;-136.92625427246094
371;1673425057.078667;47.128392299999994;7.2375291;80.6300048828125;1673425057.1565988;-33.290679931640625;-4.393437385559082;-136.9182586669922
372;1673425057.3349416;47.1283824;7.2375153999999995;81.0320053100586;1673425057.4118671;-33.13044357299805;-4.371241092681885;-136.87770080566406
373;1673425057.5490847;47.128372399999996;7.237501699999999;81.43500518798828;1673425057.6072173;-33.092926025390625;-4.4480061531066895;-136.9149169921875
374;1673425057.7395642;47.1283624;7.237488;81.83700561523438;1673425057.8194387;-33.04767608642578;-4.478546142578125;-136.864501953125
375;1673425057.9359949;47.1283525;7.2374744;82.23700714111328;1673425057.995405;-33.11135482788086;-4.418207168579102;-136.8974151611328
376;1673425058.1054382;47.128342499999995;7.2374607;82.63700103759766;1673425058.1778824;-33.136505126953125;-4.280531406402588;-136.92904663085938
377;1673425058.299672;47.1283326;7.2374471;83.03900146484375;1673425058.368027;-32.91944885253906;-4.077794075012207;-136.97654724121094
378;1673425058.4972658;47.1283226;7.2374334;83.44100189208984;1673425058.565286;-32.952919006347656;-4.016218662261963;-136.9710693359375
379;1673425058.6896558;47.1283126;7.237419699999999;83.83900451660156;1673425058.7574053;-32.97966384887695;-4.009726524353027;-136.9766845703125
380;1673425058.890061;47.1283027;7.237406099999999;84.23700714111328;1673425058.9613092;-33.01597595214844;-4.021333694458008;-136.96495056152344
381;1673425059.0877323;47.1282928;7.2373926;84.63500213623047;1673425059.1659791;-33.165653228759766;-4.039182662963867;-136.94277954101562
382;1673425059.2990222;47.1282828;7.237379;85.0320053100586;1673425059.3722749;-33.19434356689453;-3.9521870613098145;-136.9667510986328
383;1673425059.498417;47.1282729;7.2373654;85.43000030517578;1673425059.569238;-33.122779846191406;-4.210361480712891;-136.90194702148438
384;1673425059.696851;47.128263;7.2373518;85.82600402832031;1673425059.7683434;-33.19818878173828;-4.215639591217041;-136.93450927734375
385;1673425059.9030335;47.128253099999995;7.2373382;86.22300720214844;1673425059.9724913;-33.26234436035156;-4.256402492523193;-136.9156494140625
386;1673425060.104906;47.1282432;7.2373245;86.61700439453125;1673425060.1761634;-33.177032470703125;-4.422277450561523;-136.8907470703125
387;1673425060.3121765;47.1282332;7.2373109;87.01600646972656;1673425060.383717;-33.19733428955078;-4.361258506774902;-136.9113311767578
388;1673425060.520302;47.128223299999995;7.2372973;87.41600036621094;1673425060.5860016;-33.05686569213867;-4.51880407333374;-136.90365600585938
389;1673425060.7279847;47.1282133;7.2372837;87.81700134277344;1673425060.7968695;-33.10536575317383;-4.332204818725586;-136.92355346679688
390;1673425060.9160943;47.128203299999996;7.2372701;88.21200561523438;1673425060.9904628;-33.11251449584961;-4.242620468139648;-136.93234252929688
391;1673425061.1170404;47.1281934;7.2372565;88.60600280761719;1673425061.1865;-33.085121154785156;-4.2034711837768555;-136.94876098632812
392;1673425061.3156166;47.1281834;7.237242999999999;89.00300598144531;1673425061.37813;-33.018653869628906;-4.054455280303955;-136.9174346923828
393;1673425061.5066872;47.128173399999994;7.2372293999999995;89.4010009765625;1673425061.574024;-33.08933639526367;-4.065462589263916;-136.92396545410156
394;1673425061.7014956;47.1281634;7.2372159;89.79900360107422;1673425061.7723374;-33.10261154174805;-4.173003673553467;-136.89218139648438
395;1673425061.9070811;47.128153499999996;7.2372023;90.19400787353516;1673425061.9717038;-33.07984924316406;-4.123305797576904;-136.8916778564453
396;1673425062.1271572;47.1281435;7.237188799999999;90.59000396728516;1673425062.1947217;-33.09196472167969;-4.121162414550781;-136.8592987060547
397;1673425062.3251498;47.1281335;7.237175199999999;90.98900604248047;1673425062.3958368;-33.04616165161133;-4.002640247344971;-136.8851776123047
398;1673425062.5173554;47.1281235;7.237161599999999;91.38900756835938;1673425062.5759547;-33.08342742919922;-4.069577217102051;-136.85084533691406
399;1673425062.6980963;47.1281135;7.2371479999999995;91.78700256347656;1673425062.768369;-32.998661041259766;-4.019833564758301;-136.8660888671875
400;1673425062.9003158;47.128103599999996;7.2371343999999995;92.1820068359375;1673425062.9709766;-32.9365348815918;-4.117238521575928;-136.84561157226562
401;1673425063.1044736;47.1280937;7.237120699999999;92.5790023803711;1673425063.1688895;-32.938819885253906;-4.239552974700928;-136.88758850097656
402;1673425063.3419118;47.1280837;7.237107099999999;92.97600555419922;1673425063.3980794;-32.980125427246094;-4.254299163818359;-136.85409545898438
403;1673425063.521384;47.128073799999996;7.237093499999999;93.37500762939453;1673425063.5880218;-33.04298400878906;-4.231578350067139;-136.869873046875
404;1673425063.711081;47.1280639;7.2370798999999995;93.7760009765625;1673425063.7834513;-32.82485580444336;-4.206923961639404;-136.8596649169922
405;1673425063.9136484;47.1280539;7.2370662999999995;94.1760025024414;1673425063.976121;-33.03245162963867;-4.241856575012207;-136.83335876464844
406;1673425064.1202335;47.128043999999996;7.2370527;94.5770034790039;1673425064.1906552;-32.86870574951172;-4.141896724700928;-136.8613739013672
407;1673425064.3191214;47.1280341;7.2370391;94.97700500488281;1673425064.3827224;-33.00486373901367;-4.298827648162842;-136.84649658203125
408;1673425064.5845149;47.1280242;7.237025399999999;95.37800598144531;1673425064.6450834;-32.90898513793945;-4.316455364227295;-136.8509979248047
409;1673425064.763169;47.128014199999996;7.2370119;95.77400207519531;1673425064.8293283;-32.95499801635742;-4.293093681335449;-136.8391571044922
410;1673425064.9546683;47.1280043;7.2369983;96.17000579833984;1673425065.0200794;-33.01398849487305;-4.194278240203857;-136.8533477783203
411;1673425065.143304;47.1279944;7.2369847;96.56900787353516;1673425065.2059467;-32.96210479736328;-4.159535884857178;-136.8338165283203
412;1673425065.3227127;47.1279845;7.2369711;96.96900177001953;1673425065.3861597;-33.07432174682617;-4.315240859985352;-136.81390380859375
413;1673425065.5173151;47.127974599999995;7.2369575;97.36300659179688;1673425065.5848181;-33.006591796875;-4.290752410888672;-136.79336547851562
414;1673425065.7090013;47.1279647;7.2369438;97.75900268554688;1673425065.7852993;-33.07231521606445;-4.400562763214111;-136.85995483398438
415;1673425065.9112911;47.1279548;7.2369302;98.1570053100586;1673425065.983743;-33.05318069458008;-4.303487777709961;-136.83677673339844
416;1673425066.1062582;47.127944899999996;7.2369166;98.55400848388672;1673425066.1784873;-33.09511947631836;-4.192162990570068;-136.86622619628906
417;1673425066.3045561;47.127935;7.236903;98.9540023803711;1673425066.3795621;-32.98725891113281;-4.229624271392822;-136.82260131835938
418;1673425066.4997246;47.127925;7.2368893;99.35200500488281;1673425066.5812876;-32.98799133300781;-4.255039215087891;-136.82513427734375
419;1673425066.7070084;47.127915099999996;7.236875599999999;99.74900817871094;1673425066.7703454;-32.928192138671875;-4.1653571128845215;-136.83326721191406
420;1673425066.899667;47.127905299999995;7.2368619999999995;100.14400482177734;1673425066.9679873;-32.9515380859375;-4.3975372314453125;-136.85218811035156
421;1673425067.0887914;47.1278954;7.236848299999999;100.53600311279297;1673425067.1626565;-33.14967727661133;-4.232632160186768;-136.8422393798828
