;pos_time;latitude;longitude;altitude;alt_time;pitch;roll;yaw
0;1673424458.7575161;47.1306425;7.2406197;-0.02500000037252903;1673424458.79558;0.1026613637804985;-0.4025951325893402;89.96570587158203
1;1673424458.9619496;47.1306424;7.240619799999999;-0.030000001192092896;1673424458.9943135;0.2080419659614563;-0.576880693435669;90.22945404052734
2;1673424459.1736023;47.1306424;7.2406198999999996;-0.03100000135600567;1673424459.205965;0.09656544029712677;-0.3302420973777771;89.89229583740234
3;1673424459.362499;47.1306424;7.24062;-0.03500000014901161;1673424459.3956823;-0.09120140224695206;-0.28301939368247986;89.99512481689453
4;1673424459.5677137;47.1306423;7.24062;-0.03400000184774399;1673424459.6019938;-0.19190382957458496;-0.49955207109451294;90.07234191894531
5;1673424459.7769258;47.1306423;7.2406201;-0.03500000014901161;1673424459.8120666;-0.08659566938877106;-0.29690834879875183;90.10537719726562
6;1673424459.981898;47.1306423;7.2406201;-0.036000002175569534;1673424460.0172508;0.29620102047920227;-0.38700705766677856;90.15248107910156
7;1673424460.1766806;47.1306423;7.24062;-0.036000002175569534;1673424460.2100296;-0.06995322555303574;-0.31599855422973633;90.00528717041016
8;1673424460.3566089;47.1306423;7.24062;-0.039000000804662704;1673424460.3868647;0.08226047456264496;-0.45033660531044006;90.03836059570312
9;1673424460.5530515;47.1306423;7.2406198999999996;-0.0010000000474974513;1673424460.5901396;0.056304026395082474;1.277936339378357;90.09370422363281
10;1673424460.7728958;47.1306423;7.2406198999999996;-0.0010000000474974513;1673424460.80755;0.194099560379982;1.0338196754455566;90.00894165039062
11;1673424460.9580078;47.1306423;7.2406198999999996;-0.0020000000949949026;1673424460.9922187;-0.2284129112958908;0.928274393081665;90.16227722167969
12;1673424461.1429062;47.1306424;7.24062;-0.0010000000474974513;1673424461.1741374;-0.04576408118009567;1.1052016019821167;90.10581970214844
13;1673424461.3323226;47.1306423;7.24062;-0.003000000026077032;1673424461.3724847;0.30098214745521545;0.7854005098342896;90.32261657714844
14;1673424461.5397065;47.1306423;7.24062;-0.006000000052154064;1673424461.5728905;0.133912593126297;1.7756839990615845;90.08601379394531
15;1673424461.7398663;47.1306423;7.24062;-0.007000000216066837;1673424461.7782526;-0.02861560881137848;1.8594249486923218;90.21018981933594
16;1673424461.9451668;47.1306423;7.2406201;-0.005000000353902578;1673424461.9834304;-0.036914292722940445;1.9004442691802979;90.10556030273438
17;1673424462.1454623;47.1306423;7.2406201;0.0010000000474974513;1673424462.1789107;0.03502900153398514;1.8120392560958862;90.0814208984375
18;1673424462.3440957;47.1306422;7.2406201999999995;0.003000000026077032;1673424462.385088;0.14464786648750305;0.8177371621131897;90.25759887695312
19;1673424462.5562437;47.130642099999996;7.2406201999999995;0.006000000052154064;1673424462.590421;0.26653197407722473;0.276292085647583;90.42930603027344
20;1673424462.7536063;47.130642099999996;7.2406201999999995;0.00800000037997961;1673424462.79167;0.2714014947414398;0.7186579704284668;90.61138153076172
21;1673424462.9695866;47.130641999999995;7.2406201999999995;0.010000000707805157;1673424463.0048687;0.128407284617424;0.6615023016929626;91.7947769165039
22;1673424463.1732752;47.1306419;7.2406201999999995;0.013000000268220901;1673424463.20938;0.34908729791641235;0.5379904508590698;93.29049682617188
23;1673424463.3609662;47.130641499999996;7.2406201999999995;0.009000000543892384;1673424463.391225;0.27116990089416504;0.46144023537635803;94.75420379638672
24;1673424463.563262;47.130640799999995;7.2406201999999995;0.005000000353902578;1673424463.5954704;0.14908556640148163;-0.08328114449977875;98.79153442382812
25;1673424463.7519853;47.130639599999995;7.24062;0.0;1673424463.7931082;-0.06359977275133133;-0.19172175228595734;107.12591552734375
26;1673424463.9548247;47.1306377;7.240619499999999;-0.007000000216066837;1673424463.9887414;0.9939075112342834;-2.896629571914673;118.17362976074219
27;1673424464.1653347;47.1306351;7.240619;0.0;1673424464.1985626;4.197177410125732;-5.17796516418457;127.34236907958984
28;1673424464.36143;47.130631799999996;7.2406185;0.007000000216066837;1673424464.390854;6.639556884765625;-9.20954418182373;131.14353942871094
29;1673424464.560368;47.130627999999994;7.2406179999999996;0.013000000268220901;1673424464.5935514;7.27489709854126;-13.398002624511719;127.59565734863281
30;1673424464.7482655;47.130623899999996;7.240617299999999;0.02500000037252903;1673424464.7855332;7.377395153045654;-16.38306427001953;122.81420135498047
31;1673424464.9695232;47.1306194;7.2406163999999995;0.03800000250339508;1673424465.0058336;7.223973274230957;-17.96634292602539;119.08218383789062
32;1673424465.1625981;47.130615;7.2406155;0.058000002056360245;1673424465.200725;6.893680572509766;-19.92540740966797;116.07102966308594
33;1673424465.3731322;47.1306106;7.2406144999999995;0.08100000023841858;1673424465.4063175;6.556756019592285;-21.97376251220703;113.66966247558594
34;1673424465.5640333;47.1306063;7.2406134;0.10000000149011612;1673424465.6011624;6.162612438201904;-23.870437622070312;111.828369140625
35;1673424465.7637026;47.1306023;7.2406123;0.11800000816583633;1673424465.8027482;5.862887859344482;-25.938398361206055;110.33848571777344
36;1673424465.9565752;47.1305986;7.2406112;0.1380000114440918;1673424465.9915056;5.5710530281066895;-28.024303436279297;109.22150421142578
37;1673424466.1470916;47.130595299999996;7.2406101;0.15600000321865082;1673424466.1814096;5.345898151397705;-29.97400665283203;108.29044342041016
38;1673424466.3475227;47.1305924;7.2406090999999995;0.1730000078678131;1673424466.3846598;5.134054183959961;-32.10087203979492;107.57957458496094
39;1673424466.568462;47.1305902;7.2406082;0.18800000846385956;1673424466.6024172;5.020786762237549;-34.20027542114258;107.02723693847656
40;1673424466.770674;47.130588499999995;7.2406074;0.20500001311302185;1673424466.8040016;4.876964569091797;-36.28453826904297;106.59322357177734
41;1673424466.9767962;47.1305876;7.240606799999999;0.2200000137090683;1673424467.013884;4.939047813415527;-38.28851318359375;106.35302734375
42;1673424467.1710258;47.130587399999996;7.240606499999999;0.23400001227855682;1673424467.205348;4.9669647216796875;-40.26918029785156;106.20094299316406
43;1673424467.3690329;47.1305881;7.240606199999999;0.24900001287460327;1673424467.4170976;4.920844554901123;-42.474979400634766;106.04936981201172
44;1673424467.613266;47.1305896;7.2406063;0.2639999985694885;1673424467.6435344;5.062184810638428;-44.540992736816406;105.94541931152344
45;1673424467.814241;47.1305921;7.2406067;0.2770000100135803;1673424467.8479788;5.286019325256348;-46.66371154785156;105.94436645507812
46;1673424468.0032594;47.1305956;7.2406074;0.2930000126361847;1673424468.0315967;5.5077948570251465;-48.70530319213867;106.0361328125
47;1673424468.1817365;47.130600199999996;7.240608399999999;0.30800002813339233;1673424468.211015;5.26472282409668;-46.96504592895508;106.3067398071289
48;1673424468.4084244;47.130605599999996;7.240609699999999;0.31200000643730164;1673424468.4567955;4.748201847076416;-42.19441223144531;106.65919494628906
49;1673424468.6411135;47.1306114;7.2406112;0.3100000023841858;1673424468.666692;3.957742214202881;-36.69365692138672;106.99202728271484
50;1673424468.85434;47.130617099999995;7.2406128;0.30300000309944153;1673424468.881713;3.214092254638672;-31.063243865966797;107.37393188476562
51;1673424469.024982;47.1306225;7.2406143;0.3230000138282776;1673424469.054808;3.001145839691162;-26.355016708374023;107.9670181274414
52;1673424469.1999562;47.1306273;7.2406156;0.35100001096725464;1673424469.2360709;2.182180404663086;-22.256221771240234;108.00651550292969
53;1673424469.392725;47.1306313;7.2406166;0.3750000298023224;1673424469.431775;1.8635706901550293;-20.276596069335938;107.8912353515625
54;1673424469.5803752;47.1306343;7.2406175;0.4000000059604645;1673424469.6191053;1.7420843839645386;-20.262731552124023;107.71489715576172
55;1673424469.7798727;47.1306365;7.2406181;0.43300002813339233;1673424469.812098;1.8606151342391968;-19.71076011657715;107.53021240234375
56;1673424469.9778695;47.130637799999995;7.2406185;0.4660000205039978;1673424470.0121708;2.0976028442382812;-21.610563278198242;107.4452896118164
57;1673424470.173717;47.130638399999995;7.2406188;0.5139999985694885;1673424470.2069085;2.8076276779174805;-25.68653106689453;107.5339584350586
58;1673424470.3642504;47.1306386;7.240619;0.5690000057220459;1673424470.392557;3.2231693267822266;-25.867429733276367;107.61978912353516
59;1673424470.55741;47.1306386;7.2406191;0.6310000419616699;1673424470.5905988;3.5862162113189697;-27.46880340576172;107.64122772216797
60;1673424470.7687054;47.1306386;7.2406193;0.706000030040741;1673424470.8039987;4.067925453186035;-30.44282341003418;107.56366729736328
61;1673424470.9705083;47.1306387;7.2406194;0.7970000505447388;1673424471.0077405;4.324213027954102;-29.977489471435547;107.62200927734375
62;1673424471.1659887;47.1306389;7.240619499999999;0.909000039100647;1673424471.1962447;4.093804359436035;-28.93111228942871;107.70242309570312
63;1673424471.3634396;47.1306392;7.2406196;1.037000060081482;1673424471.3956478;4.058578014373779;-30.15032386779785;107.77865600585938
64;1673424471.5600555;47.130639599999995;7.2406196;1.1750000715255737;1673424471.5924864;3.9721620082855225;-29.458139419555664;107.86219024658203
65;1673424471.757048;47.13064;7.240619499999999;1.3300000429153442;1673424471.7931607;3.460637331008911;-27.668785095214844;107.94217681884766
66;1673424471.9623299;47.1306404;7.240619499999999;1.5010000467300415;1673424472.0018663;3.12030291557312;-28.55762481689453;108.00270080566406
67;1673424472.1753185;47.130640799999995;7.240619499999999;1.683000087738037;1673424472.2075272;3.3865530490875244;-28.012784957885742;109.41389465332031
68;1673424472.3730373;47.1306412;7.240619499999999;1.8670001029968262;1673424472.4062226;3.0464255809783936;-26.377803802490234;109.4029541015625
69;1673424472.5735462;47.130641499999996;7.240619499999999;2.052000045776367;1673424472.6059911;2.5657801628112793;-27.19190788269043;109.33959197998047
70;1673424472.773811;47.1306416;7.240619499999999;2.239000082015991;1673424472.8150864;2.8621180057525635;-27.777751922607422;109.30790710449219
71;1673424472.9631698;47.1306417;7.240619499999999;2.4280002117156982;1673424472.992272;2.557432174682617;-26.40764808654785;109.270751953125
72;1673424473.155574;47.1306417;7.240619499999999;2.620000123977661;1673424473.1879225;2.4296762943267822;-27.368515014648438;109.17707824707031
73;1673424473.348455;47.1306417;7.240619499999999;2.811000108718872;1673424473.3802469;3.021146535873413;-28.87525749206543;109.14486694335938
74;1673424473.5484881;47.1306416;7.2406196;3.000000238418579;1673424473.5861156;3.0040056705474854;-27.501949310302734;109.22989654541016
75;1673424473.7542012;47.130641499999996;7.2406197;3.19100022315979;1673424473.7953079;3.2711868286132812;-27.9686222076416;109.29057312011719
76;1673424473.965547;47.130641399999995;7.240619799999999;3.38100004196167;1673424474.0057228;3.449488878250122;-29.28059196472168;109.23738861083984
77;1673424474.1767476;47.130641399999995;7.2406198999999996;3.570000171661377;1673424474.2117028;3.5496749877929688;-28.5467472076416;109.2247543334961
78;1673424474.3762674;47.1306413;7.2406198999999996;3.760000228881836;1673424474.4114206;3.3863236904144287;-28.02178955078125;109.26739501953125
79;1673424474.5890944;47.130641399999995;7.24062;3.94700026512146;1673424474.6209087;3.464103937149048;-29.41435432434082;109.27344512939453
80;1673424474.7662516;47.130641499999996;7.24062;4.131999969482422;1673424474.7975595;3.6905086040496826;-28.485151290893555;109.25463104248047
81;1673424474.9721432;47.1306416;7.2406201;4.319000244140625;1673424475.0103467;3.3650176525115967;-27.239782333374023;109.318603515625
82;1673424475.170441;47.1306417;7.2406201;4.509000301361084;1673424475.2046065;3.296671152114868;-28.654970169067383;109.31074523925781
83;1673424475.3600628;47.1306418;7.2406201;4.699000358581543;1673424475.3952372;3.318481206893921;-28.41717529296875;109.26656341552734
84;1673424475.5587435;47.1306418;7.2406201;4.888000011444092;1673424475.595056;2.9098660945892334;-27.019800186157227;109.27754974365234
85;1673424475.7657838;47.1306419;7.2406201;5.076000213623047;1673424475.8023746;3.1717681884765625;-28.320043563842773;109.2277603149414
86;1673424475.9797084;47.130641999999995;7.2406201;5.266000270843506;1673424476.0158615;3.413429021835327;-28.494169235229492;109.21961975097656
87;1673424476.1751049;47.130641999999995;7.2406201;5.459000110626221;1673424476.2092972;3.130556583404541;-26.90871810913086;109.30770874023438
88;1673424476.376481;47.130641999999995;7.2406201999999995;5.651000499725342;1673424476.4137316;3.268033742904663;-27.812135696411133;109.25444030761719
89;1673424476.584595;47.130641999999995;7.2406201999999995;5.842000484466553;1673424476.6129916;3.4710466861724854;-28.9545841217041;109.37551879882812
90;1673424476.7764494;47.1306419;7.2406201999999995;6.035000324249268;1673424476.8273783;3.4087071418762207;-27.70248031616211;109.23609924316406
91;1673424476.9817107;47.1306419;7.2406201;6.225000381469727;1673424477.0170357;3.2347683906555176;-27.99146270751953;109.34507751464844
92;1673424477.1928513;47.130641999999995;7.2406201999999995;6.413000106811523;1673424477.2278807;3.5662922859191895;-29.30972671508789;109.28096008300781
93;1673424477.3795912;47.130641999999995;7.2406201;6.600000381469727;1673424477.4088745;3.2777628898620605;-27.533578872680664;109.33531188964844
94;1673424477.5692341;47.130642099999996;7.2406201;6.793000221252441;1673424477.604571;3.0326056480407715;-27.491920471191406;109.29547119140625
95;1673424477.7774935;47.130642099999996;7.2406201;6.984000205993652;1673424477.8115554;3.285841941833496;-28.91476821899414;109.24889373779297
96;1673424477.9808853;47.130642099999996;7.2406201;7.175000190734863;1673424478.0121055;3.3632187843322754;-28.02359962463379;109.24441528320312
97;1673424478.1809542;47.130642099999996;7.2406201;7.37000036239624;1673424478.2114856;3.0706911087036133;-27.2756290435791;109.27706146240234
98;1673424478.3766835;47.1306422;7.2406201;7.567000389099121;1673424478.4118075;3.112135648727417;-28.85116195678711;109.24468231201172
99;1673424478.5893643;47.1306422;7.2406201;7.764000415802002;1673424478.6157625;3.467933416366577;-27.91570472717285;109.26448059082031
100;1673424478.7628794;47.1306423;7.2406201;7.964000225067139;1673424478.79367;3.14567494392395;-27.08407211303711;109.16829681396484
101;1673424478.9713802;47.1306422;7.2406201;8.166000366210938;1673424479.0351083;3.329097032546997;-28.653017044067383;109.25770568847656
102;1673424479.2229028;47.1306422;7.2406201;8.36500072479248;1673424479.25717;3.3266611099243164;-28.445817947387695;109.19395446777344
103;1673424479.4525485;47.1306422;7.2406201;8.563000679016113;1673424479.4826345;3.24362850189209;-27.046876907348633;109.25789642333984
104;1673424479.6369123;47.1306422;7.2406201;8.76200008392334;1673424479.6780405;3.242055892944336;-28.30947494506836;109.25202178955078
105;1673424479.876244;47.1306423;7.2406201;8.961000442504883;1673424479.9075146;3.224376678466797;-28.37929344177246;109.2656478881836
106;1673424480.0369554;47.1306424;7.24062;9.164000511169434;1673424480.089484;3.1056621074676514;-26.805805206298828;109.33304595947266
107;1673424480.2228289;47.1306424;7.24062;9.366000175476074;1673424480.254063;3.0163486003875732;-28.18958854675293;109.25695037841797
108;1673424480.427376;47.1306424;7.24062;9.568000793457031;1673424480.4596443;3.221406936645508;-28.83409309387207;109.23509979248047
109;1673424480.6083088;47.1306424;7.24062;9.768000602722168;1673424480.6343565;2.9103424549102783;-26.948484420776367;109.25104522705078
110;1673424480.7708304;47.1306423;7.24062;9.975000381469727;1673424480.7993243;3.0675559043884277;-27.839975357055664;109.25069427490234
111;1673424480.959982;47.1306423;7.24062;10.190000534057617;1673424480.9966397;3.2529735565185547;-27.927217483520508;109.4322280883789
112;1673424481.170563;47.1306425;7.2406201;10.50200080871582;1673424481.213508;3.4717421531677246;-27.023738861083984;109.51102447509766
113;1673424481.3815591;47.1306428;7.2406201999999995;10.892000198364258;1673424481.4217687;2.8969874382019043;-28.639751434326172;109.131591796875
114;1673424481.6387315;47.1306431;7.2406201999999995;11.292000770568848;1673424481.6724348;2.938397169113159;-27.54486846923828;109.16764831542969
115;1673424481.8124769;47.1306435;7.2406203;11.692000389099121;1673424481.8419113;2.7228763103485107;-26.867311477661133;109.18383026123047
116;1673424482.0045052;47.1306438;7.2406204;12.098000526428223;1673424482.0328398;2.63979434967041;-25.16497230529785;109.19327545166016
117;1673424482.210901;47.130643899999995;7.2406204;12.500000953674316;1673424482.2780733;2.556110143661499;-25.5993595123291;109.15494537353516
118;1673424482.4544103;47.130644;7.2406204;12.897000312805176;1673424482.4832718;2.932223081588745;-26.25596809387207;109.22315216064453
119;1673424482.6674528;47.130643899999995;7.2406204;13.292000770568848;1673424482.6904645;2.607419490814209;-25.08812141418457;109.24946594238281
120;1673424482.8177402;47.1306438;7.2406204;13.678000450134277;1673424482.8470314;2.72257137298584;-26.28277587890625;109.18494415283203
121;1673424482.9851422;47.1306435;7.2406203;14.062000274658203;1673424483.0164218;2.898024559020996;-27.585176467895508;109.28177642822266
122;1673424483.1767633;47.130643299999996;7.2406203;14.437000274658203;1673424483.2060435;2.8689498901367188;-26.411785125732422;109.24238586425781
123;1673424483.353204;47.1306431;7.2406201999999995;14.815000534057617;1673424483.3924813;2.9754080772399902;-27.234725952148438;109.28250122070312
124;1673424483.5586305;47.130643;7.2406201999999995;15.195000648498535;1673424483.5962665;3.1063761711120605;-28.547809600830078;109.26485443115234
125;1673424483.779912;47.1306429;7.2406201999999995;15.575000762939453;1673424483.8140845;3.0009567737579346;-27.103660583496094;109.21251678466797
126;1673424483.986909;47.1306428;7.2406201999999995;15.962000846862793;1673424484.023083;3.0884008407592773;-27.068567276000977;109.24559783935547
127;1673424484.1787026;47.130642699999996;7.2406203;16.349000930786133;1673424484.223597;3.238386631011963;-28.30733299255371;109.18524169921875
128;1673424484.385584;47.130642699999996;7.2406203;16.729000091552734;1673424484.4207106;3.1170504093170166;-27.114456176757812;109.25695037841797
129;1673424484.6190803;47.1306428;7.2406203;17.11600112915039;1673424484.6581764;3.0216586589813232;-26.65966796875;109.26837158203125
130;1673424484.8399591;47.1306428;7.2406203;17.506999969482422;1673424484.8644269;3.056945323944092;-27.711828231811523;109.23726654052734
131;1673424485.000313;47.1306429;7.2406204;17.89900016784668;1673424485.028631;2.9932477474212646;-26.810026168823242;109.25880432128906
132;1673424485.1811502;47.1306429;7.2406203;18.28900146484375;1673424485.220349;2.8631839752197266;-26.12452507019043;109.2175521850586
133;1673424485.3845003;47.1306429;7.2406203;18.683000564575195;1673424485.420598;2.840651512145996;-27.471534729003906;109.30040740966797
134;1673424485.5915804;47.1306429;7.2406201999999995;19.076000213623047;1673424485.630352;2.8324854373931885;-27.11358642578125;109.228271484375
135;1673424485.805043;47.1306429;7.2406201999999995;19.459001541137695;1673424485.836421;2.601388931274414;-26.000627517700195;109.26534271240234
136;1673424486.0491843;47.1306429;7.2406201999999995;19.84600067138672;1673424486.0765207;2.694387435913086;-27.267332077026367;109.32778930664062
137;1673424486.221821;47.1306429;7.2406201999999995;20.23400115966797;1673424486.2497323;3.016634225845337;-27.166780471801758;109.28019714355469
138;1673424486.4212015;47.1306428;7.2406201999999995;20.623001098632812;1673424486.4534185;2.6489992141723633;-26.068897247314453;109.28807830810547
139;1673424486.5894437;47.130642699999996;7.2406201999999995;21.010000228881836;1673424486.6187732;2.767035722732544;-27.329914093017578;109.23343658447266
140;1673424486.7669835;47.130642599999995;7.2406201999999995;21.397001266479492;1673424486.798764;3.022228956222534;-27.766965866088867;109.2905044555664
141;1673424486.952773;47.130642599999995;7.2406201999999995;21.779001235961914;1673424486.9865193;2.8110005855560303;-26.427099227905273;109.26937866210938
142;1673424487.1492321;47.130642599999995;7.2406201999999995;22.170001983642578;1673424487.1839223;2.8467533588409424;-27.178665161132812;109.24749755859375
143;1673424487.3483658;47.130642599999995;7.2406201999999995;22.562000274658203;1673424487.385037;2.82443904876709;-27.902463912963867;109.30138397216797
144;1673424487.549689;47.1306425;7.2406201999999995;22.957000732421875;1673424487.5843685;2.8534390926361084;-26.554656982421875;109.16195678710938
145;1673424487.7612195;47.1306425;7.2406201999999995;23.35300064086914;1673424487.801314;2.776977300643921;-26.936233520507812;109.24822235107422
146;1673424487.9760747;47.1306425;7.2406203;23.751001358032227;1673424488.0089633;3.1129817962646484;-27.909963607788086;109.24561309814453
147;1673424488.1682765;47.1306425;7.2406203;24.150001525878906;1673424488.207364;2.8030543327331543;-26.62782859802246;109.33045196533203
148;1673424488.3699331;47.130642599999995;7.2406203;24.540000915527344;1673424488.4158082;2.7018542289733887;-26.451324462890625;109.29421997070312
149;1673424488.6157393;47.130642599999995;7.2406203;24.93800163269043;1673424488.6700058;2.804940938949585;-27.72344970703125;109.19476318359375
150;1673424488.848095;47.130642599999995;7.2406203;25.336000442504883;1673424488.8764114;3.0174012184143066;-26.706588745117188;109.25521850585938
151;1673424489.0566711;47.130642599999995;7.2406203;25.735000610351562;1673424489.0999928;2.7183034420013428;-26.38246726989746;109.27344512939453
152;1673424489.272772;47.130642599999995;7.2406203;26.136001586914062;1673424489.319957;2.9368693828582764;-27.80442237854004;109.2703628540039
153;1673424489.463593;47.130642599999995;7.2406204;26.535001754760742;1673424489.4925766;2.9650797843933105;-26.92470932006836;109.28553771972656
154;1673424489.6648307;47.130642599999995;7.2406204;26.922000885009766;1673424489.6985974;2.6180548667907715;-26.176025390625;109.33563232421875
155;1673424489.84455;47.130642599999995;7.2406204;27.312002182006836;1673424489.8719275;2.904778003692627;-27.673452377319336;109.23381042480469
156;1673424490.0335014;47.130642699999996;7.2406204;27.707000732421875;1673424490.062827;2.9260542392730713;-27.115074157714844;109.2123794555664
157;1673424490.2034612;47.130642699999996;7.2406203;28.102001190185547;1673424490.233991;2.621216297149658;-26.111135482788086;109.23468017578125
158;1673424490.3935635;47.130642699999996;7.2406203;28.49300193786621;1673424490.43065;2.7288646697998047;-27.53264045715332;109.17133331298828
159;1673424490.5920384;47.130642699999996;7.2406203;28.884000778198242;1673424490.6253004;2.764967679977417;-27.338735580444336;109.26262664794922
160;1673424490.787403;47.130642699999996;7.2406203;29.2760009765625;1673424490.8235369;2.610926866531372;-26.230365753173828;109.28353881835938
161;1673424490.9937735;47.130642699999996;7.2406203;29.660001754760742;1673424491.0328414;2.5687415599823;-27.27860450744629;109.2202377319336
162;1673424491.196914;47.130642699999996;7.2406203;30.05000114440918;1673424491.2310736;2.922811508178711;-27.32671546936035;109.26499938964844
163;1673424491.3875473;47.130642699999996;7.2406203;30.444002151489258;1673424491.4256868;2.7972795963287354;-26.12305450439453;109.24712371826172
164;1673424491.621035;47.130642599999995;7.2406203;30.83700180053711;1673424491.6526072;2.723501205444336;-27.2605037689209;109.345458984375
165;1673424491.8147972;47.130642599999995;7.2406203;31.233001708984375;1673424491.8675003;3.0025386810302734;-27.639198303222656;109.16185760498047
166;1673424492.0117857;47.130642599999995;7.2406203;31.628002166748047;1673424492.04497;2.7012884616851807;-26.381412506103516;109.23140716552734
167;1673424492.222178;47.130642699999996;7.2406203;32.013999938964844;1673424492.254628;2.7715187072753906;-26.927366256713867;109.3475570678711
168;1673424492.4674337;47.130642699999996;7.2406201999999995;32.409000396728516;1673424492.4968696;2.6982908248901367;-27.534650802612305;109.29792785644531
169;1673424492.6761892;47.130642699999996;7.2406201999999995;32.805999755859375;1673424492.7030823;2.5711679458618164;-26.42954444885254;109.32307434082031
170;1673424492.849032;47.130642699999996;7.2406201;33.20500183105469;1673424492.87754;2.5663845539093018;-26.859033584594727;109.2249526977539
171;1673424493.0657585;47.130642699999996;7.2406201;33.604000091552734;1673424493.113249;2.6012070178985596;-27.664960861206055;109.25822448730469
172;1673424493.261948;47.130642699999996;7.2406201;34.00300216674805;1673424493.2928033;2.477633237838745;-26.507963180541992;109.22883605957031
173;1673424493.4808168;47.130642699999996;7.2406201;34.400001525878906;1673424493.5311866;2.5286505222320557;-26.792388916015625;109.177978515625
174;1673424493.6804073;47.130642599999995;7.2406201;34.78300094604492;1673424493.7124171;2.782621383666992;-27.748414993286133;109.23194885253906
175;1673424493.8863118;47.130642599999995;7.2406201;35.172000885009766;1673424493.9132066;2.658634901046753;-26.699596405029297;109.26997375488281
176;1673424494.0642042;47.130642599999995;7.2406201;35.56300354003906;1673424494.0950716;2.6058349609375;-26.65184211730957;109.28478240966797
177;1673424494.24192;47.130642599999995;7.2406201;35.95800018310547;1673424494.2692502;2.717984676361084;-27.936519622802734;109.248779296875
178;1673424494.4071248;47.130642599999995;7.2406201;36.354000091552734;1673424494.435951;2.6231906414031982;-26.546873092651367;109.28952026367188
179;1673424494.5907369;47.130642599999995;7.2406201;36.749000549316406;1673424494.624942;2.4949071407318115;-26.376453399658203;109.27908325195312
180;1673424494.7937188;47.130642599999995;7.2406201;37.134002685546875;1673424494.8358822;2.5976150035858154;-27.499940872192383;109.30439758300781
181;1673424495.0335686;47.130642599999995;7.2406201;37.527000427246094;1673424495.0805995;2.515251398086548;-27.035282135009766;109.2905044555664
182;1673424495.269594;47.130642599999995;7.2406201;37.92400360107422;1673424495.3112695;2.3908679485321045;-26.302837371826172;109.26653289794922
183;1673424495.554624;47.130642599999995;7.2406201;38.320003509521484;1673424495.572181;2.5483238697052;-27.507192611694336;109.26036071777344
184;1673424495.7042525;47.130642699999996;7.2406201;38.71800231933594;1673424495.7346826;2.5488672256469727;-27.028810501098633;109.30964660644531
185;1673424495.8670945;47.130642699999996;7.2406201;39.11000061035156;1673424495.90852;2.421118974685669;-26.160181045532227;109.26961517333984
186;1673424496.0697362;47.130642599999995;7.2406201;39.50100326538086;1673424496.0980906;2.503323793411255;-27.46073341369629;109.28194427490234
187;1673424496.248217;47.130642599999995;7.2406201;39.884002685546875;1673424496.2874386;2.63228178024292;-27.227569580078125;109.17436981201172
188;1673424496.441976;47.130642599999995;7.2406201;40.27300262451172;1673424496.4783854;2.395322561264038;-26.125831604003906;109.28667449951172
189;1673424496.689158;47.130642599999995;7.2406201;40.665000915527344;1673424496.7165315;2.483581066131592;-27.35698890686035;109.2389144897461
190;1673424496.8693266;47.130642599999995;7.2406201999999995;41.064002990722656;1673424496.9002013;2.700129508972168;-27.316146850585938;109.26841735839844
191;1673424497.0382066;47.130642599999995;7.2406201999999995;41.46200180053711;1673424497.092581;2.584207057952881;-26.033472061157227;109.33502197265625
192;1673424497.2615259;47.130642599999995;7.2406201999999995;41.855003356933594;1673424497.288846;2.593174934387207;-27.115982055664062;109.2253646850586
193;1673424497.4150136;47.130642599999995;7.2406201999999995;42.24100112915039;1673424497.4442763;2.76489520072937;-27.677677154541016;109.20777130126953
194;1673424497.632548;47.1306425;7.2406201999999995;42.63200378417969;1673424497.66575;2.5344107151031494;-26.228303909301758;109.23892211914062
195;1673424497.8218055;47.1306425;7.2406201;43.025001525878906;1673424497.852075;2.4052650928497314;-27.18880271911621;109.25621795654297
196;1673424498.0026112;47.1306425;7.2406201999999995;43.419002532958984;1673424498.0380182;2.6228690147399902;-27.73295021057129;109.18047332763672
197;1673424498.2008278;47.130642599999995;7.2406201999999995;43.8120002746582;1673424498.2312582;2.5457427501678467;-26.103357315063477;109.2800521850586
198;1673424498.3980644;47.130642599999995;7.2406201999999995;44.207000732421875;1673424498.434353;2.4024860858917236;-26.80290412902832;109.32186889648438
199;1673424498.609535;47.130642599999995;7.2406201999999995;44.60300064086914;1673424498.6429474;2.637749195098877;-27.48512077331543;109.2099609375
200;1673424498.8538003;47.130642599999995;7.2406201999999995;44.99100112915039;1673424498.8801477;2.4778213500976562;-26.347503662109375;109.29656219482422
201;1673424499.0894904;47.130642599999995;7.2406201;45.384002685546875;1673424499.116395;2.4001147747039795;-26.287498474121094;109.36799621582031
202;1673424499.2501812;47.130642699999996;7.2406201;45.77900314331055;1673424499.2784572;2.432260513305664;-27.50157928466797;109.30164337158203
203;1673424499.4205778;47.130642699999996;7.2406201;46.176002502441406;1673424499.4509974;2.501415491104126;-26.315263748168945;109.23806762695312
204;1673424499.596586;47.130642599999995;7.24062;46.57400131225586;1673424499.6298783;2.322385311126709;-26.312911987304688;109.22744750976562
205;1673424499.793916;47.1306425;7.24062;46.97100067138672;1673424499.8287513;2.6191282272338867;-27.86809539794922;109.31379699707031
206;1673424500.0024056;47.1306424;7.24062;47.35900115966797;1673424500.036762;2.4553394317626953;-26.719213485717773;109.22598266601562
207;1673424500.2203467;47.1306424;7.24062;47.75600051879883;1673424500.2516425;2.345501661300659;-26.348867416381836;109.28703308105469
208;1673424500.4118452;47.1306424;7.24062;48.14900207519531;1673424500.4586637;2.442314386367798;-27.32868766784668;109.21562194824219
209;1673424500.6314375;47.1306423;7.2406198999999996;48.49100112915039;1673424500.667621;2.39133358001709;-27.565139770507812;109.10818481445312
210;1673424500.8364124;47.1306422;7.240619799999999;48.78600311279297;1673424500.8715484;2.2657663822174072;-27.19944953918457;109.21446990966797
211;1673424501.0190337;47.1306419;7.2406197;49.03700256347656;1673424501.0522194;2.4383254051208496;-28.2719669342041;109.17753601074219
212;1673424501.2228582;47.1306416;7.2406197;49.24500274658203;1673424501.252197;2.5989744663238525;-28.21355438232422;109.20433807373047
213;1673424501.4207149;47.1306412;7.240619499999999;49.40300369262695;1673424501.455225;12.629368782043457;-8.843156814575195;112.25094604492188
214;1673424501.622814;47.130640199999995;7.2406182;49.540000915527344;1673424501.6541173;21.40511703491211;23.80263328552246;124.70664978027344
215;1673424501.8258624;47.130637199999995;7.2406143;49.660003662109375;1673424501.8649006;19.78128433227539;44.69491195678711;133.9066162109375
216;1673424502.0284731;47.1306316;7.240606799999999;49.71600341796875;1673424502.0647528;5.151294231414795;41.659854888916016;140.61300659179688
217;1673424502.227732;47.130623199999995;7.2405963;49.7390022277832;1673424502.2618923;-7.781813621520996;38.08250045776367;152.27883911132812
218;1673424502.4340138;47.130612199999995;7.240583399999999;49.76300048828125;1673424502.4681752;-21.306949615478516;38.85026168823242;162.83984375
219;1673424502.6107705;47.130598899999995;7.2405681;49.7920036315918;1673424502.644059;-35.418006896972656;39.53628921508789;173.5338897705078
220;1673424502.8112545;47.1305829;7.240550799999999;49.816001892089844;1673424502.848455;-44.162837982177734;37.152618408203125;-174.26466369628906
221;1673424503.0112777;47.1305644;7.2405308999999995;49.8390007019043;1673424503.0603504;-49.49580001831055;32.46404266357422;-162.43629455566406
222;1673424503.2176583;47.1305439;7.240507699999999;49.86100387573242;1673424503.2548168;-55.58598709106445;27.13724708557129;-150.64671325683594
223;1673424503.420363;47.1305218;7.2404812;49.86000061035156;1673424503.4584548;-58.16846466064453;20.87008285522461;-141.23907470703125
224;1673424503.6315446;47.130498499999995;7.2404515;49.82500076293945;1673424503.6826978;-53.84292984008789;17.838912963867188;-135.539794921875
225;1673424503.8369536;47.1304746;7.2404196;49.7660026550293;1673424503.87115;-49.74303436279297;12.226847648620605;-129.1734619140625
226;1673424504.0284073;47.1304509;7.2403863;49.70900344848633;1673424504.0639963;-50.36006164550781;5.882157802581787;-126.44945526123047
227;1673424504.216618;47.1304266;7.2403518;49.625003814697266;1673424504.2498415;-45.580570220947266;5.794017791748047;-130.3523712158203
228;1673424504.4355545;47.1304018;7.2403169;49.53900146484375;1673424504.470751;-40.22638702392578;6.404304027557373;-132.8322296142578
229;1673424504.640737;47.1303767;7.240282;49.47500228881836;1673424504.6759372;-40.14603042602539;6.174915313720703;-133.3582305908203
230;1673424504.889523;47.130351499999996;7.2402473999999994;49.42900085449219;1673424504.9154541;-40.08405685424805;9.081156730651855;-134.6438751220703
231;1673424505.0566108;47.1303263;7.240213;49.423004150390625;1673424505.0846925;-43.18022918701172;10.652233123779297;-134.8816680908203
232;1673424505.2422235;47.1303013;7.2401789;49.44600296020508;1673424505.2775218;-47.353599548339844;12.940692901611328;-134.9237060546875
233;1673424505.4605746;47.130275999999995;7.240144;49.474002838134766;1673424505.4978259;-48.75583267211914;12.953352928161621;-134.4653778076172
234;1673424505.6313999;47.130250499999995;7.2401083999999996;49.50600051879883;1673424505.6589332;-47.9405517578125;12.044438362121582;-134.012939453125
235;1673424505.8077793;47.130224899999995;7.240072199999999;49.53900146484375;1673424505.837077;-47.300662994384766;11.522604942321777;-134.1217803955078
236;1673424505.9919147;47.1301992;7.2400357;49.56700134277344;1673424506.0295792;-45.7401237487793;10.86125373840332;-134.2603302001953
237;1673424506.1999812;47.1301735;7.2399992;49.59700393676758;1673424506.2376063;-45.71974563598633;10.787862777709961;-134.50074768066406
238;1673424506.4075706;47.130147699999995;7.239962599999999;49.63200378417969;1673424506.4427388;-46.47987365722656;10.80625057220459;-134.7066192626953
239;1673424506.612443;47.1301219;7.239926199999999;49.66100311279297;1673424506.6476445;-46.6657600402832;10.679808616638184;-134.7209930419922
240;1673424506.80136;47.130095999999995;7.2398897;49.68800354003906;1673424506.8351114;-46.38920974731445;10.587237358093262;-134.8245849609375
241;1673424506.995792;47.130069999999996;7.239853;49.717002868652344;1673424507.049052;-45.9736442565918;10.365830421447754;-134.9239044189453
242;1673424507.2170467;47.1300439;7.2398164;49.74400329589844;1673424507.2521822;-46.11594772338867;10.416823387145996;-135.00584411621094
243;1673424507.429335;47.130017699999996;7.2397797;49.77300262451172;1673424507.4646337;-46.814876556396484;10.50861644744873;-135.0686798095703
244;1673424507.6341186;47.129991399999994;7.239743;49.801002502441406;1673424507.6663215;-47.12236022949219;10.521344184875488;-135.04530334472656
245;1673424507.8229768;47.1299651;7.239706399999999;49.81500244140625;1673424507.8551843;-46.839271545410156;10.50278377532959;-135.02859497070312
246;1673424508.0089996;47.1299387;7.239669699999999;49.82500076293945;1673424508.045693;-46.06025314331055;10.338445663452148;-135.02944946289062
247;1673424508.2218666;47.1299122;7.2396329999999995;49.83500289916992;1673424508.255059;-46.04297637939453;10.373077392578125;-135.0692596435547
248;1673424508.4482696;47.129885699999996;7.2395963;49.84800338745117;1673424508.4785254;-46.504173278808594;10.490159034729004;-135.0984344482422
249;1673424508.641353;47.1298592;7.2395596;49.8640022277832;1673424508.67418;-47.061370849609375;10.596405029296875;-135.06834411621094
250;1673424508.8270051;47.1298326;7.239522999999999;49.875003814697266;1673424508.8632686;-47.22099685668945;10.551153182983398;-135.01651000976562
251;1673424509.0194533;47.129805999999995;7.2394862;49.884002685546875;1673424509.0527353;-46.746551513671875;10.467535972595215;-135.01356506347656
252;1673424509.2167017;47.1297794;7.2394495999999995;49.88800048828125;1673424509.2508616;-46.33845138549805;10.391115188598633;-134.97622680664062
253;1673424509.4356267;47.1297527;7.239413;49.89500427246094;1673424509.4688115;-46.50450134277344;10.432793617248535;-134.996337890625
254;1673424509.6281545;47.129726;7.2393763;49.897003173828125;1673424509.661084;-46.64950180053711;10.437112808227539;-134.95465087890625
255;1673424509.808431;47.1296993;7.2393395;49.897003173828125;1673424509.840215;-46.42350387573242;10.476775169372559;-134.9224090576172
256;1673424510.017461;47.1296726;7.2393028;49.89400100708008;1673424510.0506756;-46.2130012512207;10.430562973022461;-134.90701293945312
257;1673424510.217865;47.1296459;7.239266199999999;49.897003173828125;1673424510.2481103;-46.26523971557617;10.416300773620605;-134.9235076904297
258;1673424510.419419;47.1296192;7.2392296;49.900001525878906;1673424510.4526205;-46.65031814575195;10.47520637512207;-134.9233856201172
259;1673424510.6204224;47.1295925;7.2391929;49.9010009765625;1673424510.6566775;-46.71437454223633;10.417770385742188;-134.81588745117188
260;1673424510.8135855;47.1295657;7.239156299999999;49.90500259399414;1673424510.847399;-46.36104965209961;10.407389640808105;-134.8002471923828
261;1673424511.01231;47.129539;7.2391195999999995;49.90900421142578;1673424511.0447454;-46.52495574951172;10.43697452545166;-134.77420043945312
262;1673424511.2085583;47.129512299999995;7.239083;49.9160041809082;1673424511.2455015;-46.77415084838867;10.500500679016113;-134.7259521484375
263;1673424511.4180179;47.1294855;7.2390463;49.926002502441406;1673424511.4516735;-47.019378662109375;10.468619346618652;-134.63037109375
264;1673424511.6203358;47.1294587;7.2390095;49.93700408935547;1673424511.653227;-46.9986572265625;10.35922622680664;-134.53955078125
265;1673424511.826311;47.129432;7.2389728;49.945003509521484;1673424511.8644297;-46.79651641845703;10.711913108825684;-134.6236572265625
266;1673424512.017729;47.129405299999995;7.238936;49.957000732421875;1673424512.0509162;-46.120811462402344;16.696779251098633;-135.71258544921875
267;1673424512.2206302;47.1293788;7.2388989;49.974002838134766;1673424512.2549362;-42.312652587890625;17.279804229736328;-133.13294982910156
268;1673424512.425898;47.129352999999995;7.2388616;50.000003814697266;1673424512.4631035;-31.274885177612305;16.524011611938477;-133.31910705566406
269;1673424512.6242788;47.129328;7.2388251;50.02900314331055;1673424512.6575594;-13.739191055297852;17.740699768066406;-134.57962036132812
270;1673424512.8226297;47.1293043;7.2387904;50.051002502441406;1673424512.860695;4.837255001068115;15.212315559387207;-136.5919952392578
271;1673424513.045263;47.1292827;7.2387587;50.06100082397461;1673424513.081383;17.931896209716797;14.606088638305664;-138.21176147460938
272;1673424513.2768636;47.1292632;7.2387307;50.05900192260742;1673424513.3061402;26.73237419128418;15.754695892333984;-138.62692260742188
273;1673424513.461479;47.129246099999996;7.2387065999999995;50.04600143432617;1673424513.4927096;32.1446533203125;15.222325325012207;-138.89028930664062
274;1673424513.6431444;47.129231399999995;7.2386861;50.01000213623047;1673424513.6813123;33.96324157714844;11.772326469421387;-138.8185272216797
275;1673424513.8355236;47.1292189;7.2386691;49.96000289916992;1673424513.8805642;33.11420822143555;13.178681373596191;-140.04376220703125
276;1673424514.0541728;47.1292087;7.2386551;49.94300079345703;1673424514.0915701;36.00711441040039;15.105029106140137;-139.77207946777344
277;1673424514.2462697;47.1292008;7.238643499999999;49.961002349853516;1673424514.2755475;29.198421478271484;15.859640121459961;-138.98228454589844
278;1673424514.4516141;47.1291945;7.2386338;49.9900016784668;1673424514.48185;22.482929229736328;16.07158851623535;-138.95718383789062
279;1673424514.6437244;47.1291891;7.238625099999999;50.0160026550293;1673424514.6808398;15.638998031616211;15.28075122833252;-139.47018432617188
280;1673424514.8474975;47.1291842;7.2386173;50.035003662109375;1673424514.879897;12.155529022216797;14.151965141296387;-139.63299560546875
281;1673424515.0334418;47.1291793;7.2386101;50.047000885009766;1673424515.0709498;12.329439163208008;12.248645782470703;-139.690673828125
282;1673424515.2367284;47.1291745;7.238603299999999;50.05400085449219;1673424515.2700458;14.599836349487305;11.078587532043457;-139.55014038085938
283;1673424515.4201097;47.1291696;7.2385971;50.05900192260742;1673424515.449347;17.235342025756836;11.346148490905762;-139.32540893554688
284;1673424515.613881;47.1291648;7.2385912999999995;50.07100296020508;1673424515.6539059;20.37937355041504;10.288496017456055;-138.88668823242188
285;1673424515.8212752;47.1291602;7.2385858999999995;50.08400344848633;1673424515.8569553;21.464717864990234;11.23384952545166;-138.06829833984375
286;1673424516.0229788;47.129156099999996;7.2385812;50.09800338745117;1673424516.0592282;22.783700942993164;13.078198432922363;-137.09278869628906
287;1673424516.2231326;47.1291523;7.238576999999999;50.11900329589844;1673424516.2553868;7.103677272796631;17.44198989868164;-138.56227111816406
288;1673424516.4273362;47.1291486;7.2385722999999995;50.19200134277344;1673424516.4587212;-20.986732482910156;18.71116828918457;-138.82395935058594
289;1673424516.624517;47.1291436;7.238566;50.310001373291016;1673424516.6600885;-19.002235412597656;6.582980155944824;-136.2871856689453
290;1673424516.8333015;47.129137;7.2385582;50.51400375366211;1673424516.8645892;-13.929364204406738;7.196057319641113;-136.86024475097656
291;1673424517.024701;47.1291288;7.2385492;50.832000732421875;1673424517.0601354;-22.756956100463867;22.463476181030273;-135.81698608398438
292;1673424517.220999;47.129119499999995;7.2385380999999995;51.215003967285156;1673424517.2567792;-19.0493106842041;25.244029998779297;-134.0282745361328
293;1673424517.4294415;47.129109899999996;7.2385249;51.62000274658203;1673424517.4705896;-14.467630386352539;22.23539161682129;-135.2203369140625
294;1673424517.6349528;47.129100099999995;7.2385101999999995;52.03600311279297;1673424517.678264;-11.387269973754883;19.429363250732422;-136.10850524902344
295;1673424517.8395717;47.1290901;7.2384946999999995;52.45100402832031;1673424517.8787515;-7.454457759857178;15.605731010437012;-136.51478576660156
296;1673424518.079686;47.1290802;7.238478799999999;52.862003326416016;1673424518.117771;-3.4592819213867188;13.922865867614746;-136.85391235351562
297;1673424518.281586;47.129070399999996;7.2384632;53.268001556396484;1673424518.31186;-0.6096417307853699;13.351715087890625;-137.08172607421875
298;1673424518.505437;47.129060599999995;7.238448;53.673004150390625;1673424518.5352597;1.4596599340438843;13.663896560668945;-137.2749481201172
299;1673424518.673253;47.129050799999995;7.238433499999999;54.07400131225586;1673424518.7387886;1.125386118888855;13.470396995544434;-137.37672424316406
300;1673424518.8864908;47.129041099999995;7.2384195;54.47200393676758;1673424518.9148076;-0.18094396591186523;12.760533332824707;-137.3564910888672
301;1673424519.0574915;47.129031399999995;7.2384061;54.86700439453125;1673424519.0946178;-2.024075746536255;11.807857513427734;-137.345947265625
302;1673424519.2437599;47.129021699999996;7.2383931;55.26700210571289;1673424519.2760036;-3.529412031173706;11.176529884338379;-137.08248901367188
303;1673424519.4651186;47.129011999999996;7.238380299999999;55.66400146484375;1673424519.496385;-4.562427520751953;11.844170570373535;-136.86322021484375
304;1673424519.6961064;47.129002299999996;7.238367599999999;56.06200408935547;1673424519.722471;-4.31146764755249;14.493103981018066;-136.83871459960938
305;1673424519.8522148;47.1289926;7.2383546999999995;56.46000289916992;1673424519.8795915;-5.1776957511901855;16.74066162109375;-136.94276428222656
306;1673424520.0290227;47.128982799999996;7.2383416;56.858001708984375;1673424520.0631728;-5.847813606262207;18.0174560546875;-136.96839904785156
307;1673424520.216545;47.128972999999995;7.2383283;57.26100158691406;1673424520.2643454;-6.485688209533691;17.606945037841797;-136.7573699951172
308;1673424520.4378006;47.1289631;7.2383147;57.66100311279297;1673424520.471332;-6.766357898712158;15.814748764038086;-136.6761474609375
309;1673424520.6506507;47.1289532;7.2383009;58.06200408935547;1673424520.681916;-6.1901068687438965;13.931729316711426;-136.60986328125
310;1673424520.8354263;47.128943299999996;7.2382871;58.461002349853516;1673424520.8744495;-5.239413261413574;12.588860511779785;-136.5197296142578
311;1673424521.0670052;47.128933499999995;7.2382732999999995;58.85700225830078;1673424521.1277423;-3.962460994720459;12.676721572875977;-136.43592834472656
312;1673424521.3097434;47.1289237;7.2382595;59.25300216674805;1673424521.3405578;-3.6546308994293213;14.089276313781738;-136.5210418701172
313;1673424521.4847922;47.1289138;7.238245699999999;59.64800262451172;1673424521.5172572;-3.9237141609191895;15.82877254486084;-136.68028259277344
314;1673424521.710167;47.1289039;7.238232;60.04500198364258;1673424521.739024;-4.5904459953308105;15.443485260009766;-136.92816162109375
315;1673424521.8801239;47.1288939;7.2382184999999994;60.44400405883789;1673424521.9086654;-5.004865646362305;14.622126579284668;-137.0608673095703
316;1673424522.0911684;47.1288839;7.2382051;60.845001220703125;1673424522.1194715;-5.2818379402160645;13.94105052947998;-136.89169311523438
317;1673424522.2787757;47.128873899999995;7.2381917;61.24500274658203;1673424522.3081965;-4.709186553955078;12.598196983337402;-136.55096435546875
318;1673424522.4585261;47.128864;7.238178199999999;61.643001556396484;1673424522.4947622;-3.9665310382843018;13.371478080749512;-136.37196350097656
319;1673424522.6546302;47.1288542;7.2381647;62.04300308227539;1673424522.6868982;-3.8645811080932617;15.390007019042969;-136.41873168945312
320;1673424522.8507187;47.1288443;7.2381511;62.44200134277344;1673424522.882528;-4.408329486846924;16.648046493530273;-136.67501831054688
321;1673424523.041331;47.128834499999996;7.2381375;62.840003967285156;1673424523.0764697;-5.357192516326904;16.994258880615234;-136.9431915283203
322;1673424523.2410898;47.128824599999994;7.238124;63.2390022277832;1673424523.2762787;-5.934789657592773;15.113500595092773;-136.90829467773438
323;1673424523.4471636;47.1288147;7.2381104999999994;63.63700485229492;1673424523.4795687;-5.954712390899658;14.222023963928223;-136.70895385742188
324;1673424523.6432114;47.1288048;7.238097;64.03600311279297;1673424523.679344;-5.974562168121338;12.77751636505127;-136.65109252929688
325;1673424523.8481266;47.128794799999994;7.2380835;64.43600463867188;1673424523.8803346;-4.998210430145264;12.505306243896484;-136.2694854736328
326;1673424524.036637;47.1287849;7.23807;64.83600616455078;1673424524.0724459;-4.618636608123779;12.58009147644043;-136.1869354248047
327;1673424524.2358987;47.128774899999996;7.2380564;65.23699951171875;1673424524.2746503;-3.845332145690918;13.391691207885742;-136.33486938476562
328;1673424524.4252355;47.128765;7.238042699999999;65.63899993896484;1673424524.4584568;-4.109591007232666;14.51523208618164;-136.31143188476562
329;1673424524.6225486;47.1287551;7.238029099999999;66.04500579833984;1673424524.6568534;-4.552035808563232;16.03423500061035;-136.43634033203125
330;1673424524.8157487;47.128745099999996;7.2380154999999995;66.44700622558594;1673424524.8574688;-5.134797096252441;16.485654830932617;-136.64404296875
331;1673424525.0367599;47.1287351;7.238002;66.85400390625;1673424525.0715399;-5.6494035720825195;16.80759620666504;-136.74388122558594
332;1673424525.2385895;47.128724999999996;7.2379885999999996;67.26000213623047;1673424525.2699678;-5.774909496307373;17.313459396362305;-136.95399475097656
333;1673424525.432559;47.1287149;7.2379751;67.66200256347656;1673424525.4693077;-5.898900032043457;16.316768646240234;-137.01853942871094
334;1673424525.6423116;47.128704899999995;7.237961599999999;68.06300354003906;1673424525.6745214;-5.952600955963135;15.910125732421875;-136.9182586669922
335;1673424525.838294;47.128695;7.237947999999999;68.46300506591797;1673424525.874439;-5.286918640136719;14.596735000610352;-136.57789611816406
336;1673424526.031857;47.1286851;7.2379343;68.85700225830078;1673424526.0715952;-4.96233606338501;13.949180603027344;-136.61209106445312
337;1673424526.226316;47.1286753;7.237920399999999;69.24800109863281;1673424526.2591102;-4.526183128356934;13.280674934387207;-136.6667022705078
338;1673424526.4104044;47.1286655;7.237906499999999;69.63899993896484;1673424526.4466052;-4.168600559234619;12.707998275756836;-136.6467742919922
339;1673424526.6123474;47.128655699999996;7.2378925999999995;70.03300476074219;1673424526.649081;-4.273745536804199;12.626016616821289;-136.6989288330078
340;1673424526.8118658;47.128645899999995;7.2378788;70.427001953125;1673424526.846211;-4.489817142486572;12.724228858947754;-136.94683837890625
341;1673424527.0140264;47.128636;7.237864999999999;70.82200622558594;1673424527.050415;-4.4843878746032715;12.846891403198242;-137.1254119873047
342;1673424527.2258465;47.128626;7.2378513;71.22100067138672;1673424527.2603114;-4.673635482788086;13.542448997497559;-137.15966796875
343;1673424527.429231;47.128616099999995;7.2378377;71.62000274658203;1673424527.4640436;-4.9311041831970215;13.894562721252441;-137.1399383544922
344;1673424527.6381311;47.1286062;7.2378241;72.0270004272461;1673424527.673986;-5.499375820159912;14.075017929077148;-137.24365234375
345;1673424527.8410265;47.1285963;7.2378104;72.4320068359375;1673424527.878149;-5.46417760848999;14.869976997375488;-137.20774841308594
346;1673424528.0482593;47.1285865;7.2377968;72.83200073242188;1673424528.080628;-4.690566062927246;15.38185977935791;-137.1130828857422
347;1673424528.2460196;47.128576699999996;7.237782999999999;73.22700500488281;1673424528.2811558;-4.3863067626953125;15.122575759887695;-136.83489990234375
348;1673424528.4381747;47.128566899999996;7.2377693;73.62200164794922;1673424528.4707341;-4.098564624786377;14.647939682006836;-136.74581909179688
349;1673424528.63753;47.128557;7.2377556;74.02100372314453;1673424528.6737154;-4.148458003997803;14.61143684387207;-136.71958923339844
350;1673424528.845938;47.1285471;7.2377419;74.42500305175781;1673424528.8782592;-4.531937122344971;14.740848541259766;-136.50860595703125
351;1673424529.0331063;47.128537099999996;7.2377283;74.8290023803711;1673424529.0673037;-5.352019786834717;15.500978469848633;-136.4688262939453
352;1673424529.2257733;47.128527;7.237714899999999;75.2300033569336;1673424529.2572038;-5.853065013885498;16.070878982543945;-136.7003173828125
353;1673424529.4200041;47.128516999999995;7.2377012999999994;75.6310043334961;1673424529.4552648;-5.95311975479126;16.344013214111328;-137.21713256835938
354;1673424529.6166003;47.128507;7.2376876999999995;76.03400421142578;1673424529.647995;-5.235389709472656;16.304119110107422;-137.396484375
355;1673424529.8127816;47.1284971;7.2376740999999996;76.43000030517578;1673424529.844209;-4.152276039123535;16.593353271484375;-137.14541625976562
356;1673424530.023929;47.128487199999995;7.2376605;76.82200622558594;1673424530.0612051;-4.0893025398254395;16.775959014892578;-136.8290252685547
357;1673424530.2319736;47.1284773;7.237646799999999;77.21400451660156;1673424530.270582;-4.202392101287842;16.520933151245117;-136.74673461914062
358;1673424530.4402728;47.1284673;7.237633199999999;77.61000061035156;1673424530.4715922;-4.521049976348877;16.57187271118164;-136.80592346191406
359;1673424530.6416683;47.128457399999995;7.2376195;78.01000213623047;1673424530.6739073;-4.954822063446045;16.23784637451172;-136.69903564453125
360;1673424530.8277166;47.1284475;7.237605899999999;78.41000366210938;1673424530.8624265;-5.753427028656006;16.357730865478516;-136.8059539794922
361;1673424531.0372186;47.1284376;7.237592299999999;78.8070068359375;1673424531.0695295;-5.6281914710998535;16.419761657714844;-136.86611938476562
362;1673424531.2283924;47.1284278;7.2375788;79.2040023803711;1673424531.2659872;-5.299289703369141;16.59807777404785;-136.9532470703125
363;1673424531.4537745;47.128417899999995;7.2375652;79.60700225830078;1673424531.5272737;-4.215153217315674;16.631567001342773;-136.9993133544922
364;1673424531.6844814;47.128408099999994;7.2375514999999995;80.01000213623047;1673424531.7218773;-4.236764430999756;16.008560180664062;-136.92398071289062
365;1673424531.8722274;47.1283982;7.237537799999999;80.40800476074219;1673424531.9112957;-4.752679824829102;16.11029815673828;-136.86419677734375
366;1673424532.062447;47.1283883;7.2375241;80.802001953125;1673424532.09563;-5.375940799713135;16.013408660888672;-136.82977294921875
367;1673424532.2816331;47.1283783;7.2375104;81.19600677490234;1673424532.3157947;-6.03398323059082;15.805663108825684;-136.88555908203125
368;1673424532.4681873;47.1283684;7.2374966999999994;81.59000396728516;1673424532.5033228;-5.674417972564697;15.109557151794434;-136.886962890625
369;1673424532.6558447;47.1283586;7.2374830999999995;81.98600769042969;1673424532.6940694;-5.271668434143066;15.082038879394531;-136.6051788330078
370;1673424532.84866;47.1283487;7.2374695;82.38200378417969;1673424532.886458;-4.604031562805176;14.948482513427734;-136.35177612304688
371;1673424533.0463629;47.128338899999996;7.237455799999999;82.77300262451172;1673424533.0807583;-4.005002021789551;14.870765686035156;-136.56253051757812
372;1673424533.249038;47.128329099999995;7.2374421;83.17000579833984;1673424533.287783;-4.262922763824463;14.672237396240234;-136.87232971191406
373;1673424533.4577186;47.1283192;7.2374284;83.56700134277344;1673424533.4959393;-4.655367374420166;14.390070915222168;-137.0928192138672
374;1673424533.6578448;47.1283092;7.237414599999999;83.96500396728516;1673424533.6930656;-5.4948625564575195;14.439902305603027;-137.18875122070312
375;1673424533.8768277;47.128299299999995;7.237400999999999;84.36100769042969;1673424533.9150376;-6.144155025482178;14.634167671203613;-137.1414794921875
376;1673424534.0790267;47.1282895;7.2373873;84.75300598144531;1673424534.1083083;-6.290767192840576;14.78349494934082;-137.19639587402344
377;1673424534.2690187;47.1282796;7.2373737;85.14400482177734;1673424534.302255;-5.402160167694092;15.135441780090332;-137.1149139404297
378;1673424534.4615674;47.1282698;7.2373598999999995;85.53700256347656;1673424534.5023773;-4.266268253326416;15.341094017028809;-136.97433471679688
379;1673424534.6571276;47.128259899999996;7.237346199999999;85.9280014038086;1673424534.6864278;-3.803757667541504;15.128533363342285;-136.86196899414062
380;1673424534.8438978;47.12825;7.2373325;86.31800079345703;1673424534.8831296;-4.247110843658447;14.523386001586914;-136.78350830078125
381;1673424535.0338123;47.12824;7.2373188;86.70500183105469;1673424535.0726345;-5.274789810180664;14.430283546447754;-136.8628692626953
382;1673424535.2372756;47.128230099999996;7.2373052;87.09800720214844;1673424535.2760348;-6.361497402191162;14.842302322387695;-136.96444702148438
383;1673424535.4565952;47.1282201;7.2372916;87.49100494384766;1673424535.493299;-6.601680755615234;15.017648696899414;-137.1250762939453
384;1673424535.6741138;47.1282101;7.2372779;87.88200378417969;1673424535.713261;-5.835233688354492;14.84086799621582;-137.01776123046875
385;1673424535.8736537;47.1282001;7.2372644;88.27300262451172;1673424535.9107873;-4.575220584869385;14.939558982849121;-136.93145751953125
386;1673424536.0600367;47.1281902;7.2372508;88.65800476074219;1673424536.0914867;-3.706472396850586;15.222187042236328;-136.91334533691406
387;1673424536.244315;47.128180199999996;7.2372372;89.04700469970703;1673424536.2751727;-3.8396310806274414;15.153559684753418;-136.91064453125
388;1673424536.4414546;47.1281702;7.2372236999999995;89.43900299072266;1673424536.4869199;-4.954925060272217;14.73523235321045;-136.96702575683594
389;1673424536.6430511;47.128160199999996;7.2372100999999995;89.83200073242188;1673424536.6763363;-6.1600422859191895;14.924612998962402;-136.90965270996094
390;1673424536.843206;47.1281502;7.2371965;90.22500610351562;1673424536.8795235;-6.595506191253662;15.10134220123291;-136.91717529296875
391;1673424537.053147;47.1281402;7.2371829;90.61600494384766;1673424537.0908835;-6.202882766723633;15.179859161376953;-137.0789031982422
392;1673424537.2523608;47.1281302;7.2371694;91.00800323486328;1673424537.2868338;-5.138081073760986;15.372396469116211;-137.00082397460938
393;1673424537.4456906;47.1281203;7.237155899999999;91.4000015258789;1673424537.4843163;-4.394989013671875;15.098494529724121;-136.8526153564453
394;1673424537.6532383;47.128110299999996;7.2371422999999995;91.78700256347656;1673424537.6884518;-3.684025764465332;15.3833589553833;-136.8279571533203
395;1673424537.852714;47.1281004;7.2371288;92.17900085449219;1673424537.8864396;-4.128961563110352;15.13498306274414;-136.95176696777344
396;1673424538.0519319;47.1280904;7.2371151;92.57100677490234;1673424538.090546;-5.173742294311523;15.092065811157227;-137.02999877929688
397;1673424538.2589464;47.128080399999995;7.237101399999999;92.96800231933594;1673424538.2965672;-6.162013530731201;15.193044662475586;-137.0647735595703
398;1673424538.445462;47.1280704;7.237087799999999;93.36900329589844;1673424538.4772332;-6.3126959800720215;15.212128639221191;-136.99884033203125
399;1673424538.6349957;47.128060399999995;7.2370741;93.76100158691406;1673424538.6726873;-5.584150791168213;15.27440071105957;-136.905029296875
400;1673424538.8402293;47.1280504;7.2370605999999995;94.1570053100586;1673424538.878886;-4.253330707550049;15.241493225097656;-136.82208251953125
401;1673424539.0457246;47.1280405;7.237047;94.55500793457031;1673424539.0838356;-3.5124220848083496;14.98365306854248;-136.74729919433594
402;1673424539.2448843;47.128030599999995;7.2370334;94.95500183105469;1673424539.2781208;-3.35618257522583;15.214646339416504;-136.7577362060547
403;1673424539.4366329;47.1280206;7.2370198;95.3550033569336;1673424539.4723234;-4.291932582855225;15.283036231994629;-136.9055938720703
404;1673424539.63703;47.128010599999996;7.2370062;95.7550048828125;1673424539.6717317;-5.433679103851318;15.216617584228516;-137.1209259033203
405;1673424539.8316064;47.1280006;7.2369926;96.1510009765625;1673424539.8633966;-6.280819892883301;15.31592845916748;-137.20599365234375
406;1673424540.0212822;47.1279907;7.236979;96.5510025024414;1673424540.05644;-5.869940757751465;15.413908958435059;-137.06402587890625
407;1673424540.226738;47.127980799999996;7.2369654;96.9530029296875;1673424540.2640681;-5.0052080154418945;15.059768676757812;-136.81651306152344
408;1673424540.4404619;47.127970999999995;7.2369518;97.35400390625;1673424540.4825823;-3.8193259239196777;14.912458419799805;-136.7068328857422
409;1673424540.6602502;47.1279611;7.2369382;97.75300598144531;1673424540.6968899;-3.3869922161102295;14.906750679016113;-136.75787353515625
410;1673424540.8552566;47.1279512;7.2369246;98.15300750732422;1673424540.8914483;-3.6238088607788086;14.939431190490723;-136.82476806640625
411;1673424541.045274;47.127941299999996;7.2369110999999995;98.55500793457031;1673424541.078998;-4.7332258224487305;15.194955825805664;-136.8723602294922
412;1673424541.2608786;47.1279313;7.2368974999999995;98.9580078125;1673424541.2920136;-5.860669136047363;15.275741577148438;-137.01910400390625
413;1673424541.4410381;47.1279214;7.236884;99.3530044555664;1673424541.4766493;-6.494381904602051;15.238309860229492;-137.05348205566406
414;1673424541.6448672;47.1279116;7.2368703;99.74800109863281;1673424541.6875136;-6.070528984069824;15.09093189239502;-136.99180603027344
415;1673424541.8559365;47.127901699999995;7.2368568;100.14300537109375;1673424541.8867323;-4.673229694366455;15.348165512084961;-136.86050415039062
