;pos_time;latitude;longitude;altitude;alt_time;pitch;roll;yaw
0;1673427220.8132737;47.1306424;7.2406198999999996;-0.029000001028180122;1673427220.8162003;0.17248958349227905;-1.1251978874206543;90.51810455322266
1;1673427221.0149171;47.1306424;7.2406198999999996;-0.029000001028180122;1673427221.0197961;-0.10403939336538315;-0.8868017792701721;90.58403015136719
2;1673427221.2162232;47.1306424;7.240619799999999;-0.029000001028180122;1673427221.2181754;-0.11712043732404709;-0.011243438348174095;90.66324615478516
3;1673427221.4037504;47.1306424;7.240619799999999;-0.02800000086426735;1673427221.4066784;-0.09418784081935883;-0.13479933142662048;90.54461669921875
4;1673427221.6025524;47.1306424;7.2406197;-0.024000000208616257;1673427221.6044877;-0.023084349930286407;-0.23443511128425598;90.61839294433594
5;1673427221.8251045;47.1306424;7.2406197;-0.023000001907348633;1673427221.8280253;0.024676978588104248;0.027939578518271446;90.46221160888672
6;1673427222.0065346;47.1306424;7.2406197;-0.024000000208616257;1673427222.0119514;-0.17989932000637054;-0.2665555477142334;90.57471466064453
7;1673427222.2052348;47.1306424;7.240619799999999;-0.02500000037252903;1673427222.2081614;-0.13173259794712067;-0.0680328980088234;90.50483703613281
8;1673427222.4055567;47.1306424;7.240619799999999;-0.026000000536441803;1673427222.4084742;0.21659491956233978;-0.22897464036941528;90.6280746459961
9;1673427222.6086805;47.1306424;7.240619799999999;0.0;1673427222.61161;-0.1481066644191742;-1.4740170240402222;90.61363983154297
10;1673427222.812097;47.1306424;7.2406198999999996;0.004000000189989805;1673427222.8165474;-0.25063356757164;-1.3802729845046997;90.38675689697266
11;1673427223.0272622;47.1306425;7.240619799999999;0.007000000216066837;1673427223.0312674;-0.22548186779022217;-1.3994104862213135;90.44401550292969
12;1673427223.2315996;47.1306425;7.240619799999999;0.009000000543892384;1673427223.2345278;-0.2631624639034271;-1.3225979804992676;90.35066986083984
13;1673427223.4259233;47.1306425;7.240619799999999;0.013000000268220901;1673427223.4278684;-0.20880290865898132;-1.284804105758667;90.33423614501953
14;1673427223.610978;47.1306425;7.2406198999999996;0.015000000596046448;1673427223.6183443;0.035489771515131;-1.406485915184021;90.41732788085938
15;1673427223.8091092;47.130642599999995;7.2406198999999996;0.013000000268220901;1673427223.811987;0.1168229877948761;-1.9677276611328125;90.17098999023438
16;1673427223.990442;47.130642599999995;7.2406198999999996;0.013000000268220901;1673427223.9933703;0.23986747860908508;-1.9570143222808838;90.07752227783203
17;1673427224.196453;47.130642599999995;7.2406198999999996;0.0020000000949949026;1673427224.199371;-0.04053450748324394;-1.8927102088928223;89.9296646118164
18;1673427224.3933334;47.130642599999995;7.24062;0.005000000353902578;1673427224.3972561;0.13337071239948273;-1.119513750076294;89.5338134765625
19;1673427224.5974615;47.130642699999996;7.2406201;0.00800000037997961;1673427224.6004035;0.25466617941856384;-0.6474049091339111;89.24303436279297
20;1673427224.8157256;47.1306428;7.2406201;0.007000000216066837;1673427224.8201654;0.4573321044445038;-1.2813040018081665;88.92327880859375
21;1673427225.0130663;47.1306429;7.2406201;0.009000000543892384;1673427225.0171838;0.589533805847168;-1.190391182899475;86.94319152832031
22;1673427225.2064984;47.1306431;7.24062;0.021000001579523087;1673427225.2113793;0.8791900277137756;-1.1931898593902588;85.3816909790039
23;1673427225.408894;47.130643299999996;7.2406198999999996;0.030000001192092896;1673427225.4118094;1.3080941438674927;-1.1267714500427246;81.60880279541016
24;1673427225.6082067;47.130643899999995;7.2406196;0.029000001028180122;1673427225.6111495;1.163261890411377;-0.9078517556190491;72.72698974609375
25;1673427225.8115675;47.1306448;7.240619;0.03200000151991844;1673427225.8145142;0.6260344386100769;-0.20569582283496857;58.68798065185547
26;1673427226.017461;47.1306461;7.2406181;0.03500000014901161;1673427226.019945;0.5107675194740295;-0.34633299708366394;38.09013748168945
27;1673427226.2060978;47.130648199999996;7.2406163999999995;0.032999999821186066;1673427226.2090402;2.27242374420166;1.1319375038146973;25.37885856628418
28;1673427226.40929;47.1306509;7.2406139;0.04100000113248825;1673427226.4122157;5.210169792175293;4.745917320251465;23.087995529174805
29;1673427226.6115873;47.1306541;7.2406109;0.05400000140070915;1673427226.6174269;6.740654468536377;10.302363395690918;26.03786277770996
30;1673427226.8056304;47.1306576;7.2406073;0.07100000232458115;1673427226.8085556;7.6985063552856445;14.333809852600098;29.49535369873047
31;1673427227.0073931;47.1306614;7.2406035;0.0860000029206276;1673427227.011296;8.081143379211426;16.4016056060791;32.26178741455078
32;1673427227.2029068;47.130665199999996;7.2405995;0.10000000149011612;1673427227.2058377;8.209624290466309;18.515445709228516;34.51982879638672
33;1673427227.4018114;47.130668899999996;7.240595399999999;0.11800000816583633;1673427227.4057252;8.206650733947754;20.6439151763916;36.29061508178711
34;1673427227.6096218;47.1306726;7.240591299999999;0.14400000870227814;1673427227.6115716;8.205994606018066;22.7990779876709;37.71147155761719
35;1673427227.8054662;47.130676;7.2405873;0.17400000989437103;1673427227.8083956;8.211671829223633;24.817594528198242;38.84648513793945
36;1673427228.0073628;47.130679099999995;7.240583699999999;0.2070000171661377;1673427228.0122266;8.314468383789062;26.912080764770508;39.80263900756836
37;1673427228.2301407;47.1306819;7.2405805;0.24000000953674316;1673427228.2321093;8.582509994506836;28.882389068603516;40.48220443725586
38;1673427228.4380035;47.1306843;7.2405778;0.2750000059604645;1673427228.4418874;8.936196327209473;30.93868637084961;41.0330924987793
39;1673427228.6350768;47.1306863;7.2405757;0.3160000145435333;1673427228.637992;9.334444046020508;33.02833938598633;41.48015594482422
40;1673427228.8233247;47.130687599999995;7.240574199999999;0.3630000054836273;1673427228.8252761;9.919239044189453;35.03685760498047;41.685585021972656
41;1673427229.0052505;47.1306884;7.2405734;0.4140000343322754;1673427229.0071952;10.574344635009766;37.21638107299805;41.954071044921875
42;1673427229.201629;47.1306885;7.240573299999999;0.46700000762939453;1673427229.2045584;11.440185546875;39.032344818115234;41.957908630371094
43;1673427229.4048069;47.1306879;7.2405741;0.5250000357627869;1673427229.4088736;12.39633560180664;40.901832580566406;41.870079040527344
44;1673427229.6248422;47.130686399999995;7.2405757;0.5879999995231628;1673427229.6277652;13.70971965789795;42.90566635131836;41.5943489074707
45;1673427229.8190603;47.1306842;7.2405782;0.6540000438690186;1673427229.8219876;15.203054428100586;44.84465789794922;41.246307373046875
46;1673427230.0035164;47.130680999999996;7.2405816;0.7230000495910645;1673427230.007425;17.26133918762207;46.499725341796875;40.72133255004883
47;1673427230.2181408;47.1306769;7.2405859999999995;0.7910000085830688;1673427230.2201073;17.1468505859375;43.62501907348633;39.539329528808594
48;1673427230.4417322;47.1306722;7.240590999999999;0.8550000190734863;1673427230.44466;16.010372161865234;38.305965423583984;38.46393966674805
49;1673427230.6443923;47.1306672;7.2405962;0.909000039100647;1673427230.6482966;13.798147201538086;32.959503173828125;37.560726165771484
50;1673427230.8369586;47.1306623;7.240601099999999;0.956000030040741;1673427230.8408618;11.561969757080078;26.908641815185547;37.0278205871582
51;1673427231.0411654;47.130657799999994;7.2406055;0.9970000386238098;1673427231.0441;9.595357894897461;22.737472534179688;36.909114837646484
52;1673427231.2270133;47.1306539;7.2406090999999995;1.0360000133514404;1673427231.229941;7.96140718460083;19.505979537963867;36.94648742675781
53;1673427231.4172885;47.1306508;7.240612;1.0750000476837158;1673427231.4202144;6.921433925628662;17.942298889160156;37.13433074951172
54;1673427231.6105914;47.1306484;7.240614099999999;1.1130000352859497;1673427231.615475;6.549156188964844;18.129840850830078;37.397647857666016
55;1673427231.8047855;47.1306468;7.240615399999999;1.1600000858306885;1673427231.8086724;6.761392116546631;19.506799697875977;37.70195388793945
56;1673427231.9989772;47.130645799999996;7.2406160999999996;1.2190001010894775;1673427232.0019052;7.310835361480713;21.459228515625;37.999332427978516
57;1673427232.2010155;47.1306453;7.2406163999999995;1.284000039100647;1673427232.2039351;7.390610218048096;23.753217697143555;38.21875
58;1673427232.4037366;47.130645;7.2406163999999995;1.3620001077651978;1673427232.4076345;8.418487548828125;26.122676849365234;38.523155212402344
59;1673427232.6145685;47.1306449;7.2406163;1.4520000219345093;1673427232.6175027;8.727453231811523;27.70091438293457;38.60000991821289
60;1673427232.81684;47.1306447;7.2406163;1.5550000667572021;1673427232.8197784;8.914000511169434;27.97272491455078;38.642921447753906
61;1673427233.0103753;47.130644499999995;7.2406163999999995;1.6720000505447388;1673427233.0133052;7.018909454345703;28.906694412231445;44.52303695678711
62;1673427233.2056918;47.1306443;7.2406166999999995;1.8010001182556152;1673427233.2086241;8.199318885803223;29.127155303955078;44.84075164794922
63;1673427233.392427;47.1306441;7.2406172;1.942000150680542;1673427233.3953586;8.385082244873047;27.461685180664062;44.862159729003906
64;1673427233.5930905;47.130643899999995;7.2406177;2.0930001735687256;1673427233.5960178;8.874485969543457;27.29114532470703;44.988685607910156
65;1673427233.8026092;47.1306436;7.2406182;2.257000207901001;1673427233.8065133;9.374042510986328;27.405227661132812;45.026084899902344
66;1673427234.0007002;47.1306434;7.2406187;2.436000108718872;1673427234.0036428;9.219325065612793;25.756866455078125;44.923892974853516
67;1673427234.2047832;47.1306431;7.2406191;2.625000238418579;1673427234.207732;9.002373695373535;25.888765335083008;44.90675354003906
68;1673427234.4032476;47.1306428;7.2406194;2.819000244140625;1673427234.4071534;9.222253799438477;26.381629943847656;44.96589279174805
69;1673427234.6085112;47.130642599999995;7.240619499999999;3.011000156402588;1673427234.6114547;8.830662727355957;25.095842361450195;44.753028869628906
70;1673427234.8114204;47.1306424;7.2406196;3.199000120162964;1673427234.8143554;8.500762939453125;25.309621810913086;44.84371566772461
71;1673427235.0124207;47.1306423;7.2406196;3.389000177383423;1673427235.015367;8.5211181640625;26.753339767456055;45.017120361328125
72;1673427235.2093067;47.1306422;7.240619499999999;3.5830001831054688;1673427235.2112582;8.233774185180664;25.530044555664062;44.835514068603516
73;1673427235.4084792;47.1306422;7.240619499999999;3.7770001888275146;1673427235.413359;7.929449558258057;25.909326553344727;44.77350997924805
74;1673427235.625924;47.1306422;7.2406194;3.9700002670288086;1673427235.6288497;7.963837146759033;27.23748779296875;44.975128173828125
75;1673427235.798223;47.1306422;7.2406194;4.1670002937316895;1673427235.801151;8.033225059509277;26.135902404785156;45.00398254394531
76;1673427235.9828465;47.1306422;7.2406194;4.366000175476074;1673427235.9857762;7.8318281173706055;26.067068099975586;44.94300079345703
77;1673427236.196199;47.1306423;7.2406194;4.562000274658203;1673427236.199128;8.04053783416748;27.426136016845703;45.05278778076172
78;1673427236.3960686;47.1306424;7.2406193;4.759000301361084;1673427236.4009402;8.248282432556152;26.414878845214844;44.95682907104492
79;1673427236.611847;47.1306424;7.2406194;4.957000255584717;1673427236.6147757;8.097506523132324;26.41695213317871;44.8772087097168
80;1673427236.8329284;47.1306424;7.2406194;5.154000282287598;1673427236.8373663;8.40878963470459;27.51658058166504;44.9223518371582
81;1673427237.0418859;47.1306425;7.240619499999999;5.355000019073486;1673427237.0457578;8.509797096252441;26.34988784790039;44.907470703125
82;1673427237.232067;47.130642599999995;7.240619499999999;5.556000232696533;1673427237.2365155;8.269307136535645;26.29633903503418;44.8261604309082
83;1673427237.4201477;47.130642599999995;7.2406197;5.75600004196167;1673427237.424069;8.633855819702148;27.374162673950195;45.02289581298828
84;1673427237.6071923;47.130642599999995;7.240619799999999;5.954000473022461;1673427237.6110842;8.688200950622559;26.178861618041992;44.872802734375
85;1673427237.820551;47.130642599999995;7.240619799999999;6.152000427246094;1673427237.8244648;8.556132316589355;26.101266860961914;44.83153533935547
86;1673427238.0164206;47.130642599999995;7.2406198999999996;6.349000453948975;1673427238.0193534;8.756856918334961;27.1249942779541;44.920257568359375
87;1673427238.2150235;47.130642699999996;7.24062;6.544000148773193;1673427238.2179456;8.709102630615234;26.465116500854492;44.95737838745117
88;1673427238.4112275;47.130642699999996;7.24062;6.744000434875488;1673427238.4141643;8.572944641113281;25.77817153930664;44.89567947387695
89;1673427238.620296;47.130642699999996;7.24062;6.943000316619873;1673427238.6242096;8.640742301940918;27.192481994628906;45.01923370361328
90;1673427238.814517;47.130642699999996;7.24062;7.139000415802002;1673427238.8184068;8.789185523986816;26.495412826538086;44.88393783569336
91;1673427239.0185153;47.130642699999996;7.24062;7.336000442504883;1673427239.0214489;8.595947265625;25.949277877807617;44.818115234375
92;1673427239.206185;47.130642699999996;7.24062;7.534000396728516;1673427239.2091095;8.72439956665039;27.1793155670166;44.97147750854492
93;1673427239.4017892;47.130642699999996;7.24062;7.735000133514404;1673427239.4046953;8.8309965133667;26.699604034423828;45.0107421875
94;1673427239.6012678;47.130642699999996;7.24062;7.933000564575195;1673427239.6051693;8.506787300109863;25.984485626220703;44.84944152832031
95;1673427239.7984612;47.130642699999996;7.24062;8.130000114440918;1673427239.8023734;8.654412269592285;27.473812103271484;45.00184631347656
96;1673427240.015077;47.130642699999996;7.24062;8.32800006866455;1673427240.016036;8.703078269958496;26.64772605895996;44.88249588012695
97;1673427240.2409463;47.130642599999995;7.2406198999999996;8.522000312805176;1673427240.2438784;8.597914695739746;26.03890609741211;44.83872604370117
98;1673427240.444517;47.130642599999995;7.2406198999999996;8.71500015258789;1673427240.4474502;8.399261474609375;27.180316925048828;44.93467330932617
99;1673427240.6376307;47.1306425;7.2406198999999996;8.91200065612793;1673427240.6420586;8.73299503326416;26.776208877563477;44.996253967285156
100;1673427240.8610756;47.1306425;7.2406198999999996;9.108000755310059;1673427240.8640258;8.306085586547852;25.8615665435791;44.869415283203125
101;1673427241.055369;47.1306425;7.2406198999999996;9.307000160217285;1673427241.0583127;8.250753402709961;27.281126022338867;44.95454025268555
102;1673427241.2375069;47.1306424;7.2406198999999996;9.505000114440918;1673427241.2394516;8.517483711242676;26.587726593017578;44.94810485839844
103;1673427241.4338243;47.1306424;7.2406198999999996;9.702000617980957;1673427241.435777;8.467218399047852;25.889179229736328;44.863433837890625
104;1673427241.635075;47.1306424;7.2406198999999996;9.89900016784668;1673427241.6389613;8.618462562561035;27.04686737060547;44.984718322753906
105;1673427241.8233402;47.1306424;7.2406198999999996;10.098000526428223;1673427241.8272612;8.441688537597656;26.427757263183594;44.927825927734375
106;1673427242.0316749;47.1306423;7.2406198999999996;10.356000900268555;1673427242.0346036;8.153879165649414;23.97127342224121;44.5359001159668
107;1673427242.2395322;47.130642099999996;7.24062;10.72800064086914;1673427242.2434714;8.468353271484375;27.622385025024414;44.951812744140625
108;1673427242.431621;47.1306418;7.2406203;11.120000839233398;1673427242.436521;8.49074649810791;26.160812377929688;44.85387420654297
109;1673427242.6117387;47.130641499999996;7.2406204999999995;11.520000457763672;1673427242.615642;7.937227725982666;25.06713104248047;44.99612808227539
110;1673427242.8274794;47.1306413;7.2406207;11.92400074005127;1673427242.8313851;8.040374755859375;25.39448356628418;45.15718460083008
111;1673427243.037007;47.1306411;7.240620799999999;12.334000587463379;1673427243.0409098;7.8647942543029785;24.07408905029297;44.94658660888672
112;1673427243.2593086;47.130641;7.2406209;12.744000434875488;1673427243.2612627;7.845099449157715;24.428890228271484;45.005126953125
113;1673427243.4548178;47.130641;7.2406209;13.155000686645508;1673427243.4577467;7.857949733734131;24.969135284423828;45.03886032104492
114;1673427243.6462224;47.130641;7.240620799999999;13.569000244140625;1673427243.6481745;7.994794845581055;24.574081420898438;44.975948333740234
115;1673427243.8363059;47.1306411;7.2406206;13.981000900268555;1673427243.8382742;7.827235698699951;25.21205711364746;45.040531158447266
116;1673427244.0296814;47.1306412;7.2406204;14.385000228881836;1673427244.0335562;8.156543731689453;25.884241104125977;45.02174377441406
117;1673427244.2226942;47.130641399999995;7.2406201999999995;14.789000511169434;1673427244.225603;8.129051208496094;25.51495933532715;44.90697479248047
118;1673427244.4317517;47.130641399999995;7.2406201;15.196001052856445;1673427244.436631;8.190108299255371;26.10061264038086;44.92964172363281
119;1673427244.6369677;47.130641499999996;7.24062;15.60300064086914;1673427244.6408718;8.096013069152832;26.369985580444336;44.957969665527344
120;1673427244.8521502;47.130641499999996;7.2406198999999996;16.006999969482422;1673427244.8560545;8.192341804504395;25.763307571411133;44.92985916137695
121;1673427245.0375285;47.130641499999996;7.240619799999999;16.413000106811523;1673427245.0404568;7.895286560058594;25.989534378051758;44.90995407104492
122;1673427245.2445133;47.130641499999996;7.240619799999999;16.81800079345703;1673427245.247984;8.00710391998291;26.245500564575195;44.99800491333008
123;1673427245.4445798;47.130641499999996;7.240619799999999;17.21900177001953;1673427245.447567;8.12830924987793;25.713642120361328;44.93755340576172
124;1673427245.6337802;47.130641499999996;7.2406198999999996;17.621000289916992;1673427245.6376882;7.982522964477539;25.635133743286133;44.941795349121094
125;1673427245.8253422;47.130641499999996;7.2406198999999996;18.02400016784668;1673427245.8284268;8.12409496307373;25.95235252380371;44.95972442626953
126;1673427246.028827;47.1306416;7.2406198999999996;18.42500114440918;1673427246.0317564;8.335124015808105;25.60223388671875;44.9490966796875
127;1673427246.2362227;47.1306416;7.24062;18.826000213623047;1673427246.239152;8.275200843811035;25.4677677154541;44.929683685302734
128;1673427246.4158046;47.1306416;7.24062;19.225000381469727;1673427246.4197097;8.172134399414062;25.789222717285156;44.940242767333984
129;1673427246.6091766;47.1306416;7.2406201;19.625;1673427246.612104;8.318755149841309;25.476268768310547;44.940399169921875
130;1673427246.806612;47.1306416;7.2406201;20.029001235961914;1673427246.8095388;8.381776809692383;25.674652099609375;44.93373489379883
131;1673427247.0256796;47.1306417;7.24062;20.4320011138916;1673427247.0295825;8.405057907104492;25.886096954345703;44.91381072998047
132;1673427247.2275305;47.1306417;7.24062;20.83500099182129;1673427247.231449;8.432218551635742;25.790035247802734;44.90986251831055
133;1673427247.4300086;47.1306417;7.24062;21.24300193786621;1673427247.4329388;8.25435733795166;25.797977447509766;44.89083480834961
134;1673427247.652495;47.1306417;7.24062;21.65300178527832;1673427247.6554134;8.194046020507812;26.0329532623291;44.93565368652344
135;1673427247.8598;47.1306417;7.24062;22.058000564575195;1673427247.8627295;8.17342758178711;25.768619537353516;44.926513671875
136;1673427248.0500538;47.1306417;7.24062;22.455001831054688;1673427248.0525532;8.080216407775879;25.597902297973633;44.93949890136719
137;1673427248.236496;47.1306416;7.24062;22.851001739501953;1673427248.240403;8.233987808227539;25.815385818481445;44.953712463378906
138;1673427248.451506;47.1306416;7.24062;23.248001098632812;1673427248.455441;8.176575660705566;25.635709762573242;44.95130157470703
139;1673427248.6363876;47.1306416;7.24062;23.645000457763672;1673427248.6402938;8.005040168762207;25.583688735961914;44.92781448364258
140;1673427248.8239465;47.1306416;7.24062;24.043001174926758;1673427248.8268807;8.176071166992188;25.877363204956055;44.95826721191406
141;1673427249.0427878;47.1306416;7.24062;24.439001083374023;1673427249.045717;8.053092002868652;25.823781967163086;44.93634033203125
142;1673427249.2998211;47.1306417;7.24062;24.836000442504883;1673427249.3017735;8.299705505371094;25.549285888671875;44.93870162963867
143;1673427249.4867446;47.1306417;7.24062;25.235000610351562;1673427249.4916246;8.086124420166016;25.852413177490234;44.9227409362793
144;1673427249.6536436;47.1306417;7.24062;25.634000778198242;1673427249.656577;8.241887092590332;25.856821060180664;44.94685745239258
145;1673427249.8411407;47.1306418;7.24062;26.034000396728516;1673427249.8451457;8.199769973754883;25.64243507385254;44.90538787841797
146;1673427250.0468304;47.1306418;7.24062;26.43600082397461;1673427250.051713;8.355278968811035;25.90442657470703;44.956886291503906
147;1673427250.2456381;47.1306418;7.24062;26.836000442504883;1673427250.247675;8.276963233947754;25.958999633789062;44.9302978515625
148;1673427250.4456172;47.1306418;7.24062;27.23400115966797;1673427250.4475696;8.262981414794922;25.519254684448242;44.89451217651367
149;1673427250.6367621;47.1306418;7.2406201;27.630001068115234;1673427250.6396892;8.154926300048828;25.801227569580078;44.915321350097656
150;1673427250.8408504;47.1306418;7.2406201;28.029001235961914;1673427250.8447685;8.374992370605469;25.58836555480957;44.98198699951172
151;1673427251.0363836;47.1306419;7.2406201;28.4320011138916;1673427251.0393143;8.352075576782227;25.44336700439453;44.92194747924805
152;1673427251.231016;47.1306419;7.2406201;28.838001251220703;1673427251.234912;8.366066932678223;25.788320541381836;44.95888137817383
153;1673427251.4301605;47.1306419;7.2406201;29.24300193786621;1673427251.4340763;8.322381973266602;25.59084701538086;44.94330596923828
154;1673427251.64134;47.130641999999995;7.2406201;29.64200210571289;1673427251.6442683;8.1644926071167;25.561546325683594;44.923683166503906
155;1673427251.8385732;47.130641999999995;7.24062;30.04100227355957;1673427251.841487;8.290727615356445;25.876428604125977;44.954429626464844
156;1673427252.0459692;47.130642099999996;7.24062;30.44300079345703;1673427252.0488846;8.297693252563477;25.81290626525879;44.954898834228516
157;1673427252.2260833;47.130642099999996;7.2406198999999996;30.84400177001953;1673427252.229013;8.186548233032227;25.719717025756836;44.911842346191406
158;1673427252.431381;47.130642099999996;7.2406198999999996;31.246002197265625;1673427252.4352887;8.224621772766113;26.021875381469727;44.95282745361328
159;1673427252.6280015;47.1306422;7.2406198999999996;31.648000717163086;1673427252.631877;8.208370208740234;26.03360939025879;44.9210205078125
160;1673427252.8406353;47.1306422;7.240619799999999;32.04800033569336;1673427252.8445396;8.27599048614502;25.706281661987305;44.95988845825195
161;1673427253.0313835;47.1306422;7.240619799999999;32.44600296020508;1673427253.0353017;8.219647407531738;26.134784698486328;44.938968658447266
162;1673427253.239946;47.1306422;7.240619799999999;32.84100341796875;1673427253.24288;8.259320259094238;25.980932235717773;44.982421875
163;1673427253.448255;47.1306422;7.240619799999999;33.24400329589844;1673427253.4521685;8.257379531860352;25.558391571044922;44.86619186401367
164;1673427253.653751;47.1306423;7.240619799999999;33.647003173828125;1673427253.6566653;8.195035934448242;26.056629180908203;44.944435119628906
165;1673427253.8543434;47.1306423;7.2406198999999996;34.04800033569336;1673427253.8563113;8.49466609954834;25.876020431518555;44.984703063964844
166;1673427254.0529253;47.1306423;7.2406198999999996;34.45100021362305;1673427254.0558531;8.405754089355469;25.441247940063477;44.897743225097656
167;1673427254.2358265;47.1306423;7.2406198999999996;34.85200119018555;1673427254.23872;8.392881393432617;25.930273056030273;44.9149169921875
168;1673427254.4370613;47.1306423;7.2406198999999996;35.25;1673427254.439996;8.366089820861816;25.893747329711914;44.957916259765625
169;1673427254.6641614;47.1306423;7.2406198999999996;35.65400314331055;1673427254.666114;8.381627082824707;25.40088653564453;44.92595291137695
170;1673427254.8590982;47.1306423;7.2406198999999996;36.060001373291016;1673427254.8625648;8.417430877685547;25.819496154785156;44.94001388549805
171;1673427255.0450377;47.1306423;7.2406198999999996;36.46500015258789;1673427255.0479696;8.413459777832031;25.9038028717041;44.94743728637695
172;1673427255.2380393;47.1306423;7.2406198999999996;36.871002197265625;1673427255.2419434;8.349564552307129;25.589454650878906;44.903533935546875
173;1673427255.4412978;47.1306422;7.2406198999999996;37.275001525878906;1673427255.4442258;8.26671314239502;25.803634643554688;44.898773193359375
174;1673427255.6373963;47.1306422;7.240619799999999;37.67400360107422;1673427255.6403148;8.382168769836426;25.98287582397461;44.966392517089844
175;1673427255.8442788;47.1306422;7.2406198999999996;38.06800079345703;1673427255.8481836;8.303053855895996;25.42245864868164;44.87141036987305
176;1673427256.0410295;47.130642099999996;7.2406198999999996;38.46500015258789;1673427256.0439541;8.326542854309082;25.740039825439453;44.975284576416016
177;1673427256.2379863;47.130642099999996;7.240619799999999;38.862003326416016;1673427256.240926;8.186943054199219;25.85780906677246;44.94515609741211
178;1673427256.4366436;47.130642099999996;7.240619799999999;39.26000213623047;1673427256.4395716;8.15790843963623;25.69929313659668;44.921077728271484
179;1673427256.6286545;47.130642099999996;7.240619799999999;39.660003662109375;1673427256.6315968;8.153097152709961;25.813974380493164;44.929935455322266
180;1673427256.827992;47.130641999999995;7.2406197;40.05900192260742;1673427256.8328676;8.187479972839355;25.99895477294922;44.97608947753906
181;1673427257.0460496;47.130641999999995;7.2406197;40.45800018310547;1673427257.0509305;8.037206649780273;25.531206130981445;44.910640716552734
182;1673427257.2641692;47.130641999999995;7.2406197;40.861000061035156;1673427257.2676325;8.021923065185547;25.784513473510742;44.94841003417969
183;1673427257.4816866;47.130641999999995;7.2406197;41.26400375366211;1673427257.4836807;8.119901657104492;25.738121032714844;44.95652770996094
184;1673427257.667213;47.130641999999995;7.2406197;41.665000915527344;1673427257.6711526;8.141572952270508;25.48727035522461;44.94084167480469
185;1673427257.8565364;47.130641999999995;7.2406197;42.06500244140625;1673427257.860427;8.088191986083984;25.686975479125977;44.963897705078125
186;1673427258.062644;47.130641999999995;7.2406197;42.4630012512207;1673427258.0645988;8.188923835754395;25.795806884765625;44.93098449707031
187;1673427258.2675269;47.130641999999995;7.2406197;42.86100387573242;1673427258.2704759;8.29916763305664;25.651378631591797;44.92814254760742
188;1673427258.4559574;47.130642099999996;7.240619799999999;43.25600051879883;1673427258.4598732;8.303439140319824;25.745637893676758;44.927188873291016
189;1673427258.662044;47.130642099999996;7.240619799999999;43.65500259399414;1673427258.6649733;8.35130786895752;25.796388626098633;44.92051696777344
190;1673427258.8731132;47.130642099999996;7.2406197;44.05900192260742;1673427258.8760452;8.235457420349121;25.699935913085938;44.888084411621094
191;1673427259.0634506;47.130642099999996;7.2406197;44.4630012512207;1673427259.0654018;8.363576889038086;25.772985458374023;44.931705474853516
192;1673427259.255355;47.130642099999996;7.2406197;44.8650016784668;1673427259.2602346;8.231616973876953;25.86869239807129;44.94594192504883
193;1673427259.4600973;47.130642099999996;7.2406197;45.26400375366211;1673427259.4630418;8.368220329284668;25.925254821777344;44.954959869384766
194;1673427259.6652966;47.130642099999996;7.2406197;45.659000396728516;1673427259.6672673;8.265308380126953;25.692176818847656;44.9368896484375
195;1673427259.8573852;47.130642099999996;7.2406197;46.05500030517578;1673427259.861246;8.241703987121582;25.614519119262695;44.925228118896484
196;1673427260.06075;47.130642099999996;7.2406197;46.4530029296875;1673427260.0646732;8.295343399047852;25.775915145874023;44.9599609375
197;1673427260.2460058;47.130642099999996;7.2406197;46.85300064086914;1673427260.2489355;8.285551071166992;25.80388832092285;44.923824310302734
198;1673427260.4452698;47.1306422;7.2406197;47.25100326538086;1673427260.4483418;8.327860832214355;25.727251052856445;44.959129333496094
199;1673427260.647787;47.1306422;7.2406197;47.652000427246094;1673427260.65169;8.316843032836914;25.978649139404297;44.93269348144531
200;1673427260.8460941;47.1306422;7.2406197;48.0420036315918;1673427260.8480482;8.295191764831543;25.651912689208984;44.922607421875
201;1673427261.0610857;47.1306423;7.2406196;48.38300323486328;1673427261.0630443;8.440010070800781;26.217409133911133;44.947879791259766
202;1673427261.2996895;47.1306424;7.240619499999999;48.67500305175781;1673427261.3006654;8.396486282348633;26.004499435424805;44.91336441040039
203;1673427261.4791484;47.130642599999995;7.2406193;48.92100143432617;1673427261.4830527;8.52926254272461;26.62969207763672;44.9581413269043
204;1673427261.7158701;47.1306429;7.2406191;49.12800216674805;1673427261.7187989;8.642123222351074;27.084758758544922;44.91347122192383
205;1673427261.8958828;47.1306431;7.2406188;49.301002502441406;1673427261.8988128;10.5086669921875;27.328758239746094;45.09708786010742
206;1673427262.1200519;47.1306431;7.2406182999999995;49.45100402832031;1673427262.122016;31.3858642578125;26.822399139404297;52.8121337890625
207;1673427262.2963164;47.1306422;7.240615999999999;49.58100128173828;1673427262.2982666;45.2710075378418;31.892148971557617;65.2065200805664
208;1673427262.4906962;47.1306394;7.240610299999999;49.691001892089844;1673427262.4936256;52.78789520263672;35.83710479736328;72.93527221679688
209;1673427262.7178676;47.130634799999996;7.2406011999999995;49.737003326416016;1673427262.74812;42.552303314208984;35.127986907958984;79.14757537841797
210;1673427262.9499352;47.130628699999995;7.2405895;49.74800109863281;1673427262.9509118;32.3980598449707;37.23312759399414;88.91944122314453
211;1673427263.1199546;47.1306217;7.240575499999999;49.74800109863281;1673427263.1219118;28.552162170410156;47.86079788208008;99.95970916748047
212;1673427263.3125792;47.1306136;7.240559299999999;49.72700119018555;1673427263.3145158;14.85586166381836;46.111915588378906;109.52835083007812
213;1673427263.497129;47.130604999999996;7.2405414;49.698001861572266;1673427263.4990823;1.8781362771987915;43.08639907836914;119.44800567626953
214;1673427263.7065566;47.130596399999995;7.2405221;49.669002532958984;1673427263.716439;-9.695674896240234;44.53052520751953;129.2439422607422
215;1673427263.9248157;47.1305872;7.2405018;49.65500259399414;1673427263.9277427;-21.000873565673828;43.82551574707031;139.16969299316406
216;1673427264.1075873;47.1305773;7.240480499999999;49.656002044677734;1673427264.1095395;-33.818416595458984;40.597896575927734;150.4275360107422
217;1673427264.2895324;47.130566699999996;7.2404581;49.66200256347656;1673427264.291483;-45.78530502319336;37.72231674194336;163.2090301513672
218;1673427264.4919064;47.1305555;7.2404344;49.6400032043457;1673427264.494889;-41.35346221923828;23.717424392700195;170.10821533203125
219;1673427264.6793;47.130544199999996;7.2404107;49.570003509521484;1673427264.6822298;-25.614383697509766;13.706252098083496;163.1870880126953
220;1673427264.860758;47.130533899999996;7.2403879;49.47800064086914;1673427264.8636897;-12.700173377990723;9.63472843170166;149.77235412597656
221;1673427265.094962;47.130524799999996;7.2403663;49.4170036315918;1673427265.0978901;-18.83787727355957;18.117984771728516;135.8634033203125
222;1673427265.2856367;47.1305165;7.240346;49.44900131225586;1673427265.2885666;-32.550621032714844;32.66107940673828;129.16554260253906
223;1673427265.467807;47.130507699999995;7.240327;49.50700378417969;1673427265.4707355;-35.88563537597656;42.10706329345703;131.32913208007812
224;1673427265.700368;47.1304978;7.2403083;49.56800079345703;1673427265.7032976;-40.34331130981445;44.749507904052734;134.93423461914062
225;1673427265.8928046;47.1304867;7.240289799999999;49.621002197265625;1673427265.8967066;-39.06978988647461;38.93605422973633;139.1471710205078
226;1673427266.089955;47.130474799999995;7.2402714999999995;49.65400314331055;1673427266.0938299;-37.35078048706055;33.15361404418945;138.51246643066406
227;1673427266.257053;47.1304625;7.240253999999999;49.67500305175781;1673427266.259968;-38.90943908691406;29.959007263183594;135.85081481933594
228;1673427266.4423828;47.1304498;7.2402375;49.70500183105469;1673427266.4462872;-42.37546157836914;27.885597229003906;134.23573303222656
229;1673427266.636692;47.1304368;7.2402226999999995;49.73600387573242;1673427266.640596;-44.54090881347656;21.494384765625;134.72789001464844
230;1673427266.8459315;47.130423699999994;7.2402099;49.755001068115234;1673427266.8488472;-46.10405349731445;9.059319496154785;135.6940460205078
231;1673427267.067324;47.130411099999996;7.2401998999999995;49.76700210571289;1673427267.0712278;-43.25618362426758;-9.189393997192383;134.64633178710938
232;1673427267.2611365;47.130399999999995;7.2401937;49.78300094604492;1673427267.2640646;-40.5778923034668;-15.720781326293945;131.47946166992188
233;1673427267.4867268;47.130390999999996;7.2401914;49.801002502441406;1673427267.4886818;-38.158233642578125;-23.23515510559082;133.48773193359375
234;1673427267.6888428;47.130384299999996;7.2401919999999995;49.820003509521484;1673427267.691773;-31.191146850585938;-21.719850540161133;130.5951690673828
235;1673427267.875726;47.1303799;7.240194799999999;49.84600067138672;1673427267.8796272;-33.82244110107422;-25.244382858276367;132.60211181640625
236;1673427268.08704;47.1303777;7.2402;49.89400100708008;1673427268.090944;-38.3108024597168;-23.77022933959961;129.88999938964844
237;1673427268.330243;47.1303774;7.2402074;49.965003967285156;1673427268.3331716;-38.71726989746094;-13.466954231262207;129.90147399902344
238;1673427268.5040865;47.1303779;7.2402161;50.025001525878906;1673427268.5060544;-29.344392776489258;-9.353578567504883;143.7334442138672
239;1673427268.6912267;47.1303787;7.2402245999999995;50.06800079345703;1673427268.6941366;-25.88196563720703;-3.6333518028259277;156.18080139160156
240;1673427268.8882253;47.1303796;7.2402321999999995;50.09700393676758;1673427268.8911607;-25.523855209350586;1.007903814315796;166.3999786376953
241;1673427269.0727854;47.1303804;7.2402381;50.118003845214844;1673427269.0757139;-28.716203689575195;4.481493949890137;175.03724670410156
242;1673427269.2805398;47.1303809;7.2402421;50.13500213623047;1673427269.284013;-33.37229919433594;4.346710681915283;-175.6247100830078
243;1673427269.4821193;47.1303808;7.2402438;50.15500259399414;1673427269.4870358;-38.28987503051758;0.35227417945861816;-166.10145568847656
244;1673427269.6885839;47.1303799;7.2402431;50.17500305175781;1673427269.6905372;-42.293853759765625;-6.0764312744140625;-156.25868225097656
245;1673427269.868765;47.1303778;7.24024;50.19200134277344;1673427269.8717124;-45.576690673828125;-13.532309532165527;-146.88589477539062
246;1673427270.066546;47.1303742;7.2402343;50.207000732421875;1673427270.0714405;-49.660972595214844;-18.576881408691406;-137.92698669433594
247;1673427270.3055778;47.130369099999996;7.2402257;50.22200393676758;1673427270.308505;-59.12188720703125;-20.574018478393555;-130.10708618164062
248;1673427270.4851913;47.130362299999994;7.240214;50.21000289916992;1673427270.488123;-50.366172790527344;-15.530430793762207;-133.4041290283203
249;1673427270.6765084;47.1303543;7.2401998;50.19400405883789;1673427270.6784594;-50.905670166015625;-14.649438858032227;-138.46847534179688
250;1673427270.8608704;47.130345299999995;7.2401836;50.191001892089844;1673427270.8647757;-51.6899528503418;-11.669432640075684;-142.31480407714844
251;1673427271.0478518;47.1303353;7.240165999999999;50.185001373291016;1673427271.0517561;-51.86604309082031;-13.52451229095459;-141.79522705078125
252;1673427271.248317;47.1303245;7.2401472;50.16200256347656;1673427271.2512453;-50.52555847167969;-11.95488166809082;-141.2005615234375
253;1673427271.4596207;47.130313099999995;7.240127299999999;50.125003814697266;1673427271.4615726;-48.149478912353516;-13.139885902404785;-140.1730499267578
254;1673427271.6731122;47.1303014;7.2401066;50.09400177001953;1673427271.677016;-47.216453552246094;-13.483748435974121;-139.82550048828125
255;1673427271.864141;47.130289399999995;7.2400854;50.077003479003906;1673427271.8680444;-45.502601623535156;-13.883174896240234;-139.6637725830078
256;1673427272.0684686;47.1302771;7.2400638;50.06200408935547;1673427272.0713832;-46.332759857177734;-15.063395500183105;-139.60543823242188
257;1673427272.2710283;47.1302646;7.2400419;50.05600357055664;1673427272.2760732;-46.763092041015625;-17.57598876953125;-140.76873779296875
258;1673427272.4588075;47.130251699999995;7.2400202;50.06300354003906;1673427272.460761;-48.1713752746582;-17.259113311767578;-149.80917358398438
259;1673427272.6675658;47.1302382;7.2399993;50.06300354003906;1673427272.6714716;-48.45521545410156;-10.003629684448242;-160.88694763183594
260;1673427272.8910556;47.1302245;7.2399792;50.07100296020508;1673427272.8949602;-47.16621398925781;-3.725820541381836;-169.18460083007812
261;1673427273.0752745;47.1302107;7.2399599;50.07200241088867;1673427273.0782056;-46.07844543457031;3.491671323776245;-178.1278076171875
262;1673427273.280788;47.1301968;7.2399412;50.06700134277344;1673427273.2836783;-44.34585952758789;10.473766326904297;173.2627716064453
263;1673427273.4883204;47.1301829;7.2399230999999995;50.057003021240234;1673427273.491782;-40.434818267822266;14.97023868560791;164.85952758789062
264;1673427273.7373137;47.1301694;7.2399055;50.035003662109375;1673427273.7402418;-36.327335357666016;16.76258659362793;156.08251953125
265;1673427273.9499469;47.130156199999995;7.2398887;49.99100112915039;1673427273.9518993;-32.23898696899414;13.68704891204834;146.39154052734375
266;1673427274.1331139;47.1301438;7.239873299999999;49.94300079345703;1673427274.1350656;-31.10603904724121;10.535210609436035;135.44039916992188
267;1673427274.3433082;47.1301324;7.2398599;49.923004150390625;1673427274.3786695;-41.93949890136719;5.069681644439697;129.09474182128906
268;1673427274.5607467;47.1301219;7.2398501;49.93300247192383;1673427274.5626912;-51.96694564819336;-11.406956672668457;129.84414672851562
269;1673427274.7443535;47.130112999999994;7.2398449;49.92400360107422;1673427274.7472825;-45.42668533325195;-14.309224128723145;122.9585189819336
270;1673427274.9513004;47.1301059;7.239843;49.875003814697266;1673427274.9542313;-27.859094619750977;-12.437192916870117;128.0606689453125
271;1673427275.128391;47.1301008;7.2398431;49.8640022277832;1673427275.1323135;-25.883333206176758;-25.904781341552734;152.72181701660156
272;1673427275.317024;47.1300975;7.2398454;49.92000198364258;1673427275.3189769;-25.9295711517334;-33.36726379394531;162.5839385986328
273;1673427275.4998562;47.130095499999996;7.239849899999999;49.9630012512207;1673427275.5027902;-17.9580135345459;-31.69999885559082;172.4524688720703
274;1673427275.6872745;47.1300945;7.2398558;50.00300216674805;1673427275.689836;-12.475255012512207;-28.54601287841797;-173.5887908935547
275;1673427275.8787088;47.130094199999995;7.2398621;50.035003662109375;1673427275.8835948;-10.058731079101562;-24.28501319885254;-162.61773681640625
276;1673427276.0748234;47.1300944;7.2398682;50.060001373291016;1673427276.079726;-11.898157119750977;-23.703792572021484;-153.72451782226562
277;1673427276.2723684;47.130094799999995;7.2398739;50.08100128173828;1673427276.275297;-14.349411964416504;-27.620559692382812;-144.71351623535156
278;1673427276.4702964;47.130095;7.2398789;50.10100173950195;1673427276.4732296;-17.102006912231445;-32.78812789916992;-135.5662078857422
279;1673427276.6601515;47.130094299999996;7.2398831999999995;50.124000549316406;1673427276.6630971;-19.942543029785156;-39.8143310546875;-128.88348388671875
280;1673427276.8644314;47.1300926;7.2398867;50.147003173828125;1673427276.8673584;-26.92307472229004;-40.17251205444336;-131.47000122070312
281;1673427277.0689225;47.1300896;7.239889499999999;50.17000198364258;1673427277.070864;-37.592803955078125;-34.290504455566406;-134.5572509765625
282;1673427277.2742522;47.130085;7.2398906;50.18600082397461;1673427277.277181;-46.26420211791992;-25.798423767089844;-136.11367797851562
283;1673427277.4734344;47.130078999999995;7.2398891;50.20000076293945;1673427277.4764028;-52.16812515258789;-16.23975944519043;-136.84921264648438
284;1673427277.6799529;47.1300716;7.239883799999999;50.21200180053711;1673427277.683856;-53.639442443847656;-5.8109660148620605;-136.51821899414062
285;1673427277.88463;47.1300634;7.2398741;50.20600128173828;1673427277.8885248;-56.745094299316406;-4.352023124694824;-136.58441162109375
286;1673427278.0941796;47.1300546;7.2398605;50.19300079345703;1673427278.0961626;-54.18084716796875;-0.3759188950061798;-138.958984375
287;1673427278.2966895;47.1300454;7.2398435999999995;50.172000885009766;1673427278.2996194;-48.149322509765625;-3.132823944091797;-138.86956787109375
288;1673427278.5326293;47.1300361;7.2398242999999995;50.15200424194336;1673427278.5345678;-48.87397766113281;-4.881220817565918;-139.8645477294922
289;1673427278.7203429;47.1300264;7.2398032;50.14900207519531;1673427278.7232714;-48.10505676269531;-9.353495597839355;-139.318359375
290;1673427278.8937442;47.130016399999995;7.239780799999999;50.14900207519531;1673427278.8972096;-52.18842315673828;-11.716010093688965;-139.41944885253906
291;1673427279.0687647;47.1300057;7.239757399999999;50.14600372314453;1673427279.0716946;-51.870635986328125;-13.3153715133667;-139.37469482421875
292;1673427279.254437;47.1299943;7.2397333999999995;50.125003814697266;1673427279.2573655;-50.90363311767578;-13.87533187866211;-139.3689422607422
293;1673427279.446822;47.129982399999996;7.2397089;50.10300064086914;1673427279.4498074;-47.83722686767578;-14.373632431030273;-139.3593292236328
294;1673427279.6416967;47.129970199999995;7.2396842999999995;50.08400344848633;1673427279.6446254;-45.35499954223633;-15.628957748413086;-139.4641571044922
295;1673427279.843912;47.1299577;7.2396598;50.070003509521484;1673427279.8478165;-46.338748931884766;-16.610734939575195;-139.85255432128906
296;1673427280.074513;47.1299449;7.2396356;50.05800247192383;1673427280.0774336;-46.7204475402832;-16.14818000793457;-140.2013397216797
297;1673427280.2604434;47.129931899999995;7.2396116;50.04600143432617;1673427280.263373;-45.21917724609375;-15.35702896118164;-140.3284454345703
298;1673427280.465222;47.1299188;7.2395876999999995;50.03000259399414;1673427280.46914;-44.31303024291992;-15.279427528381348;-140.25799560546875
299;1673427280.6773124;47.1299056;7.2395641;50.022003173828125;1673427280.6802397;-44.71939468383789;-16.049165725708008;-140.2249755859375
300;1673427280.899611;47.129892399999996;7.2395407;50.022003173828125;1673427280.9031167;-45.5078125;-16.742225646972656;-140.42613220214844
301;1673427281.07368;47.129878999999995;7.2395175;50.02400207519531;1673427281.075632;-45.501869201660156;-16.805192947387695;-140.8692169189453
302;1673427281.2591848;47.129865599999995;7.2394946;50.025001525878906;1673427281.26307;-45.56807327270508;-19.321231842041016;-141.9031524658203
303;1673427281.457957;47.1298518;7.2394723;50.02400207519531;1673427281.4608984;-46.711669921875;-18.491836547851562;-151.60641479492188
304;1673427281.6718347;47.1298378;7.2394511999999995;50.02100372314453;1673427281.6747525;-45.710899353027344;-10.901679992675781;-162.8827362060547
305;1673427281.8703547;47.129823699999996;7.2394313;50.01400375366211;1673427281.8732955;-45.89736557006836;-5.975111961364746;-171.05966186523438
306;1673427282.079595;47.129809599999994;7.2394124;50.00700378417969;1673427282.0835116;-44.1829719543457;0.7300985455513;179.85499572753906
307;1673427282.278444;47.1297956;7.2393946;49.99500274658203;1673427282.2833245;-43.283756256103516;8.000040054321289;171.13885498046875
308;1673427282.4981277;47.129781699999995;7.2393775;49.983001708984375;1673427282.5000799;-42.05068588256836;14.262930870056152;162.74351501464844
309;1673427282.7285807;47.1297681;7.239361;49.96800231933594;1673427282.7315202;-38.236114501953125;17.315196990966797;154.3806610107422
310;1673427282.9880052;47.1297548;7.2393453;49.94000244140625;1673427282.9899614;-36.202392578125;14.732650756835938;146.33070373535156
311;1673427283.140688;47.1297421;7.2393312;49.89500427246094;1673427283.143632;-36.31035614013672;-17.35906982421875;140.95726013183594
312;1673427283.3769143;47.129731299999996;7.239319999999999;49.81900405883789;1673427283.377877;-23.03367042541504;-17.879863739013672;125.19725036621094
313;1673427283.5385268;47.1297231;7.2393111;49.73200225830078;1673427283.5404952;-10.462252616882324;-20.436878204345703;135.6351318359375
314;1673427283.7164829;47.1297177;7.2393038999999995;49.669002532958984;1673427283.7194102;1.7468523979187012;-20.02007484436035;161.5545654296875
315;1673427283.9118767;47.1297151;7.2392981;49.66400146484375;1673427283.9148045;6.531001567840576;-27.98159408569336;178.8672637939453
316;1673427284.111432;47.1297147;7.239293999999999;49.691001892089844;1673427284.1172879;-3.96301007270813;-33.49411392211914;-169.11399841308594
317;1673427284.3263788;47.129715499999996;7.239292099999999;49.742000579833984;1673427284.3302739;-19.52007293701172;-36.02245330810547;-164.50650024414062
318;1673427284.5013843;47.1297159;7.2392921999999995;49.81100082397461;1673427284.503342;-44.726890563964844;-31.836477279663086;-167.900390625
319;1673427284.6768527;47.129714299999996;7.2392939;49.884002685546875;1673427284.6797862;-60.22931671142578;-12.283947944641113;175.53273010253906
320;1673427284.887865;47.1297103;7.2392961;49.92000198364258;1673427284.891768;-54.8193473815918;-5.101963043212891;177.38575744628906
321;1673427285.0825183;47.129704499999995;7.2392974;49.93000411987305;1673427285.0864568;-46.37276840209961;-4.644026756286621;-170.56158447265625
322;1673427285.2903237;47.1296975;7.2392973;49.93000411987305;1673427285.2932508;-49.33927917480469;-7.862483978271484;-160.42172241210938
323;1673427285.483141;47.1296895;7.2392949;49.93000411987305;1673427285.4870322;-44.11781692504883;-13.318982124328613;-150.55084228515625
324;1673427285.727446;47.1296805;7.2392902999999995;49.93800354003906;1673427285.7313495;-44.53664016723633;-24.568946838378906;-140.95420837402344
325;1673427285.912266;47.1296707;7.2392844;49.9630012512207;1673427285.9161677;-44.02128601074219;-29.70206642150879;-133.9825897216797
326;1673427286.1245832;47.1296599;7.2392771;49.99700164794922;1673427286.1275063;-40.02204895019531;-19.51496696472168;-133.89678955078125
327;1673427286.3149676;47.129649099999995;7.2392679;50.03400421142578;1673427286.3208249;-45.9312744140625;-4.3179931640625;-136.83712768554688
328;1673427286.5125737;47.1296384;7.239255699999999;50.06900405883789;1673427286.515499;-52.102481842041016;-4.458099842071533;-135.76535034179688
329;1673427286.691854;47.129627799999994;7.239240199999999;50.09400177001953;1673427286.6963007;-55.507469177246094;-3.7684013843536377;-135.98985290527344
330;1673427286.8838882;47.129616999999996;7.239221499999999;50.0890007019043;1673427286.8887675;-55.50090026855469;-6.214522838592529;-135.93914794921875
331;1673427287.0727847;47.129605999999995;7.2392001;50.06300354003906;1673427287.0758564;-48.82428741455078;-8.52869987487793;-137.02059936523438
332;1673427287.2959309;47.129594999999995;7.239177199999999;50.03300094604492;1673427287.299836;-46.233760833740234;-11.103280067443848;-137.62667846679688
333;1673427287.492235;47.1295837;7.2391535;50.01700210571289;1673427287.4981363;-48.85777282714844;-12.765680313110352;-138.11160278320312
334;1673427287.6844065;47.1295722;7.2391292;50.01300048828125;1673427287.6873164;-48.057037353515625;-13.014507293701172;-138.8070831298828
335;1673427287.884895;47.129560399999995;7.239104299999999;50.00800323486328;1673427287.8878238;-48.13036346435547;-13.543773651123047;-139.64186096191406
336;1673427288.0789773;47.129548299999996;7.239079299999999;50.00100326538086;1673427288.0809302;-47.17350387573242;-14.347698211669922;-140.23988342285156
337;1673427288.2757783;47.1295359;7.2390544;49.99800109863281;1673427288.2796867;-46.508235931396484;-15.37349796295166;-141.23995971679688
338;1673427288.4881415;47.1295232;7.2390295;50.00100326538086;1673427288.4910636;-47.514564514160156;-17.234304428100586;-141.72869873046875
339;1673427288.688067;47.1295102;7.2390051;50.012001037597656;1673427288.6900406;-46.62928009033203;-20.267288208007812;-143.75595092773438
340;1673427288.883978;47.1294967;7.2389814999999995;50.01100158691406;1673427288.8878832;-45.761322021484375;-17.689868927001953;-153.74424743652344
341;1673427289.0921419;47.129483;7.2389592;49.99800109863281;1673427289.0960686;-44.14924240112305;-11.82309627532959;-163.5717315673828
342;1673427289.2938542;47.1294693;7.2389385;49.987003326416016;1673427289.2967825;-43.05146789550781;-7.1180033683776855;-172.5193634033203
343;1673427289.5084183;47.1294557;7.2389193;49.974002838134766;1673427289.5113473;-43.40114212036133;-2.142136335372925;178.7260284423828
344;1673427289.701403;47.1294423;7.238901599999999;49.96200180053711;1673427289.7053063;-42.402793884277344;5.4629316329956055;169.33297729492188
345;1673427289.8952904;47.129428999999995;7.2388848999999995;49.9530029296875;1673427289.898217;-43.265228271484375;12.368659973144531;161.0081024169922
346;1673427290.0957482;47.129415699999996;7.2388692;49.94200134277344;1673427290.0987139;-40.3989143371582;17.78376007080078;151.8708038330078
347;1673427290.2890387;47.1294026;7.2388542;49.926002502441406;1673427290.291968;-35.24811553955078;22.116605758666992;142.4038543701172
348;1673427290.4834113;47.1293897;7.23884;49.90300369262695;1673427290.487335;-31.164901733398438;25.87052345275879;132.8502655029297
349;1673427290.691147;47.1293771;7.2388267;49.906002044677734;1673427290.695082;-32.88261795043945;22.179719924926758;127.29336547851562
350;1673427290.8818898;47.1293654;7.238815;49.935001373291016;1673427290.8838546;-33.60676193237305;-16.087459564208984;131.30715942382812
351;1673427291.0759177;47.1293559;7.2388067;49.95900344848633;1673427291.079814;-29.158178329467773;-32.31120681762695;137.36085510253906
352;1673427291.281099;47.1293492;7.2388017;49.97300338745117;1673427291.2840269;-12.297304153442383;-38.93800735473633;149.44207763671875
353;1673427291.4686134;47.1293454;7.2387996;49.98600387573242;1673427291.4725175;0.13215488195419312;-32.79609680175781;161.16835021972656
354;1673427291.6679707;47.1293441;7.2387993999999996;50.000003814697266;1673427291.6718843;-11.195822715759277;-26.954164505004883;174.3709259033203
355;1673427291.860453;47.1293442;7.2388007;50.01300048828125;1673427291.8643706;-19.52176856994629;-21.95583152770996;-179.33473205566406
356;1673427292.0687706;47.129344599999996;7.2388023;50.02400207519531;1673427292.071704;-37.75898361206055;-6.627051830291748;-170.5576934814453
357;1673427292.288605;47.1293442;7.238802499999999;50.047000885009766;1673427292.2925055;-56.851776123046875;3.684319019317627;-161.89901733398438
358;1673427292.4900427;47.1293417;7.2387991;50.03300094604492;1673427292.4929726;-57.23724365234375;1.7572426795959473;-148.82012939453125
359;1673427292.6995342;47.1293377;7.2387916;49.99700164794922;1673427292.7024748;-47.568946838378906;-1.775895118713379;-142.604248046875
360;1673427292.910657;47.129332999999995;7.2387809;49.97800064086914;1673427292.9135895;-43.60539627075195;-9.57371711730957;-138.5758514404297
361;1673427293.1017945;47.1293273;7.2387678;49.98400115966797;1673427293.104722;-51.987613677978516;-19.543733596801758;-139.54937744140625
362;1673427293.2944267;47.12932;7.238753;50.00400161743164;1673427293.2963789;-56.122032165527344;-19.89043617248535;-145.62881469726562
363;1673427293.4921875;47.1293108;7.2387374;50.012001037597656;1673427293.4952037;-52.40199661254883;-16.26341438293457;-149.33523559570312
364;1673427293.6789773;47.1293003;7.238721099999999;50.01100158691406;1673427293.6819074;-50.43775177001953;-17.224998474121094;-150.77622985839844
365;1673427293.8685503;47.1292888;7.2387049;50.022003173828125;1673427293.8724575;-51.881866455078125;-13.261167526245117;-160.37026977539062
366;1673427294.0874155;47.1292762;7.238689;50.03300094604492;1673427294.0913036;-52.25196838378906;-4.278107643127441;-170.78611755371094
367;1673427294.3049386;47.129262999999995;7.2386734;50.03400421142578;1673427294.307845;-53.78651809692383;0.4361843764781952;-178.0157928466797
368;1673427294.5150325;47.129248999999994;7.238658099999999;50.02400207519531;1673427294.5179613;-50.13493728637695;5.957735538482666;-178.62098693847656
369;1673427294.7054307;47.1292348;7.238642899999999;49.99400329589844;1673427294.7083611;-42.4897346496582;-13.912869453430176;-162.49298095703125
370;1673427294.9018717;47.1292206;7.2386284;49.983001708984375;1673427294.9067717;-36.329742431640625;-23.75914192199707;-154.5277862548828
371;1673427295.0996692;47.1292068;7.2386152;49.980003356933594;1673427295.1025949;-22.354307174682617;-29.614240646362305;-148.26805114746094
372;1673427295.287478;47.129193799999996;7.2386037;50.00300216674805;1673427295.289438;-9.835457801818848;-27.775428771972656;-147.81137084960938
373;1673427295.474806;47.1291823;7.238594;50.01900100708008;1673427295.4767575;1.7933565378189087;-25.109477996826172;-146.6836700439453
374;1673427295.6901248;47.1291728;7.2385861;50.03000259399414;1673427295.6920886;9.108546257019043;-23.871259689331055;-145.68914794921875
375;1673427295.879388;47.1291655;7.2385798999999995;50.0410041809082;1673427295.8813367;10.820244789123535;-22.915790557861328;-145.2624969482422
376;1673427296.0675092;47.129160399999996;7.2385753;50.048004150390625;1673427296.0704448;9.408489227294922;-22.84970474243164;-145.49810791015625
377;1673427296.2814069;47.129157;7.2385718;50.070003509521484;1673427296.284339;-6.547093391418457;-21.757360458374023;-141.95767211914062
378;1673427296.4957082;47.129154299999996;7.238568399999999;50.18700408935547;1673427296.499612;-36.81536102294922;-18.82142448425293;-132.07823181152344
379;1673427296.7004085;47.129151;7.2385626;50.37700271606445;1673427296.7033503;-32.09597396850586;-14.496221542358398;-132.3212890625
380;1673427296.9042468;47.1291473;7.2385546;50.64800262451172;1673427296.908149;-18.3445987701416;-6.4638671875;-135.28712463378906
381;1673427297.1032732;47.129144;7.2385454;50.993003845214844;1673427297.1071885;-36.02537536621094;-19.34324073791504;-136.69639587402344
382;1673427297.2861843;47.129139699999996;7.2385351;51.37300109863281;1673427297.2891126;-47.775936126708984;-31.993160247802734;-137.5435791015625
383;1673427297.4934359;47.1291333;7.238524399999999;51.73400115966797;1673427297.4963536;-43.12893295288086;-27.994518280029297;-140.5840301513672
384;1673427297.786979;47.129125599999995;7.2385133999999995;52.095001220703125;1673427297.7889323;-42.64714050292969;-28.227956771850586;-139.4667510986328
385;1673427297.971357;47.1291167;7.2385022999999995;52.45100402832031;1673427297.9752617;-39.35105895996094;-25.964584350585938;-139.74256896972656
386;1673427298.172238;47.129107;7.2384908999999995;52.80500411987305;1673427298.174187;-37.473453521728516;-24.53154182434082;-139.2252960205078
387;1673427298.34433;47.1290968;7.238479399999999;53.15700149536133;1673427298.3462873;-35.12104797363281;-22.874536514282227;-138.5990447998047
388;1673427298.5081387;47.1290863;7.2384676;53.51100158691406;1673427298.512066;-33.18790817260742;-21.999561309814453;-137.7691192626953
389;1673427298.7128084;47.1290757;7.2384555;53.868003845214844;1673427298.7167118;-32.088836669921875;-21.121936798095703;-137.26174926757812
390;1673427298.8968713;47.1290653;7.2384431;54.23200225830078;1673427298.899798;-31.124971389770508;-20.84854507446289;-136.76478576660156
391;1673427299.084314;47.129055;7.2384305;54.60200119018555;1673427299.08822;-30.554611206054688;-20.89810562133789;-136.5651092529297
392;1673427299.2978292;47.1290449;7.238417699999999;54.97500228881836;1673427299.300752;-30.500802993774414;-20.947664260864258;-136.5481414794922
393;1673427299.495614;47.129034999999995;7.238404699999999;55.353004455566406;1673427299.4985816;-30.527563095092773;-21.44698143005371;-136.59121704101562
394;1673427299.701637;47.1290252;7.238391699999999;55.733001708984375;1673427299.704565;-30.642908096313477;-21.733013153076172;-136.6896209716797
395;1673427299.9043884;47.129015599999995;7.2383786;56.1140022277832;1673427299.907307;-30.822689056396484;-22.15473747253418;-136.77354431152344
396;1673427300.1673427;47.129006;7.2383655;56.49100112915039;1673427300.1692724;-30.977439880371094;-22.459028244018555;-136.81326293945312
397;1673427300.343769;47.1289965;7.2383524999999995;56.87300109863281;1673427300.345723;-31.358478546142578;-22.637964248657227;-136.8706512451172
398;1673427300.5401416;47.1289869;7.2383394999999995;57.25700378417969;1673427300.5430732;-31.423250198364258;-22.732376098632812;-136.93417358398438
399;1673427300.7242763;47.128977299999995;7.238326499999999;57.6410026550293;1673427300.7281823;-31.64422035217285;-22.732282638549805;-136.95870971679688
400;1673427300.910004;47.1289677;7.238313499999999;58.025001525878906;1673427300.911958;-31.537870407104492;-22.73077392578125;-136.97828674316406
401;1673427301.0938807;47.1289581;7.238300499999999;58.40500259399414;1673427301.0968084;-31.695276260375977;-22.627079010009766;-136.9994659423828
402;1673427301.276511;47.1289485;7.238287499999999;58.78400421142578;1673427301.2794433;-31.746566772460938;-22.511411666870117;-137.01174926757812
403;1673427301.4770367;47.1289388;7.238274499999999;59.16800308227539;1673427301.4858382;-31.693069458007812;-22.50630760192871;-136.99559020996094
404;1673427301.7069676;47.1289291;7.238261499999999;59.55500411987305;1673427301.7128694;-31.552852630615234;-22.48478126525879;-137.00428771972656
405;1673427301.9128351;47.1289194;7.2382485;59.94400405883789;1673427301.9148064;-31.769325256347656;-22.388429641723633;-136.96469116210938
406;1673427302.1228714;47.1289097;7.2382354;60.33200454711914;1673427302.124818;-31.80876350402832;-22.396493911743164;-136.9811248779297
407;1673427302.3410053;47.128900099999996;7.238222299999999;60.71400451660156;1673427302.3429258;-31.666250228881836;-22.375268936157227;-136.9783172607422
408;1673427302.525272;47.128890399999996;7.2382092;61.095001220703125;1673427302.528211;-31.8297176361084;-22.35717010498047;-136.96963500976562
409;1673427302.721916;47.128880699999996;7.238195999999999;61.47500228881836;1673427302.724854;-31.806177139282227;-22.524240493774414;-136.99307250976562
410;1673427302.9075594;47.128871;7.2381829;61.85900115966797;1673427302.9104867;-31.922840118408203;-22.50629234313965;-137.00267028808594
411;1673427303.099693;47.128861199999996;7.238169699999999;62.24400329589844;1673427303.1026216;-31.95439910888672;-22.441688537597656;-136.99346923828125
412;1673427303.315046;47.128851499999996;7.2381565;62.630001068115234;1673427303.3189516;-31.942201614379883;-22.5681095123291;-136.96829223632812
413;1673427303.4967961;47.128841699999995;7.2381432;63.01400375366211;1673427303.5007012;-32.024147033691406;-22.372047424316406;-137.0058135986328
414;1673427303.6961095;47.128831899999994;7.23813;63.39800262451172;1673427303.6980634;-31.995800018310547;-22.377609252929688;-136.9943084716797
415;1673427303.907328;47.128822199999995;7.2381167;63.77900314331055;1673427303.9112325;-31.850406646728516;-22.460031509399414;-137.0005340576172
416;1673427304.107661;47.1288124;7.2381034;64.16400146484375;1673427304.1115878;-31.98923683166504;-22.485082626342773;-136.9632110595703
417;1673427304.316538;47.1288025;7.2380901;64.5530014038086;1673427304.321381;-32.11417770385742;-22.36795997619629;-136.9523162841797
418;1673427304.510726;47.1287927;7.2380768;64.93900299072266;1673427304.512678;-32.10812759399414;-22.33574676513672;-136.9677276611328
419;1673427304.7020807;47.1287829;7.2380634;65.32600402832031;1673427304.7040336;-32.04524612426758;-22.235544204711914;-137.00390625
