;pos_time;latitude;longitude;altitude;alt_time;pitch;roll;yaw
0;1673427757.6893497;47.1306425;7.2406196;-0.009000000543892384;1673427757.7078943;0.5188738107681274;0.19776538014411926;90.08392333984375
1;1673427757.8756063;47.1306425;7.2406196;-0.010000000707805157;1673427757.8961012;0.26343661546707153;0.18075475096702576;90.21685028076172
2;1673427758.0794852;47.1306425;7.2406196;-0.012000000104308128;1673427758.102924;0.22422967851161957;0.25902509689331055;90.13654327392578
3;1673427758.2864187;47.1306425;7.2406197;-0.014000000432133675;1673427758.3079042;-0.07746385037899017;0.3604659140110016;90.07077026367188
4;1673427758.4909892;47.1306425;7.240619799999999;-0.015000000596046448;1673427758.5124466;0.01618192158639431;0.07199244946241379;90.27831268310547
5;1673427758.6924982;47.1306425;7.240619799999999;-0.01600000075995922;1673427758.7159157;0.1740984469652176;0.35960257053375244;90.0475082397461
6;1673427758.8947148;47.1306425;7.240619799999999;-0.01900000125169754;1673427758.9201007;0.24638041853904724;0.04979206994175911;90.13929748535156
7;1673427759.096228;47.1306425;7.2406197;-0.021000001579523087;1673427759.1187806;0.2494795322418213;0.2546583414077759;90.01278686523438
8;1673427759.2925138;47.1306425;7.2406197;-0.018000001087784767;1673427759.3167133;-0.0606694258749485;0.08916988968849182;90.02425384521484
9;1673427759.501127;47.1306425;7.240619799999999;0.004000000189989805;1673427759.525527;-0.11689841747283936;0.5167521834373474;90.18750762939453
10;1673427759.7133303;47.1306425;7.2406198999999996;0.009000000543892384;1673427759.7369547;-0.09440330415964127;0.6796560883522034;90.027587890625
11;1673427759.9244099;47.1306425;7.2406198999999996;0.013000000268220901;1673427759.9489415;-0.08221007138490677;0.421237587928772;90.15180206298828
12;1673427760.0910153;47.1306425;7.24062;0.014000000432133675;1673427760.1115108;0.11406775563955307;0.6194756627082825;90.1230697631836
13;1673427760.281702;47.1306424;7.24062;0.013000000268220901;1673427760.303175;0.11789143085479736;0.5250202417373657;90.19353485107422
14;1673427760.489762;47.1306424;7.24062;0.013000000268220901;1673427760.5131857;0.038850411772727966;0.6632354259490967;90.24807739257812
15;1673427760.70424;47.1306424;7.2406198999999996;0.01100000087171793;1673427760.7266898;-0.061416592448949814;1.0927079916000366;90.11150360107422
16;1673427760.9040647;47.1306424;7.2406198999999996;0.009000000543892384;1673427760.9314969;0.1102561503648758;0.6808682680130005;89.98068237304688
17;1673427761.116541;47.1306424;7.240619799999999;0.0;1673427761.1399574;0.0002892958582378924;0.5913776159286499;90.0945053100586
18;1673427761.3165963;47.1306424;7.240619799999999;0.0;1673427761.3361163;-0.012654632329940796;0.846949577331543;90.18759155273438
19;1673427761.5081065;47.1306424;7.2406198999999996;-0.0010000000474974513;1673427761.5276272;0.010049715638160706;0.6705491542816162;90.36505126953125
20;1673427761.710259;47.1306423;7.24062;-0.0020000000949949026;1673427761.73369;-0.14364860951900482;0.5055941343307495;90.10747528076172
21;1673427761.9208598;47.1306423;7.24062;-0.0020000000949949026;1673427761.9472187;0.04351833090186119;0.23082643747329712;90.05027770996094
22;1673427762.1216865;47.1306423;7.24062;0.003000000026077032;1673427762.1451163;0.01529248058795929;0.010887280106544495;90.00079345703125
23;1673427762.3152597;47.1306423;7.24062;0.006000000052154064;1673427762.3435633;0.01854703016579151;0.28284117579460144;90.22537231445312
24;1673427762.5223184;47.1306423;7.24062;0.005000000353902578;1673427762.5418432;-0.1486479640007019;0.18182404339313507;90.16944885253906
25;1673427762.712074;47.1306423;7.24062;0.004000000189989805;1673427762.7335715;-0.1592092365026474;0.3114648461341858;90.19336700439453
26;1673427762.9118123;47.1306422;7.24062;0.004000000189989805;1673427762.931333;0.135293111205101;0.19875936210155487;89.6231689453125
27;1673427763.1188765;47.130642099999996;7.2406201;0.007000000216066837;1673427763.139359;0.6435146331787109;-0.6397491693496704;88.71052551269531
28;1673427763.306532;47.130641999999995;7.2406201999999995;0.015000000596046448;1673427763.3270278;1.7084026336669922;-2.7415661811828613;89.6976547241211
29;1673427763.5079665;47.1306418;7.2406204;0.02800000086426735;1673427763.5323815;5.320981979370117;-8.471826553344727;90.53003692626953
30;1673427763.702485;47.1306417;7.2406206;0.06300000101327896;1673427763.7270486;7.109575271606445;-11.680950164794922;90.21614074707031
31;1673427763.9079072;47.1306416;7.2406206;0.1120000034570694;1673427763.9303565;5.771213531494141;-5.82943058013916;90.44252014160156
32;1673427764.1042871;47.1306417;7.2406206;0.1770000010728836;1673427764.1277127;6.56090784072876;-8.228963851928711;90.43109893798828
33;1673427764.299674;47.1306418;7.2406204999999995;0.2540000081062317;1673427764.3221126;6.9233880043029785;-11.050820350646973;90.22982025146484
34;1673427764.4981706;47.1306418;7.2406204999999995;0.34800001978874207;1673427764.51877;7.260961055755615;-7.260523319244385;90.50466918945312
35;1673427764.699669;47.1306418;7.2406204;0.45100003480911255;1673427764.721142;6.777299880981445;-7.1559600830078125;91.3785629272461
36;1673427764.9035842;47.1306419;7.2406203;0.5680000185966492;1673427764.9240754;6.4193830490112305;-10.662659645080566;91.99813842773438
37;1673427765.1052399;47.130641999999995;7.2406201;0.7010000348091125;1673427765.1267126;5.360537528991699;-6.11306619644165;92.31584167480469
38;1673427765.303666;47.130642099999996;7.2406198999999996;0.8450000286102295;1673427765.3251374;5.241452693939209;-5.918126106262207;92.25153350830078
39;1673427765.5042317;47.1306423;7.2406197;1.0;1673427765.5267942;5.724180221557617;-10.287566184997559;91.99579620361328
40;1673427765.7177505;47.1306424;7.2406196;1.1750000715255737;1673427765.7362933;6.607252597808838;-7.581782817840576;92.25041961669922
41;1673427765.9136841;47.1306425;7.2406196;1.3570001125335693;1673427765.9342968;6.424171447753906;-5.202507495880127;93.16207885742188
42;1673427766.119953;47.130642599999995;7.2406196;1.540000081062317;1673427766.1511843;6.483847141265869;-9.075090408325195;93.69418334960938
43;1673427766.324325;47.130642699999996;7.2406197;1.7230000495910645;1673427766.351727;5.756383419036865;-6.911840915679932;92.88273620605469
44;1673427766.5559084;47.1306428;7.2406197;1.9070000648498535;1673427766.5789032;5.685795307159424;-4.655364513397217;93.02153015136719
45;1673427766.737094;47.1306429;7.2406197;2.0940001010894775;1673427766.7556665;5.8299970626831055;-8.248479843139648;93.09526062011719
46;1673427766.909208;47.1306429;7.2406196;2.2840001583099365;1673427766.9306798;6.652098178863525;-8.454825401306152;93.31156921386719
47;1673427767.0959413;47.1306428;7.2406196;2.4790000915527344;1673427767.115485;6.677527904510498;-5.279357433319092;93.71522521972656
48;1673427767.2879932;47.130642699999996;7.2406197;2.6720001697540283;1673427767.3117104;6.961478233337402;-7.9970316886901855;94.07052612304688
49;1673427767.4833848;47.130642699999996;7.2406197;2.866000175476074;1673427767.5059712;6.68771505355835;-8.570123672485352;94.06828308105469
50;1673427767.6762261;47.130642699999996;7.240619799999999;3.057000160217285;1673427767.6986716;6.255908489227295;-4.772536277770996;94.03687286376953
51;1673427767.8775046;47.130642699999996;7.240619799999999;3.248000144958496;1673427767.898991;6.070513725280762;-6.790134429931641;94.12527465820312
52;1673427768.0747702;47.130642699999996;7.2406197;3.44700026512146;1673427768.1003041;5.964457035064697;-9.07209300994873;94.29169464111328
53;1673427768.280906;47.1306424;7.2406197;3.6500000953674316;1673427768.304477;6.487174034118652;-5.838468074798584;94.424560546875
54;1673427768.4776118;47.1306422;7.2406197;3.8520002365112305;1673427768.501072;6.942792892456055;-6.435118198394775;94.42314910888672
55;1673427768.6813817;47.130642099999996;7.240619799999999;4.055000305175781;1673427768.7039955;6.949825763702393;-10.62469482421875;93.97882080078125
56;1673427768.9160883;47.130641999999995;7.2406198999999996;4.258000373840332;1673427768.9397264;6.747399806976318;-6.900723934173584;93.67765808105469
57;1673427769.120068;47.130642099999996;7.24062;4.455000400543213;1673427769.1436143;6.422537326812744;-6.564976215362549;93.8222427368164
58;1673427769.309999;47.130642099999996;7.24062;4.653000354766846;1673427769.3305035;6.127321243286133;-9.480496406555176;94.03453826904297
59;1673427769.516017;47.130642099999996;7.2406198999999996;4.854000091552734;1673427769.5393786;6.306610584259033;-8.174333572387695;94.06732940673828
60;1673427769.715285;47.130641999999995;7.2406198999999996;5.054000377655029;1673427769.7455406;6.5061116218566895;-5.3004984855651855;94.07333374023438
61;1673427769.9152412;47.130641999999995;7.240619799999999;5.25600004196167;1673427769.938663;6.535979747772217;-9.359381675720215;93.92662048339844
62;1673427770.108062;47.130641999999995;7.240619799999999;5.457000255584717;1673427770.1334298;6.80307149887085;-8.439716339111328;93.80584716796875
63;1673427770.317771;47.130642099999996;7.240619799999999;5.6570000648498535;1673427770.3411996;6.659311771392822;-4.916672229766846;93.94459533691406
64;1673427770.5280943;47.1306422;7.240619799999999;5.861000061035156;1673427770.5446854;6.115669250488281;-7.892858505249023;94.2685546875
65;1673427770.6975372;47.1306422;7.2406197;6.066000461578369;1673427770.718193;5.905684947967529;-8.941272735595703;94.38214111328125
66;1673427770.9354937;47.130642099999996;7.2406197;6.273000240325928;1673427770.9596467;5.588900089263916;-5.00090217590332;94.10315704345703
67;1673427771.1389542;47.130641999999995;7.2406196;6.4800004959106445;1673427771.159448;5.5307393074035645;-8.212974548339844;93.74681854248047
68;1673427771.3325982;47.1306419;7.2406196;6.682000160217285;1673427771.3512943;6.227304458618164;-10.487508773803711;93.90270233154297
69;1673427771.5274386;47.1306419;7.2406197;6.883000373840332;1673427771.551839;6.885533332824707;-6.231297969818115;94.16666412353516
70;1673427771.7377183;47.130641999999995;7.240619799999999;7.079000473022461;1673427771.7601707;6.673138618469238;-6.428909778594971;94.35897827148438
71;1673427771.9448853;47.130641999999995;7.240619799999999;7.276000499725342;1673427771.963446;6.468710899353027;-9.34703540802002;94.43916320800781
72;1673427772.114126;47.130641999999995;7.2406198999999996;7.4760003089904785;1673427772.1319919;6.223702430725098;-6.66692590713501;94.15571594238281
73;1673427772.2957265;47.1306418;7.24062;7.678000450134277;1673427772.318196;5.876763820648193;-6.284120559692383;93.73588562011719
74;1673427772.4846065;47.1306418;7.24062;7.878000259399414;1673427772.5080395;6.0864715576171875;-10.35560417175293;93.71664428710938
75;1673427772.6802073;47.1306418;7.24062;8.076000213623047;1673427772.703818;6.468642234802246;-8.075502395629883;94.25621032714844
76;1673427772.8801126;47.1306419;7.24062;8.271000862121582;1673427772.9027188;6.734644889831543;-5.243871212005615;94.21690368652344
77;1673427773.116836;47.130641999999995;7.2406201;8.4660005569458;1673427773.139255;6.752694129943848;-8.585607528686523;93.90093231201172
78;1673427773.3282778;47.130641999999995;7.2406201;8.664999961853027;1673427773.360485;6.579033374786377;-8.71902084350586;93.65692138671875
79;1673427773.5607972;47.1306419;7.2406201999999995;8.869000434875488;1673427773.5832965;5.869024753570557;-5.713167667388916;93.71836853027344
80;1673427773.7488248;47.1306419;7.2406201999999995;9.076000213623047;1673427773.7714746;6.087042331695557;-8.378007888793945;93.90961456298828
81;1673427773.9463308;47.130641999999995;7.2406201999999995;9.279000282287598;1673427773.9659348;5.96129846572876;-9.746084213256836;94.27384185791016
82;1673427774.137917;47.130641999999995;7.2406201999999995;9.482000350952148;1673427774.1594071;6.196565628051758;-5.499997615814209;94.33074188232422
83;1673427774.3206909;47.130642099999996;7.2406201999999995;9.680000305175781;1673427774.343306;6.427616596221924;-6.602542877197266;94.10553741455078
84;1673427774.515029;47.130642099999996;7.2406201999999995;9.878000259399414;1673427774.544586;6.782785415649414;-9.809316635131836;93.82215118408203
85;1673427774.7465713;47.1306419;7.2406203;10.077000617980957;1673427774.7797632;6.8762078285217285;-6.508637428283691;93.90117645263672
86;1673427774.9666843;47.1306419;7.2406203;10.301000595092773;1673427775.0136871;6.383571147918701;-7.213587760925293;94.0144271850586
87;1673427775.172198;47.130641999999995;7.2406203;10.62600040435791;1673427775.1903474;6.6558613777160645;-12.179056167602539;94.21270751953125
88;1673427775.3328745;47.1306424;7.2406201999999995;11.00100040435791;1673427775.351427;6.780180931091309;-10.278836250305176;94.41593933105469
89;1673427775.5356214;47.1306429;7.24062;11.386000633239746;1673427775.5590456;6.11538028717041;-4.792319297790527;94.12316131591797
90;1673427775.7323766;47.1306434;7.240619799999999;11.7760009765625;1673427775.7548578;5.832662582397461;-6.436716556549072;93.69092559814453
91;1673427775.9520295;47.1306437;7.2406197;12.17400074005127;1673427775.9764478;5.953636646270752;-7.695660591125488;93.69993591308594
92;1673427776.1584647;47.1306437;7.2406197;12.577000617980957;1673427776.1791818;5.94350528717041;-3.1931824684143066;93.99830627441406
93;1673427776.3478658;47.1306437;7.2406197;12.981000900268555;1673427776.3664103;5.568788051605225;-5.493466854095459;94.1219711303711
94;1673427776.5427659;47.1306436;7.2406197;13.386000633239746;1673427776.5631952;5.32463264465332;-8.08228874206543;94.05558013916016
95;1673427776.7642221;47.1306435;7.2406197;13.792000770568848;1673427776.781793;5.628172874450684;-4.551178932189941;93.93608856201172
96;1673427776.989329;47.130643299999996;7.240619799999999;14.197000503540039;1673427777.0068972;5.7086968421936035;-6.04963493347168;93.80519104003906
97;1673427777.17662;47.1306431;7.240619799999999;14.60200023651123;1673427777.1932573;6.461514472961426;-10.046029090881348;93.74954986572266
98;1673427777.3950815;47.1306428;7.240619799999999;15.009000778198242;1673427777.4204614;6.62916898727417;-7.398325443267822;93.95172119140625
99;1673427777.5746765;47.130642599999995;7.240619799999999;15.419000625610352;1673427777.5982914;6.684802055358887;-6.272693157196045;94.049560546875
100;1673427777.779798;47.1306425;7.240619799999999;15.827000617980957;1673427777.7964232;6.390485763549805;-9.890220642089844;93.8830795288086
101;1673427777.968713;47.130642599999995;7.240619799999999;16.238000869750977;1673427777.9858756;6.31287145614624;-8.052846908569336;93.94446563720703
102;1673427778.1448236;47.130642599999995;7.2406197;16.647001266479492;1673427778.1623974;6.202875137329102;-5.106565952301025;93.99275207519531
103;1673427778.330789;47.130642699999996;7.2406197;17.06100082397461;1673427778.3551946;6.142998218536377;-8.118865013122559;93.8521957397461
104;1673427778.5331278;47.130642699999996;7.2406197;17.475000381469727;1673427778.555582;6.174488067626953;-8.745176315307617;93.7882308959961
105;1673427778.767538;47.130642599999995;7.2406196;17.88800048828125;1673427778.7868006;5.882686138153076;-5.269124984741211;93.99714660644531
106;1673427778.9942498;47.130642599999995;7.2406196;18.303001403808594;1673427779.0118284;5.895394802093506;-7.369781494140625;94.04740142822266
107;1673427779.1678479;47.130642599999995;7.2406196;18.71500015258789;1673427779.1928477;5.892307758331299;-9.586501121520996;93.9285659790039
108;1673427779.3536866;47.130642599999995;7.2406196;19.123001098632812;1673427779.3781085;5.942437171936035;-5.349309921264648;93.96183776855469
109;1673427779.5468807;47.130642599999995;7.2406196;19.529001235961914;1673427779.5673757;5.8136396408081055;-6.380992889404297;93.92230224609375
110;1673427779.7411444;47.130642599999995;7.2406196;19.941001892089844;1673427779.7626057;6.089136123657227;-9.639008522033691;93.83499908447266
111;1673427779.931211;47.1306425;7.2406196;20.354000091552734;1673427779.9536757;6.2635040283203125;-6.355356216430664;94.00438690185547
112;1673427780.1295836;47.1306425;7.2406196;20.761001586914062;1673427780.153;6.340457439422607;-5.912187576293945;94.06917572021484
113;1673427780.3211381;47.1306425;7.2406196;21.165000915527344;1673427780.34261;6.146956920623779;-9.63869571685791;93.96002960205078
114;1673427780.5248287;47.1306425;7.2406197;21.57000160217285;1673427780.547266;6.263095378875732;-7.332577228546143;93.92945861816406
115;1673427780.729169;47.130642599999995;7.2406197;21.970001220703125;1673427780.7516153;6.22132682800293;-5.121823787689209;94.02230834960938
116;1673427780.9401252;47.1306428;7.2406197;22.37200164794922;1673427780.9586647;6.110857009887695;-8.565494537353516;93.96475219726562
117;1673427781.1486015;47.1306428;7.2406197;22.77400016784668;1673427781.1710343;6.233757495880127;-7.937223434448242;94.07000732421875
118;1673427781.3505359;47.1306428;7.2406196;23.179000854492188;1673427781.374045;6.191296577453613;-5.088920593261719;93.8744888305664
119;1673427781.5649495;47.130642699999996;7.2406196;23.584001541137695;1673427781.5918384;5.956700325012207;-8.315420150756836;93.89366149902344
120;1673427781.7679684;47.1306428;7.2406196;23.985000610351562;1673427781.7875073;6.209230899810791;-8.682829856872559;93.93152618408203
121;1673427781.9708517;47.1306428;7.2406196;24.386001586914062;1673427781.9894028;6.028041839599609;-5.2441325187683105;93.9403305053711
122;1673427782.1637738;47.1306428;7.240619499999999;24.783000946044922;1673427782.1891592;6.075627326965332;-6.583468914031982;93.778564453125
123;1673427782.3563666;47.130642699999996;7.240619499999999;25.187000274658203;1673427782.3779788;6.038056373596191;-9.764813423156738;93.71383666992188
124;1673427782.5480542;47.130642699999996;7.240619499999999;25.59200096130371;1673427782.5675597;5.888230323791504;-6.036991119384766;93.91185760498047
125;1673427782.7336347;47.130642599999995;7.240619499999999;25.996000289916992;1673427782.7570884;5.9635396003723145;-6.331052780151367;94.07731628417969
126;1673427782.9281385;47.130642699999996;7.240619499999999;26.39200210571289;1673427782.950751;6.091198444366455;-9.706358909606934;93.9737777709961
127;1673427783.1334357;47.130642699999996;7.2406196;26.786001205444336;1673427783.1578515;6.258195877075195;-7.094613552093506;93.92610931396484
128;1673427783.339491;47.1306428;7.2406197;27.180002212524414;1673427783.359997;6.211226940155029;-5.278504371643066;93.96194458007812
129;1673427783.5514543;47.1306429;7.2406197;27.58100128173828;1673427783.575853;6.299540996551514;-8.123291969299316;93.98312377929688
130;1673427783.7213879;47.1306429;7.2406197;27.988000869750977;1673427783.741896;6.229953765869141;-8.444846153259277;93.93556213378906
131;1673427783.9041798;47.1306428;7.2406197;28.39200210571289;1673427783.9256575;6.2622857093811035;-4.617903709411621;93.90572357177734
132;1673427784.0967708;47.1306428;7.2406197;28.79400062561035;1673427784.1192138;6.216775417327881;-7.347583293914795;93.89789581298828
133;1673427784.3640873;47.1306428;7.2406197;29.19700050354004;1673427784.3845866;6.234288215637207;-9.448746681213379;93.74540710449219
134;1673427784.5386443;47.1306428;7.2406197;29.604001998901367;1673427784.5591383;6.259561538696289;-5.712472438812256;93.97319793701172
135;1673427784.721814;47.1306428;7.2406197;30.005001068115234;1673427784.7432864;6.202672481536865;-6.047390460968018;94.06914520263672
136;1673427784.9120722;47.1306428;7.2406197;30.410001754760742;1673427784.9354973;6.020378112792969;-9.15750789642334;93.93567657470703
137;1673427785.1054907;47.130642699999996;7.2406197;30.81300163269043;1673427785.1289175;6.185558319091797;-6.733542442321777;93.90190124511719
138;1673427785.3252041;47.1306425;7.2406197;31.21200180053711;1673427785.3467927;5.973822116851807;-5.790841579437256;93.94414520263672
139;1673427785.5132697;47.1306425;7.2406197;31.610000610351562;1673427785.536683;6.113351345062256;-9.517247200012207;93.9830551147461
140;1673427785.70667;47.1306425;7.2406197;32.00699996948242;1673427785.7281306;6.396749973297119;-7.52685022354126;94.05418395996094
141;1673427785.8990853;47.130642599999995;7.2406197;32.400001525878906;1673427785.9234712;6.27449369430542;-4.922407150268555;93.89242553710938
142;1673427786.111108;47.130642699999996;7.2406197;32.79800033569336;1673427786.1347017;6.179379940032959;-7.876805305480957;93.92852020263672
143;1673427786.3058598;47.130642599999995;7.2406197;33.19499969482422;1673427786.3283274;6.051238536834717;-8.89244270324707;93.97846984863281
144;1673427786.5080075;47.130642599999995;7.2406197;33.59300231933594;1673427786.531436;6.036203861236572;-5.054508686065674;94.02691650390625
145;1673427786.732983;47.1306425;7.240619799999999;33.99500274658203;1673427786.7564127;6.024728298187256;-8.005122184753418;93.92266082763672
146;1673427786.9315953;47.130642599999995;7.240619799999999;34.39500045776367;1673427786.9511003;6.1009955406188965;-9.260190963745117;93.83029174804688
147;1673427787.1463144;47.130642599999995;7.240619799999999;34.79500198364258;1673427787.1707149;6.240621566772461;-5.514920234680176;93.8410415649414
148;1673427787.3877847;47.130642699999996;7.240619799999999;35.19000244140625;1673427787.4108973;6.260064601898193;-6.246435642242432;93.88787841796875
149;1673427787.5803387;47.130642699999996;7.2406198999999996;35.59100341796875;1673427787.6033583;6.123482704162598;-9.731805801391602;93.79558563232422
150;1673427787.7680404;47.130642599999995;7.2406198999999996;35.99500274658203;1673427787.7904968;6.259711265563965;-6.092355728149414;93.85380554199219
151;1673427787.9664984;47.130642599999995;7.2406198999999996;36.4010009765625;1673427787.9881246;6.11822509765625;-5.907429218292236;93.9155044555664
152;1673427788.1503847;47.130642599999995;7.2406198999999996;36.80500030517578;1673427788.1757643;6.148332595825195;-9.656020164489746;93.94122314453125
153;1673427788.344976;47.130642699999996;7.2406198999999996;37.207000732421875;1673427788.3665588;6.219666004180908;-7.455653190612793;94.0460205078125
154;1673427788.5448027;47.130642699999996;7.2406198999999996;37.60300064086914;1673427788.5682268;6.196141719818115;-4.959646224975586;93.98066711425781
155;1673427788.7519548;47.1306428;7.2406198999999996;38.005001068115234;1673427788.7706327;6.204451084136963;-8.026946067810059;93.76168823242188
156;1673427788.9515104;47.1306428;7.2406198999999996;38.41200256347656;1673427788.971078;6.22314453125;-8.852823257446289;93.82856750488281
157;1673427789.1554825;47.130642699999996;7.2406198999999996;38.819000244140625;1673427789.1798835;6.242475509643555;-4.754891395568848;94.06610107421875
158;1673427789.3624213;47.130642699999996;7.2406198999999996;39.22100067138672;1673427789.3848681;6.125665187835693;-7.381721496582031;94.11383056640625
159;1673427789.552573;47.130642699999996;7.2406198999999996;39.624000549316406;1673427789.5702424;5.972468852996826;-9.426838874816895;93.92375183105469
160;1673427789.7351372;47.130642699999996;7.2406198999999996;40.025001525878906;1673427789.7566102;5.9914631843566895;-5.243108749389648;93.91790008544922
161;1673427789.9315348;47.130642699999996;7.240619799999999;40.419002532958984;1673427789.954967;5.904882431030273;-6.4827680587768555;93.84358215332031
162;1673427790.1179237;47.130642699999996;7.240619799999999;40.81500244140625;1673427790.1403728;6.1427001953125;-9.39331340789795;93.89103698730469
163;1673427790.3371403;47.130642599999995;7.240619799999999;41.2140007019043;1673427790.3615437;6.318094730377197;-5.99303674697876;94.08477020263672
164;1673427790.5324929;47.130642599999995;7.240619799999999;41.612003326416016;1673427790.5559173;6.119183540344238;-5.852502346038818;94.04008483886719
165;1673427790.7320204;47.130642599999995;7.240619799999999;42.00700378417969;1673427790.7593968;6.207789897918701;-9.445134162902832;93.83760070800781
166;1673427790.935233;47.130642699999996;7.2406198999999996;42.40400314331055;1673427790.9596324;6.195181369781494;-7.335482120513916;93.87315368652344
167;1673427791.1159785;47.130642699999996;7.2406198999999996;42.797000885009766;1673427791.1384296;6.220340728759766;-4.84160041809082;94.00482940673828
168;1673427791.3045228;47.1306428;7.2406198999999996;43.19700241088867;1673427791.3279657;6.181075572967529;-8.51890754699707;93.83172607421875
169;1673427791.521791;47.1306428;7.240619799999999;43.599002838134766;1673427791.5463138;6.188155174255371;-8.060400009155273;93.81243133544922
170;1673427791.738112;47.130642699999996;7.240619799999999;44.00600051879883;1673427791.7654405;6.239841461181641;-5.021470546722412;93.8967056274414
171;1673427791.9491565;47.1306428;7.2406197;44.410003662109375;1673427791.9696524;6.054713726043701;-8.205626487731934;94.1115493774414
172;1673427792.1551783;47.1306428;7.2406197;44.816001892089844;1673427792.1727476;6.121025085449219;-8.143373489379883;94.1065902709961
173;1673427792.3482502;47.1306428;7.2406197;45.21900177001953;1673427792.3708546;6.011684417724609;-4.846065521240234;94.01885223388672
174;1673427792.549286;47.1306428;7.2406196;45.6150016784668;1673427792.5708046;6.060800075531006;-6.587372779846191;93.96955108642578
175;1673427792.779524;47.130642699999996;7.2406196;46.01400375366211;1673427792.8031971;6.015254497528076;-9.409797668457031;93.88253784179688
176;1673427792.9788957;47.130642599999995;7.2406196;46.413002014160156;1673427793.0075028;6.344547748565674;-5.667125701904297;93.9738998413086
177;1673427793.1892538;47.1306425;7.2406196;46.81100082397461;1673427793.2089887;5.980683326721191;-6.7103447914123535;93.93740844726562
178;1673427793.3556972;47.130642599999995;7.2406196;47.208003997802734;1673427793.380112;6.023800849914551;-9.878241539001465;93.82683563232422
179;1673427793.586543;47.130642599999995;7.2406196;47.60700225830078;1673427793.6060474;5.975775241851807;-6.3822174072265625;93.88047790527344
180;1673427793.7930634;47.130642699999996;7.2406196;47.99800109863281;1673427793.8157573;5.963970184326172;-5.749810218811035;94.17915344238281
181;1673427793.9869819;47.1306428;7.2406196;48.35600280761719;1673427794.023029;6.033946990966797;-8.897483825683594;94.27339172363281
182;1673427794.194857;47.130642699999996;7.2406197;48.6670036315918;1673427794.2144654;6.193543910980225;-6.3167829513549805;94.31502532958984
183;1673427794.3890917;47.1306425;7.240619799999999;48.93000411987305;1673427794.4076388;6.102895736694336;-4.459048748016357;94.37875366210938
184;1673427794.574003;47.1306424;7.240619799999999;49.14800262451172;1673427794.5956333;6.236508369445801;-9.0403470993042;94.183349609375
185;1673427794.7872393;47.1306422;7.2406198999999996;49.327003479003906;1673427794.8058;9.970242500305176;-4.670105457305908;94.1435775756836
186;1673427794.9700944;47.1306417;7.2406196;49.47700119018555;1673427794.990944;26.29100227355957;18.891918182373047;102.07676696777344
187;1673427795.162742;47.130640199999995;7.2406175;49.60600280761719;1673427795.1910956;32.788673400878906;40.99784469604492;113.43698120117188
188;1673427795.3636496;47.130636599999995;7.2406121;49.7140007019043;1673427795.3851218;31.71063995361328;53.37081527709961;121.25350189208984
189;1673427795.556521;47.1306302;7.2406028;49.7910041809082;1673427795.579116;17.729772567749023;58.45457077026367;129.72547912597656
190;1673427795.7521367;47.1306212;7.24059;49.84700393676758;1673427795.7746751;-0.3562154173851013;57.17821502685547;142.17556762695312
191;1673427795.9487348;47.1306102;7.240574499999999;49.88500213623047;1673427795.9731205;-16.95526885986328;50.84524154663086;152.69247436523438
192;1673427796.1658921;47.1305974;7.240557099999999;49.90700149536133;1673427796.1912894;-30.633766174316406;44.58009719848633;164.04383850097656
193;1673427796.4062552;47.130583099999996;7.2405382;49.91100311279297;1673427796.4293902;-42.260066986083984;41.408878326416016;176.17823791503906
194;1673427796.6073492;47.130567299999996;7.2405177;49.90400314331055;1673427796.6274474;-49.57987594604492;35.70378494262695;-170.51873779296875
195;1673427796.8035042;47.1305504;7.2404953999999995;49.87000274658203;1673427796.8281755;-49.0973014831543;25.76641845703125;-160.34490966796875
196;1673427796.9876857;47.1305328;7.2404718;49.80600357055664;1673427797.00916;-46.12012481689453;20.790983200073242;-155.30752563476562
197;1673427797.1874604;47.1305147;7.2404475999999995;49.74400329589844;1673427797.205094;-46.949462890625;16.708147048950195;-149.20323181152344
198;1673427797.3628135;47.130496199999996;7.2404227;49.691001892089844;1673427797.383328;-46.099334716796875;11.065110206604004;-141.2489776611328
199;1673427797.5575063;47.1304775;7.2403974;49.65800094604492;1673427797.578977;-46.22837448120117;8.866909980773926;-134.91583251953125
200;1673427797.7589104;47.1304589;7.2403717;49.64200210571289;1673427797.7813592;-47.043338775634766;2.1695995330810547;-128.6637725830078
201;1673427797.9576652;47.130440199999995;7.2403457;49.63300323486328;1673427797.9791389;-47.168582916259766;-0.32401058077812195;-130.42628479003906
202;1673427798.1373658;47.1304212;7.2403197;49.62800216674805;1673427798.1588283;-47.44175338745117;0.6330460906028748;-133.5088348388672
203;1673427798.3318703;47.130401899999995;7.240293899999999;49.62900161743164;1673427798.3553958;-47.65977096557617;1.705188512802124;-134.696044921875
204;1673427798.583189;47.1303822;7.2402682;49.63900375366211;1673427798.6156251;-48.28997802734375;3.217050790786743;-135.3477325439453
205;1673427798.7794328;47.130362299999994;7.240242599999999;49.656002044677734;1673427798.7971468;-48.03250503540039;4.689550399780273;-135.8314208984375
206;1673427798.9659853;47.130342399999996;7.2402169;49.66800308227539;1673427798.987558;-47.986541748046875;5.360002517700195;-135.8743133544922
207;1673427799.1623223;47.130322299999996;7.240190999999999;49.68700408935547;1673427799.1808658;-48.13192367553711;6.058868885040283;-136.0068817138672
208;1673427799.3634784;47.130302099999994;7.240164999999999;49.71200180053711;1673427799.3830335;-48.322723388671875;6.209465503692627;-135.86363220214844
209;1673427799.5385635;47.130282;7.240138699999999;49.737003326416016;1673427799.5619886;-48.84164810180664;6.2315192222595215;-135.71365356445312
210;1673427799.7240236;47.1302618;7.2401123;49.759002685546875;1673427799.7464557;-48.74772262573242;6.093822479248047;-135.5362091064453
211;1673427799.9161234;47.1302416;7.2400856;49.7760009765625;1673427799.9402523;-48.427791595458984;5.89043664932251;-135.35626220703125
212;1673427800.1163478;47.130221399999996;7.240058899999999;49.790000915527344;1673427800.1407888;-48.159549713134766;5.847585678100586;-135.31167602539062
213;1673427800.3158221;47.130201199999995;7.240031999999999;49.794002532958984;1673427800.3383217;-47.690757751464844;5.7758469581604;-135.21998596191406
214;1673427800.5117497;47.130181099999994;7.240005;49.801002502441406;1673427800.5368707;-47.63098907470703;5.7556986808776855;-135.24246215820312
215;1673427800.7122135;47.1301609;7.239978;49.81100082397461;1673427800.736181;-47.74152755737305;5.914636611938477;-135.26168823242188
216;1673427800.9245644;47.1301408;7.239950899999999;49.820003509521484;1673427800.9471517;-48.021690368652344;5.814729690551758;-135.1837921142578
217;1673427801.134439;47.1301207;7.2399238;49.83100128173828;1673427801.1549418;-48.20942687988281;5.816242218017578;-135.18377685546875
218;1673427801.332944;47.1301006;7.2398966;49.840003967285156;1673427801.3563678;-48.27793502807617;5.797417163848877;-135.17230224609375
219;1673427801.5342166;47.1300806;7.2398694;49.840003967285156;1673427801.556763;-47.890560150146484;5.6644086837768555;-135.1014862060547
220;1673427801.7478294;47.1300606;7.2398422;49.84400177001953;1673427801.7732067;-47.68014907836914;5.6127424240112305;-135.1252899169922
221;1673427801.9338021;47.1300406;7.239815;49.85000228881836;1673427801.956628;-47.9372673034668;5.713371753692627;-135.17555236816406
222;1673427802.1234374;47.130020699999996;7.2397877;49.85400390625;1673427802.1488132;-48.16472244262695;5.728521823883057;-135.17198181152344
223;1673427802.3328488;47.1300007;7.2397605;49.85400390625;1673427802.3592;-48.100772857666016;5.633998394012451;-135.1276397705078
224;1673427802.5438669;47.1299808;7.2397332;49.85100173950195;1673427802.5713108;-47.699283599853516;5.549107551574707;-135.11907958984375
225;1673427802.7540727;47.1299608;7.2397059;49.84800338745117;1673427802.7814012;-47.52460479736328;5.526729583740234;-135.1292266845703
226;1673427803.0039208;47.1299409;7.2396787;49.84600067138672;1673427803.0276046;-47.61964416503906;5.64488410949707;-135.1855926513672
227;1673427803.2125854;47.129920999999996;7.2396514;49.849002838134766;1673427803.2287524;-47.88606643676758;5.750654697418213;-135.2246551513672
228;1673427803.3854532;47.1299011;7.2396240999999995;49.85400390625;1673427803.409862;-48.16733932495117;5.669995307922363;-135.179443359375
229;1673427803.5754392;47.1298811;7.239596799999999;49.858001708984375;1673427803.5970194;-48.33364486694336;5.619344234466553;-135.1510772705078
230;1673427803.765857;47.1298612;7.2395694;49.86000061035156;1673427803.786472;-48.194496154785156;5.63564920425415;-135.1404266357422
231;1673427803.9416413;47.129841299999995;7.2395420999999995;49.86000061035156;1673427803.9662027;-48.03212356567383;5.531426906585693;-135.1125946044922
232;1673427804.1389172;47.129821299999996;7.2395147;49.85900115966797;1673427804.162378;-47.78179168701172;5.55486536026001;-135.1268768310547
233;1673427804.339471;47.1298013;7.2394874;49.86100387573242;1673427804.3590097;-47.91774368286133;5.6159772872924805;-135.11549377441406
234;1673427804.5403905;47.1297813;7.2394601;49.86000061035156;1673427804.5620022;-48.02910232543945;5.660211563110352;-135.1141815185547
235;1673427804.7524529;47.1297614;7.2394327;49.86000061035156;1673427804.7758782;-48.02325439453125;5.5225701332092285;-135.04522705078125
236;1673427804.9581404;47.1297414;7.2394053;49.86300277709961;1673427804.9815638;-47.99747085571289;5.460578918457031;-135.0258026123047
237;1673427805.1626081;47.129721499999995;7.239377999999999;49.86600112915039;1673427805.183105;-48.00075149536133;5.459493637084961;-135.02723693847656
238;1673427805.3569648;47.1297016;7.2393506;49.86900329589844;1673427805.381354;-48.01546096801758;5.467805862426758;-135.0337677001953
239;1673427805.5551434;47.1296816;7.239323199999999;49.87200164794922;1673427805.576673;-47.969970703125;5.390646457672119;-134.9785919189453
240;1673427805.7529678;47.1296616;7.2392958;49.87700271606445;1673427805.7775345;-48.00236892700195;5.509150505065918;-134.99896240234375
241;1673427805.9399176;47.1296416;7.239268399999999;49.880001068115234;1673427805.9633894;-47.97442626953125;5.43137264251709;-134.93910217285156
242;1673427806.1438196;47.1296216;7.239241;49.88200378417969;1673427806.1672459;-47.789283752441406;5.351569175720215;-134.8778839111328
243;1673427806.3566885;47.1296016;7.239213599999999;49.88600158691406;1673427806.3791344;-47.77936553955078;5.408164978027344;-134.92135620117188
244;1673427806.558972;47.129581699999996;7.2391862;49.8910026550293;1673427806.580522;-47.91845703125;5.440912246704102;-134.88034057617188
245;1673427806.773121;47.1295617;7.239158799999999;49.897003173828125;1673427806.7906582;-48.14759826660156;5.284767150878906;-134.77310180664062
246;1673427806.9525468;47.1295417;7.2391312999999995;49.90300369262695;1673427806.9730432;-48.11454391479492;5.294913291931152;-134.76763916015625
247;1673427807.147959;47.1295218;7.2391039;49.910003662109375;1673427807.1714206;-48.082157135009766;5.256424903869629;-134.71963500976562
248;1673427807.3543453;47.1295018;7.2390764999999995;49.915000915527344;1673427807.437891;-48.09015655517578;5.164870262145996;-134.63304138183594
249;1673427807.64302;47.1294818;7.239049;49.9160041809082;1673427807.6615634;-47.940025329589844;5.210188388824463;-134.63124084472656
250;1673427807.8384585;47.1294618;7.2390216;49.91200256347656;1673427807.8551698;-47.74886703491211;5.031833648681641;-134.5047149658203
251;1673427807.9953687;47.129441799999995;7.2389942;49.915000915527344;1673427808.0139127;-47.6811637878418;5.056934833526611;-134.50253295898438
252;1673427808.1756222;47.1294219;7.2389668;49.92000198364258;1673427808.1963413;-47.71571731567383;5.60624885559082;-134.5295867919922
253;1673427808.36783;47.1294019;7.2389394;49.92500305175781;1673427808.3912587;-47.77324676513672;7.952493667602539;-134.98687744140625
254;1673427808.5672715;47.1293821;7.2389117999999995;49.927001953125;1673427808.5877671;-47.7777214050293;7.165493965148926;-134.05970764160156
255;1673427808.7578046;47.1293624;7.2388841;49.93000411987305;1673427808.7802532;-47.782814025878906;6.555434703826904;-133.67103576660156
256;1673427808.9446633;47.129342799999996;7.2388562;49.93700408935547;1673427808.96711;-47.41570281982422;8.046603202819824;-133.82192993164062
257;1673427809.1479893;47.129323299999996;7.2388281999999995;49.94600296020508;1673427809.1723917;-47.74740982055664;8.446194648742676;-133.57675170898438
258;1673427809.3484664;47.1293041;7.2387999;49.95600128173828;1673427809.36911;-47.58088684082031;8.288949966430664;-133.13218688964844
259;1673427809.5519562;47.1292851;7.2387714999999995;49.97700119018555;1673427809.5755382;-40.52610397338867;7.945152282714844;-132.39881896972656
260;1673427809.773493;47.1292665;7.2387435;50.01000213623047;1673427809.7959678;-26.600889205932617;9.51248550415039;-134.04605102539062
261;1673427809.9592116;47.1292489;7.2387168;50.03400421142578;1673427809.9806786;-9.38588809967041;8.525983810424805;-134.69491577148438
262;1673427810.1426253;47.129232699999996;7.2386925;50.04300308227539;1673427810.1670263;3.258568286895752;8.326517105102539;-136.03024291992188
263;1673427810.341913;47.1292184;7.2386712;50.03900146484375;1673427810.3702216;12.040149688720703;7.551438808441162;-135.9071044921875
264;1673427810.562845;47.1292062;7.2386535;50.02100372314453;1673427810.5823646;18.042449951171875;5.862907886505127;-135.2261505126953
265;1673427810.7661061;47.129196099999994;7.2386393;49.97500228881836;1673427810.7836597;19.70107650756836;9.05111312866211;-135.30084228515625
266;1673427810.9516554;47.129188199999994;7.2386282;49.9530029296875;1673427810.973167;13.18215274810791;15.803051948547363;-136.35049438476562
267;1673427811.153981;47.1291821;7.2386194999999995;49.95900344848633;1673427811.1754532;10.914202690124512;12.312939643859863;-136.69961547851562
268;1673427811.361176;47.129177299999995;7.2386124;49.970001220703125;1673427811.382648;4.990640163421631;14.189577102661133;-137.804443359375
269;1673427811.5561154;47.1291734;7.2386064;49.98800277709961;1673427811.578564;0.3936068117618561;11.483549118041992;-137.0436553955078
270;1673427811.7484677;47.1291699;7.238601;50.00700378417969;1673427811.7739263;-3.9629642963409424;8.241156578063965;-135.92579650878906
271;1673427811.9489377;47.1291667;7.2385959;50.02400207519531;1673427811.9704103;-6.8652520179748535;6.56141471862793;-135.7322998046875
272;1673427812.1452389;47.1291636;7.2385909999999996;50.035003662109375;1673427812.1657393;-7.658137321472168;5.211910247802734;-136.10328674316406
273;1673427812.345525;47.1291606;7.238586499999999;50.04300308227539;1673427812.3719976;-6.88817024230957;6.4950690269470215;-136.98667907714844
274;1673427812.5470674;47.1291575;7.238582399999999;50.048004150390625;1673427812.5704925;-4.4855732917785645;8.735884666442871;-137.25796508789062
275;1673427812.7436125;47.1291546;7.238578599999999;50.057003021240234;1673427812.7691405;-9.612293243408203;12.327845573425293;-138.15032958984375
276;1673427812.959507;47.1291514;7.2385746;50.09600067138672;1673427812.9829304;-25.660852432250977;9.637999534606934;-139.25209045410156
277;1673427813.1599622;47.1291474;7.238569699999999;50.18800354003906;1673427813.1844604;-16.93181037902832;3.835324764251709;-137.49928283691406
278;1673427813.3564837;47.1291425;7.238564299999999;50.36600112915039;1673427813.3858755;-16.251012802124023;3.9613540172576904;-137.3448028564453
279;1673427813.5558543;47.1291371;7.238558599999999;50.618003845214844;1673427813.5802538;-17.245153427124023;4.248889923095703;-137.2809600830078
280;1673427813.7676663;47.129131099999995;7.2385525;50.93300247192383;1673427813.7912152;-31.29271125793457;9.518607139587402;-138.45211791992188
281;1673427813.9858851;47.1291243;7.2385448;51.28400421142578;1673427814.0073566;-44.89060592651367;11.38712215423584;-137.7881622314453
282;1673427814.1977332;47.1291163;7.2385344;51.64800262451172;1673427814.2182024;-42.593509674072266;12.15954303741455;-135.3961944580078
283;1673427814.377548;47.1291073;7.2385215999999994;52.0150032043457;1673427814.3999953;-37.63300323486328;12.819537162780762;-135.58767700195312
284;1673427814.569978;47.1290978;7.2385072;52.37600326538086;1673427814.5914662;-31.19581413269043;12.52755069732666;-135.886962890625
285;1673427814.77834;47.129087899999995;7.238492;52.7390022277832;1673427814.799812;-27.579051971435547;11.606021881103516;-136.43167114257812
286;1673427814.9561293;47.1290778;7.2384767;53.10600280761719;1673427814.9766483;-23.918354034423828;9.3614501953125;-136.6042938232422
287;1673427815.1407142;47.1290677;7.238461399999999;53.47700119018555;1673427815.1631746;-21.566978454589844;7.033646583557129;-136.6298828125
288;1673427815.33253;47.1290578;7.238446499999999;53.853004455566406;1673427815.3555229;-20.20366668701172;4.88697624206543;-136.53988647460938
289;1673427815.5300915;47.129047899999996;7.2384319999999995;54.22900390625;1673427815.5526545;-19.88208770751953;4.561243534088135;-136.8446502685547
290;1673427815.7240076;47.1290383;7.2384181;54.608001708984375;1673427815.7450645;-20.17043113708496;5.539975166320801;-137.19007873535156
291;1673427815.9179485;47.1290287;7.238404699999999;54.993003845214844;1673427815.9403827;-21.459630966186523;7.708797931671143;-137.6407928466797
292;1673427816.115682;47.1290191;7.2383916;55.38300323486328;1673427816.138134;-22.40180015563965;10.021602630615234;-138.14662170410156
293;1673427816.3140125;47.129009499999995;7.238378699999999;55.77400207519531;1673427816.3365376;-23.37773323059082;10.94043254852295;-138.00543212890625
294;1673427816.5123088;47.128999799999995;7.2383657999999995;56.1660041809082;1673427816.5358841;-24.332324981689453;10.54810619354248;-137.7569580078125
295;1673427816.7104702;47.128990099999996;7.2383527999999995;56.56100082397461;1673427816.732924;-25.149404525756836;8.82042407989502;-137.28985595703125
296;1673427816.9094012;47.1289805;7.2383397;56.95500183105469;1673427816.9321597;-25.520360946655273;7.196681499481201;-136.86444091796875
297;1673427817.1090598;47.1289708;7.2383264;57.34800338745117;1673427817.1317644;-25.895002365112305;6.947423934936523;-136.7476806640625
298;1673427817.3081853;47.1289612;7.2383128999999995;57.74500274658203;1673427817.3339443;-25.4720458984375;7.291138648986816;-136.8722381591797
299;1673427817.5208437;47.1289514;7.2382991;58.143001556396484;1673427817.5457983;-25.20121192932129;8.69322395324707;-137.30714416503906
300;1673427817.7481523;47.1289416;7.2382854;58.54300308227539;1673427817.7745082;-24.74211883544922;9.379226684570312;-137.37554931640625
301;1673427817.9635553;47.1289318;7.238271699999999;58.941001892089844;1673427817.9831922;-24.51686668395996;10.206965446472168;-137.60931396484375
302;1673427818.1650374;47.1289218;7.2382579;59.340003967285156;1673427818.1874862;-24.169954299926758;10.089693069458008;-137.505859375
303;1673427818.3646479;47.1289119;7.2382443;59.737003326416016;1673427818.3880854;-24.46952247619629;10.295775413513184;-137.42213439941406
304;1673427818.5669143;47.1289021;7.2382307;60.134002685546875;1673427818.5893798;-24.38102912902832;9.738804817199707;-137.34422302246094
305;1673427818.7617655;47.128892199999996;7.238217199999999;60.53200149536133;1673427818.782262;-24.681058883666992;9.649311065673828;-137.36619567871094
306;1673427818.9437733;47.1288823;7.238203599999999;60.932003021240234;1673427818.9677477;-24.776874542236328;8.050396919250488;-137.04232788085938
307;1673427819.1364734;47.1288724;7.2381899999999995;61.333003997802734;1673427819.1598763;-24.829673767089844;7.336068630218506;-136.72679138183594
308;1673427819.332207;47.1288625;7.2381765;61.730003356933594;1673427819.3542216;-24.85260581970215;6.974637508392334;-136.67681884765625
309;1673427819.5257094;47.128852599999995;7.2381629;62.12600326538086;1673427819.549695;-24.74744415283203;6.842080593109131;-136.7277374267578
310;1673427819.7210362;47.1288427;7.2381493;62.52300262451172;1673427819.7444797;-24.90580177307129;6.570133209228516;-136.6390380859375
311;1673427819.9218194;47.1288328;7.2381357;62.919002532958984;1673427819.9442568;-24.853919982910156;6.69249963760376;-136.557861328125
312;1673427820.1381197;47.128823;7.2381221;63.314002990722656;1673427820.1400409;-24.7325439453125;7.188592910766602;-136.7901153564453
313;1673427820.3141263;47.128813099999995;7.2381084;63.711002349853516;1673427820.337726;-24.780296325683594;8.050921440124512;-137.0426788330078
314;1673427820.5132864;47.1288032;7.2380948;64.11199951171875;1673427820.5370042;-24.611371994018555;8.837544441223145;-137.10877990722656
315;1673427820.7160478;47.1287934;7.2380811;64.51399993896484;1673427820.740517;-24.502683639526367;9.320667266845703;-137.27352905273438
316;1673427820.915543;47.1287835;7.2380675;64.91100311279297;1673427820.9379523;-24.487628936767578;9.842306137084961;-137.3439178466797
317;1673427821.112229;47.128773599999995;7.238054;65.3080062866211;1673427821.1356533;-24.63374900817871;9.991700172424316;-137.24630737304688
318;1673427821.309675;47.1287636;7.238040499999999;65.70500183105469;1673427821.3322077;-24.595123291015625;10.131072998046875;-137.265380859375
319;1673427821.50678;47.128753599999996;7.238027;66.10100555419922;1673427821.5293405;-24.674589157104492;10.303674697875977;-137.15243530273438
320;1673427821.705282;47.1287436;7.2380135999999995;66.49700164794922;1673427821.728858;-24.777969360351562;9.969966888427734;-137.05044555664062
321;1673427821.9060488;47.1287337;7.2380001;66.89300537109375;1673427821.9286108;-25.00765609741211;9.714008331298828;-136.97457885742188
322;1673427822.1052756;47.128723699999995;7.237986599999999;67.29100036621094;1673427822.1289978;-25.152780532836914;8.808955192565918;-136.7393341064453
323;1673427822.305327;47.1287138;7.2379731;67.68900299072266;1673427822.3277802;-25.255311965942383;8.760653495788574;-136.75965881347656
324;1673427822.5032816;47.128704;7.237959399999999;68.08600616455078;1673427822.5263896;-25.356050491333008;8.03831672668457;-136.70314025878906
325;1673427822.7021515;47.1286942;7.2379457;68.48200225830078;1673427822.7237852;-25.36450958251953;7.6619672775268555;-136.62770080566406
326;1673427822.9005642;47.1286844;7.2379318999999995;68.8800048828125;1673427822.9249647;-25.40447235107422;7.316466808319092;-136.53573608398438
327;1673427823.098302;47.128674499999995;7.237918199999999;69.2770004272461;1673427823.1207485;-25.070987701416016;6.953121185302734;-136.46087646484375
328;1673427823.295718;47.1286646;7.237904599999999;69.67400360107422;1673427823.3210669;-25.258102416992188;6.967947483062744;-136.471435546875
329;1673427823.4971013;47.1286547;7.237890999999999;70.07300567626953;1673427823.519549;-25.17050552368164;7.063325881958008;-136.51687622070312
330;1673427823.6974375;47.1286448;7.2378773999999995;70.4729995727539;1673427823.720862;-25.19672203063965;6.87321662902832;-136.48291015625
331;1673427823.895715;47.128634899999994;7.2378637999999995;70.87300109863281;1673427823.9196813;-25.38265609741211;7.304180145263672;-136.6815185546875
332;1673427824.0969431;47.128625;7.237850099999999;71.27300262451172;1673427824.1194053;-25.389921188354492;7.556341171264648;-136.77940368652344
333;1673427824.297408;47.128614999999996;7.237836499999999;71.6760025024414;1673427824.320797;-25.42816162109375;7.935791492462158;-136.80921936035156
334;1673427824.4975975;47.128605099999994;7.2378228;72.0790023803711;1673427824.5200455;-25.352378845214844;8.113717079162598;-136.79278564453125
335;1673427824.696019;47.1285951;7.2378091;72.4800033569336;1673427824.719443;-25.28777503967285;8.36469841003418;-136.7865753173828
336;1673427824.8985038;47.128585199999996;7.2377953999999995;72.87700653076172;1673427824.9238923;-25.354860305786133;8.432601928710938;-136.80015563964844
337;1673427825.1020916;47.1285752;7.237781699999999;73.2750015258789;1673427825.1255238;-25.311389923095703;8.602020263671875;-136.82357788085938
338;1673427825.3014405;47.128565099999996;7.2377679;73.67200469970703;1673427825.3238728;-25.316789627075195;8.50563907623291;-136.81947326660156
339;1673427825.4996836;47.1285551;7.2377541;74.06800079345703;1673427825.5221303;-25.327781677246094;8.748979568481445;-136.90672302246094
340;1673427825.6979442;47.1285452;7.2377404;74.46600341796875;1673427825.7213686;-25.307432174682617;8.87958812713623;-136.8999786376953
341;1673427825.897412;47.128535199999995;7.237726599999999;74.86300659179688;1673427825.9220517;-25.125009536743164;8.878557205200195;-136.94583129882812
342;1673427826.1018722;47.1285253;7.2377128;75.26200103759766;1673427826.124371;-25.230161666870117;8.927874565124512;-136.97805786132812
343;1673427826.3009822;47.1285154;7.2376990999999995;75.6570053100586;1673427826.324423;-25.237380981445312;8.961064338684082;-136.9441375732422
344;1673427826.5013084;47.128505499999996;7.2376854999999995;76.0530014038086;1673427826.5247338;-25.39453125;8.99276065826416;-136.94619750976562
345;1673427826.6990492;47.1284955;7.237671799999999;76.44900512695312;1673427826.7214968;-25.43659782409668;8.8969144821167;-136.93849182128906
346;1673427826.8974032;47.1284856;7.2376581;76.84500122070312;1673427826.9198747;-25.534425735473633;8.758248329162598;-136.92552185058594
347;1673427827.098624;47.128475599999994;7.2376442999999995;77.24200439453125;1673427827.121056;-25.436914443969727;8.716741561889648;-136.89508056640625
348;1673427827.3017943;47.1284657;7.237630599999999;77.63800048828125;1673427827.3251896;-25.413555145263672;8.672907829284668;-136.9018096923828
349;1673427827.5012834;47.128455699999996;7.2376169;78.03600311279297;1673427827.5247078;-25.345962524414062;8.730470657348633;-136.93223571777344
350;1673427827.7018125;47.128445799999994;7.2376032;78.43700408935547;1673427827.7252114;-25.200069427490234;8.84604549407959;-136.9180908203125
351;1673427827.8996255;47.1284358;7.2375894999999995;78.83600616455078;1673427827.9220765;-25.139732360839844;8.77976131439209;-136.91392517089844
352;1673427828.0988648;47.128425899999996;7.2375758;79.23300170898438;1673427828.1222906;-25.289161682128906;8.7758150100708;-136.90748596191406
353;1673427828.2981408;47.128416;7.237562199999999;79.63400268554688;1673427828.3205957;-25.320140838623047;8.907419204711914;-136.90737915039062
354;1673427828.4973698;47.1284061;7.237548599999999;80.03600311279297;1673427828.519822;-25.40744972229004;8.7136812210083;-136.8949432373047
355;1673427828.6985645;47.1283962;7.2375349;80.43500518798828;1673427828.721976;-25.172876358032227;8.850507736206055;-136.93934631347656
356;1673427828.8987842;47.128386299999995;7.2375213;80.8340072631836;1673427828.9212742;-25.335050582885742;8.849996566772461;-136.89471435546875
357;1673427829.099058;47.1283764;7.2375076;81.23300170898438;1673427829.1214943;-25.340578079223633;8.798501968383789;-136.9234161376953
358;1673427829.3005283;47.1283665;7.2374939;81.63400268554688;1673427829.3229756;-25.307477951049805;8.634556770324707;-136.90916442871094
359;1673427829.4968486;47.1283566;7.237480199999999;82.03400421142578;1673427829.520263;-25.296875;8.696626663208008;-136.93980407714844
360;1673427829.697846;47.128346799999996;7.237466599999999;82.43400573730469;1673427829.7202947;-25.309585571289062;8.69372844696045;-136.95799255371094
361;1673427829.8972054;47.1283369;7.2374529;82.83500671386719;1673427829.9197044;-25.160011291503906;8.624822616577148;-136.8920135498047
362;1673427830.0966578;47.128327;7.2374392;83.23400115966797;1673427830.120199;-25.378849029541016;8.630265235900879;-136.9346923828125
363;1673427830.2978816;47.1283171;7.2374256;83.63300323486328;1673427830.3213494;-25.31401824951172;8.656746864318848;-136.93812561035156
364;1673427830.497323;47.128307199999995;7.237412;84.0320053100586;1673427830.5208364;-25.429677963256836;8.613734245300293;-136.9437713623047
365;1673427830.6987278;47.1282973;7.2373983;84.43000030517578;1673427830.7211397;-25.285924911499023;8.700390815734863;-136.96859741210938
366;1673427830.8984745;47.1282875;7.2373847;84.8290023803711;1673427830.9211864;-25.40818977355957;8.672524452209473;-136.95355224609375
367;1673427831.0974708;47.1282776;7.2373711;85.2300033569336;1673427831.119912;-25.54070472717285;8.732929229736328;-136.9575653076172
368;1673427831.2976656;47.128267699999995;7.2373575;85.6290054321289;1673427831.3210948;-25.409305572509766;8.743532180786133;-136.92909240722656
369;1673427831.4959264;47.1282577;7.237343999999999;86.0270004272461;1673427831.520331;-25.442602157592773;8.919075012207031;-136.95944213867188
370;1673427831.6971;47.1282478;7.2373303;86.42300415039062;1673427831.7195477;-25.302574157714844;8.80178165435791;-136.92333984375
371;1673427831.896353;47.128237899999995;7.2373166;86.82000732421875;1673427831.9188552;-25.32828712463379;8.735100746154785;-136.92274475097656
372;1673427832.0946445;47.128228;7.237303;87.21800231933594;1673427832.118069;-25.29718017578125;8.85119342803955;-136.9505157470703
373;1673427832.2959518;47.128218;7.2372893;87.61500549316406;1673427832.3193722;-25.29357147216797;8.694515228271484;-136.93051147460938
374;1673427832.498105;47.128208099999995;7.237275599999999;88.01300048828125;1673427832.5205462;-25.15408706665039;8.786333084106445;-136.9603729248047
375;1673427832.6994083;47.1281982;7.237261999999999;88.41100311279297;1673427832.7218575;-25.207324981689453;8.702157020568848;-136.9310302734375
376;1673427832.9006066;47.1281883;7.2372483;88.80900573730469;1673427832.92309;-25.23712921142578;8.608911514282227;-136.9467315673828
377;1673427833.1038356;47.128178299999995;7.2372346;89.2090072631836;1673427833.1262822;-25.234638214111328;8.645161628723145;-136.96417236328125
378;1673427833.3101444;47.1281684;7.2372209;89.60700225830078;1673427833.332554;-25.165767669677734;8.636998176574707;-136.96104431152344
379;1673427833.5064907;47.1281585;7.2372073;90.0040054321289;1673427833.5289252;-25.10616683959961;8.670296669006348;-136.9520721435547
380;1673427833.7047431;47.128148599999996;7.2371937;90.4010009765625;1673427833.727192;-25.170255661010742;8.62978744506836;-136.91770935058594
381;1673427833.905948;47.1281386;7.2371801;90.79700469970703;1673427833.9283957;-25.31668472290039;8.735824584960938;-136.9784698486328
382;1673427834.105272;47.1281287;7.2371666;91.19200134277344;1673427834.128704;-25.3680477142334;8.778922080993652;-136.96258544921875
383;1673427834.3093903;47.128118799999996;7.237152999999999;91.58600616455078;1673427834.3318381;-25.314716339111328;8.853011131286621;-136.9433135986328
384;1673427834.5135112;47.1281088;7.2371395;91.9780044555664;1673427834.5369284;-25.282485961914062;8.77047348022461;-136.94546508789062
385;1673427834.7127092;47.1280989;7.2371259;92.36900329589844;1673427834.7361343;-25.378662109375;8.721203804016113;-136.94166564941406
386;1673427834.9120505;47.128088999999996;7.237112199999999;92.75900268554688;1673427834.9354599;-25.357383728027344;8.595137596130371;-136.923583984375
387;1673427835.1132853;47.1280791;7.2370987;93.14900207519531;1673427835.1376846;-25.461252212524414;8.648622512817383;-136.940185546875
388;1673427835.3125172;47.1280692;7.2370851;93.54100799560547;1673427835.3359501;-25.445844650268555;8.669320106506348;-136.91036987304688
389;1673427835.5107827;47.128059199999996;7.237071599999999;93.9320068359375;1673427835.5332308;-25.350141525268555;8.684478759765625;-136.93948364257812
390;1673427835.7090404;47.1280492;7.237057999999999;94.32300567626953;1673427835.732464;-25.35569190979004;8.689311027526855;-136.93356323242188
391;1673427835.910274;47.1280393;7.237044399999999;94.71500396728516;1673427835.9327347;-25.26272201538086;8.678101539611816;-136.92254638671875
392;1673427836.1085215;47.128029299999994;7.237030799999999;95.10800170898438;1673427836.1329205;-25.13209342956543;8.899423599243164;-136.9279022216797
393;1673427836.3097193;47.1280193;7.2370171999999995;95.5050048828125;1673427836.332167;-25.224363327026367;8.733393669128418;-136.91787719726562
394;1673427836.508949;47.128009299999995;7.2370037;95.9050064086914;1673427836.5323722;-25.225404739379883;8.838922500610352;-136.90505981445312
395;1673427836.7091944;47.1279994;7.2369901;96.30500793457031;1673427836.7316046;-25.270456314086914;8.723384857177734;-136.9007568359375
396;1673427836.9070091;47.1279895;7.2369765;96.7040023803711;1673427836.930448;-25.221160888671875;8.793432235717773;-136.89437866210938
397;1673427837.105231;47.127979499999995;7.236962999999999;97.10100555419922;1673427837.1286538;-25.295570373535156;8.798543930053711;-136.913818359375
398;1673427837.3079252;47.1279696;7.236949399999999;97.49900817871094;1673427837.3323252;-25.20765495300293;8.829133033752441;-136.8912811279297
399;1673427837.5092044;47.1279597;7.2369357999999995;97.89700317382812;1673427837.5326107;-25.304628372192383;8.650788307189941;-136.88539123535156
400;1673427837.708435;47.127949799999996;7.2369221999999995;98.29600524902344;1673427837.7328362;-25.30961799621582;8.709321022033691;-136.88003540039062
401;1673427837.9115992;47.1279399;7.2369086;98.69600677490234;1673427837.934019;-25.412456512451172;8.540840148925781;-136.89002990722656
402;1673427838.108874;47.1279299;7.236895;99.09700775146484;1673427838.1342502;-25.269811630249023;8.735092163085938;-136.89869689941406
403;1673427838.3086672;47.127919999999996;7.2368814;99.49600219726562;1673427838.332094;-25.309852600097656;8.654842376708984;-136.89035034179688
404;1673427838.509842;47.12791;7.2368678;99.89400482177734;1673427838.533266;-25.24374008178711;8.784797668457031;-136.86570739746094
405;1673427838.709063;47.1279;7.2368543;100.29200744628906;1673427838.7325084;-25.25864601135254;8.78671646118164;-136.83555603027344
406;1673427838.9088469;47.127890099999995;7.236840699999999;100.69300842285156;1673427838.9322684;-25.233795166015625;8.86340618133545;-136.86270141601562
407;1673427839.1122117;47.1278802;7.2368272;101.09300231933594;1673427839.134622;-25.209840774536133;8.949954986572266;-136.8539581298828
408;1673427839.3089995;47.1278703;7.2368136;101.49400329589844;1673427839.3325932;-25.30620002746582;8.61246109008789;-136.82749938964844
409;1673427839.509385;47.127860399999996;7.236799899999999;101.89400482177734;1673427839.5330312;-25.343570709228516;8.5847749710083;-136.8401641845703
410;1673427839.710713;47.1278505;7.2367862999999994;102.29600524902344;1673427839.7334414;-25.314119338989258;8.689279556274414;-136.8427276611328
411;1673427839.9276097;47.1278406;7.2367726999999995;102.69700622558594;1673427839.9536757;-25.278987884521484;8.841763496398926;-136.8438262939453
412;1673427840.1427655;47.127830599999996;7.2367592;103.09600830078125;1673427840.167179;-25.368473052978516;8.671951293945312;-136.8149871826172
413;1673427840.3497968;47.1278207;7.2367456;103.49400329589844;1673427840.372344;-25.291370391845703;8.910818099975586;-136.83949279785156
414;1673427840.5603173;47.1278108;7.2367319;103.89200592041016;1673427840.5847645;-25.38870620727539;8.649813652038574;-136.8358917236328
415;1673427840.765204;47.1278009;7.2367183;104.28900146484375;1673427840.788235;-25.305904388427734;8.73543930053711;-136.8397979736328
416;1673427840.9698436;47.127790999999995;7.2367045999999995;104.68600463867188;1673427840.9913733;-25.319955825805664;8.600336074829102;-136.83106994628906
417;1673427841.1699357;47.1277811;7.236690899999999;105.08700561523438;1673427841.193913;-25.378358840942383;8.661194801330566;-136.8443145751953
418;1673427841.3675609;47.1277712;7.236677299999999;105.48700714111328;1673427841.3906386;-25.268177032470703;8.555376052856445;-136.82765197753906
419;1673427841.569796;47.127761299999996;7.2366636;105.88500213623047;1673427841.5937576;-25.24874496459961;8.723366737365723;-136.86233520507812
