;pos_time;latitude;longitude;altitude;alt_time;pitch;roll;yaw
0;1673426245.752565;47.1306425;7.240619799999999;-0.017000000923871994;1673426245.8958645;0.14940465986728668;-0.30408865213394165;90.06954956054688
1;1673426245.934905;47.1306425;7.2406197;-0.017000000923871994;1673426246.0758224;0.35502293705940247;0.0887603610754013;89.95455932617188
2;1673426246.1099815;47.1306425;7.2406197;-0.015000000596046448;1673426246.2872343;0.0787748247385025;-0.1544548124074936;90.21720123291016
3;1673426246.3238864;47.1306425;7.2406197;-0.01600000075995922;1673426246.494262;0.00993150845170021;-0.30195656418800354;90.06988525390625
4;1673426246.5284708;47.1306425;7.2406196;-0.01600000075995922;1673426246.6826432;-0.028668010607361794;-0.5437036156654358;90.24090576171875
5;1673426246.741535;47.1306424;7.240619499999999;-0.014000000432133675;1673426246.9012365;-0.07958577573299408;-0.23237040638923645;90.21141815185547
6;1673426246.9510221;47.1306424;7.2406196;-0.010000000707805157;1673426247.1025958;0.02236749418079853;-0.3766038715839386;90.26483154296875
7;1673426247.135941;47.1306424;7.2406196;-0.010000000707805157;1673426247.2856033;0.04382422938942909;-0.36293825507164;90.19709777832031
8;1673426247.3190277;47.1306424;7.2406197;-0.012000000104308128;1673426247.4808397;0.03359640762209892;-0.31434494256973267;90.03128051757812
9;1673426247.527673;47.1306424;7.2406197;-0.012000000104308128;1673426247.7734454;-0.13614104688167572;-0.3896072208881378;90.27210235595703
10;1673426247.792999;47.1306424;7.2406197;-0.010000000707805157;1673426247.9139946;0.13355031609535217;-0.2695380449295044;90.24069213867188
11;1673426247.9414778;47.1306424;7.240619799999999;-0.007000000216066837;1673426248.078054;-0.07319927215576172;-0.3480166494846344;90.16952514648438
12;1673426248.111236;47.1306424;7.240619799999999;-0.004000000189989805;1673426248.261635;0.009741503745317459;-0.43421289324760437;90.2906723022461
13;1673426248.298216;47.1306424;7.2406197;-0.003000000026077032;1673426248.4679232;-0.014062197878956795;-0.40001368522644043;90.31026458740234
14;1673426248.505706;47.1306424;7.2406197;-0.004000000189989805;1673426248.6643715;-0.21136029064655304;-0.30129072070121765;90.13035583496094
15;1673426248.7244916;47.1306424;7.2406197;0.0;1673426248.877814;-0.04542390629649162;-0.7625636458396912;90.03460693359375
16;1673426248.9100378;47.1306424;7.2406197;-0.004000000189989805;1673426249.0589616;-0.1692042201757431;-0.6980815529823303;90.09864044189453
17;1673426249.093676;47.1306424;7.240619799999999;-0.005000000353902578;1673426249.2722974;-0.24025599658489227;-0.6651853919029236;90.08267211914062
18;1673426249.309254;47.1306425;7.2406198999999996;-0.005000000353902578;1673426249.464232;-0.2536734640598297;-0.5969799757003784;90.12075805664062
19;1673426249.5030062;47.1306425;7.2406198999999996;0.0;1673426249.671555;-0.25458773970603943;-0.598796010017395;90.0628890991211
20;1673426249.7018118;47.1306425;7.24062;0.0010000000474974513;1673426249.8630838;-0.10152395069599152;-0.8704709410667419;89.96056365966797
21;1673426249.9046257;47.1306425;7.2406201;0.0;1673426250.0795991;0.08855553716421127;-0.7649692296981812;89.9648666381836
22;1673426250.1108305;47.1306425;7.2406201;-0.0020000000949949026;1673426250.2877057;-0.11340853571891785;-1.1347469091415405;90.11528778076172
23;1673426250.3575659;47.1306425;7.2406201999999995;0.0;1673426250.5162358;0.04060583561658859;-0.17589998245239258;90.09278106689453
24;1673426250.5543993;47.1306425;7.2406201999999995;0.0020000000949949026;1673426250.6991403;0.21930719912052155;-0.643877387046814;90.28031158447266
25;1673426250.726468;47.1306425;7.2406201999999995;0.0010000000474974513;1673426250.86865;0.25785836577415466;-0.8572250604629517;90.16630554199219
26;1673426250.9083996;47.1306425;7.2406201;0.0020000000949949026;1673426251.070979;0.25876641273498535;-0.7585092782974243;90.25475311279297
27;1673426251.1032197;47.1306425;7.2406201999999995;0.0020000000949949026;1673426251.2718687;0.19450467824935913;-0.1614319235086441;90.21286010742188
28;1673426251.3119683;47.1306425;7.2406201999999995;0.0;1673426251.4824212;0.26749682426452637;-0.6468203663825989;90.21782684326172
29;1673426251.5165806;47.1306425;7.2406201;-0.003000000026077032;1673426251.6677523;0.44320935010910034;-0.5063960552215576;90.36602783203125
30;1673426251.6999912;47.1306425;7.2406201;-0.012000000104308128;1673426251.8463144;0.30755746364593506;-0.24236495792865753;89.8436050415039
31;1673426251.8834903;47.130642599999995;7.2406201;-0.015000000596046448;1673426252.0465925;1.072350263595581;-0.484459787607193;88.97245025634766
32;1673426252.0895028;47.130642699999996;7.24062;-0.014000000432133675;1673426252.253523;0.2293192595243454;0.17957569658756256;84.02261352539062
33;1673426252.2889707;47.1306428;7.2406198999999996;-0.018000001087784767;1673426252.4439766;0.3620937466621399;3.6638362407684326;77.29767608642578
34;1673426252.4864478;47.130643;7.2406196;-0.012000000104308128;1673426252.6687753;-1.328955888748169;8.0333833694458;78.29261016845703
35;1673426252.707378;47.130643199999994;7.240619199999999;0.004000000189989805;1673426252.8821723;-4.709528923034668;10.83769702911377;80.67546844482422
36;1673426252.923385;47.130643299999996;7.2406188;0.0430000014603138;1673426253.0832472;-4.403923511505127;11.59346866607666;82.00659942626953
37;1673426253.122478;47.130643299999996;7.2406185999999995;0.10100000351667404;1673426253.284528;-5.7282304763793945;7.6610565185546875;83.455322265625
38;1673426253.319699;47.130643199999994;7.2406185;0.16900001466274261;1673426253.4888253;-6.384407043457031;8.13319206237793;84.03913879394531
39;1673426253.5229955;47.130643;7.2406185;0.2540000081062317;1673426253.679233;-5.733636379241943;11.15029239654541;84.05506134033203
40;1673426253.7157326;47.1306428;7.2406187;0.35100001096725464;1673426253.8761868;-5.025603294372559;6.459185600280762;85.24986267089844
41;1673426253.9194574;47.1306425;7.240619;0.46300002932548523;1673426254.0755074;-4.8509721755981445;5.803493499755859;86.0284423828125
42;1673426254.1127002;47.1306424;7.2406193;0.5950000286102295;1673426254.2870095;-3.7953784465789795;10.351984024047852;86.02665710449219
43;1673426254.3207755;47.1306423;7.240619499999999;0.7390000224113464;1673426254.4784584;-4.046782493591309;8.089216232299805;86.45680236816406
44;1673426254.51271;47.1306422;7.2406197;0.8940000534057617;1673426254.6531522;-4.5208892822265625;4.649296283721924;87.0650405883789
45;1673426254.6917596;47.130642099999996;7.240619799999999;1.0600000619888306;1673426254.8499637;-4.48842716217041;8.697731971740723;86.85095977783203
46;1673426254.8883111;47.130641999999995;7.2406198999999996;1.2360000610351562;1673426255.06259;-4.641793727874756;9.162673950195312;87.05733489990234
47;1673426255.0982904;47.1306419;7.2406198999999996;1.4200000762939453;1673426255.2806094;-4.751567363739014;4.126292705535889;87.02085876464844
48;1673426255.3174164;47.1306418;7.2406198999999996;1.6150001287460327;1673426255.4612534;-4.487477779388428;8.875351905822754;86.84545135498047
49;1673426255.4980729;47.1306419;7.2406198999999996;1.814000129699707;1673426255.6606777;-4.156314373016357;9.363709449768066;86.85665130615234
50;1673426255.6984243;47.130641999999995;7.2406198999999996;2.015000104904175;1673426255.8601549;-4.511349678039551;5.734509468078613;87.24938201904297
51;1673426255.8963852;47.130642099999996;7.240619799999999;2.2139999866485596;1673426256.0669289;-5.113620281219482;7.460036277770996;86.94993591308594
52;1673426256.106539;47.1306422;7.240619799999999;2.4160001277923584;1673426256.2590106;-5.025725364685059;10.508420944213867;86.52790832519531
53;1673426256.3051345;47.1306423;7.2406197;2.6130001544952393;1673426256.4736261;-5.090407371520996;5.951186656951904;87.36544036865234
54;1673426256.5083973;47.1306423;7.2406197;2.818000078201294;1673426256.6838892;-5.529044151306152;7.473718166351318;87.3408432006836
55;1673426256.7344732;47.1306424;7.2406197;3.0220000743865967;1673426256.9212754;-4.9043378829956055;11.299829483032227;86.7218246459961
56;1673426256.9564116;47.130642599999995;7.240619799999999;3.2240002155303955;1673426257.0989394;-4.4323577880859375;7.510770797729492;87.0404052734375
57;1673426257.1379623;47.130642599999995;7.2406198999999996;3.4260001182556152;1673426257.2951157;-4.635739326477051;6.5590009689331055;87.16690063476562
58;1673426257.3293953;47.1306425;7.24062;3.627000093460083;1673426257.4734385;-4.6059041023254395;10.760004043579102;86.72986602783203
59;1673426257.506009;47.1306425;7.24062;3.824000120162964;1673426257.6729906;-4.612480640411377;6.77996301651001;87.14067077636719
60;1673426257.7121792;47.1306424;7.24062;4.019999980926514;1673426257.8691053;-5.038518905639648;5.491092681884766;87.30260467529297
61;1673426257.90535;47.1306424;7.24062;4.2220001220703125;1673426258.0710707;-4.934168815612793;10.860766410827637;86.70356750488281
62;1673426258.1087048;47.1306425;7.2406198999999996;4.426000118255615;1673426258.2718155;-4.98618221282959;8.435332298278809;86.9555892944336
63;1673426258.3108735;47.130642599999995;7.2406198999999996;4.629000186920166;1673426258.4932692;-5.056466579437256;6.070678234100342;87.31295013427734
64;1673426258.5246625;47.130642599999995;7.2406198999999996;4.831000328063965;1673426258.6760557;-4.996277332305908;10.433683395385742;86.89653778076172
65;1673426258.7124639;47.130642599999995;7.2406198999999996;5.038000106811523;1673426258.8768008;-4.709177017211914;9.123673439025879;87.03456115722656
66;1673426258.9144337;47.130642599999995;7.2406198999999996;5.242000102996826;1673426259.0802605;-5.047754764556885;6.105876922607422;87.31222534179688
67;1673426259.112561;47.130642699999996;7.240619799999999;5.448000431060791;1673426259.2793922;-5.200045108795166;10.232351303100586;86.93083190917969
68;1673426259.316931;47.1306428;7.240619799999999;5.653000354766846;1673426259.489393;-4.949782371520996;10.081206321716309;86.82534790039062
69;1673426259.526729;47.1306428;7.240619799999999;5.857000350952148;1673426259.6806054;-5.089932441711426;6.226505756378174;87.33435821533203
70;1673426259.7086112;47.130642699999996;7.240619799999999;6.058000087738037;1673426259.8751023;-5.5560221672058105;8.641077041625977;86.90119171142578
71;1673426259.9130836;47.130642599999995;7.2406197;6.261000156402588;1673426260.077867;-4.918634414672852;10.65779972076416;86.63259887695312
72;1673426260.1215081;47.130642599999995;7.240619799999999;6.462000370025635;1673426260.2984;-4.86933708190918;5.7963080406188965;87.10958862304688
73;1673426260.331951;47.1306425;7.2406197;6.6610002517700195;1673426260.4805388;-5.093142032623291;8.049261093139648;87.01717376708984
74;1673426260.5538487;47.1306425;7.2406197;6.860000133514404;1673426260.7107003;-4.811790943145752;10.929106712341309;86.9117202758789
75;1673426260.7499406;47.130642599999995;7.2406197;7.057000160217285;1673426260.897388;-5.109811305999756;6.254844665527344;87.32742309570312
76;1673426260.934615;47.1306425;7.2406197;7.253000259399414;1673426261.08029;-5.376893043518066;6.262824535369873;87.16569519042969
77;1673426261.1179216;47.1306424;7.2406197;7.454000473022461;1673426261.269247;-5.252267837524414;11.047268867492676;86.721435546875
78;1673426261.3138983;47.1306424;7.2406197;7.65500020980835;1673426261.4733646;-5.261343002319336;6.836256980895996;87.12370300292969
79;1673426261.5101345;47.1306424;7.2406197;7.853000164031982;1673426261.6798558;-5.302361488342285;6.5917463302612305;87.33332061767578
80;1673426261.715541;47.1306425;7.240619799999999;8.054000854492188;1673426261.8692386;-4.8892340660095215;10.957868576049805;87.04458618164062
81;1673426261.9019918;47.130642599999995;7.2406198999999996;8.259000778198242;1673426262.0687227;-4.364313125610352;8.6155424118042;87.02754211425781
82;1673426262.1039414;47.1306425;7.24062;8.459000587463379;1673426262.2685614;-4.822272300720215;5.799056529998779;87.2132568359375
83;1673426262.3053677;47.1306425;7.24062;8.655000686645508;1673426262.465571;-4.979498386383057;10.292070388793945;86.75190734863281
84;1673426262.5017865;47.1306424;7.24062;8.848999977111816;1673426262.672206;-4.943028926849365;8.646703720092773;87.01093292236328
85;1673426262.704174;47.1306425;7.24062;9.043000221252441;1673426262.8673193;-5.316375732421875;5.727651596069336;87.35356140136719
86;1673426262.900527;47.130642599999995;7.24062;9.241000175476074;1673426263.072033;-5.1155195236206055;10.57265853881836;86.78530883789062
87;1673426263.1067631;47.130642699999996;7.2406201;9.437000274658203;1673426263.272086;-4.54225492477417;10.379609107971191;86.72152709960938
88;1673426263.307807;47.130642699999996;7.2406201999999995;9.631000518798828;1673426263.4792182;-4.4196367263793945;5.777761459350586;87.19290924072266
89;1673426263.512021;47.130642599999995;7.2406203;9.82800006866455;1673426263.6719134;-4.545660018920898;9.812561988830566;86.9250259399414
90;1673426263.7115026;47.130642599999995;7.2406203;10.02400016784668;1673426263.8875449;-4.514553070068359;9.762899398803711;86.95752716064453
91;1673426263.925707;47.130642699999996;7.2406203;10.234000205993652;1673426264.1267812;-4.950941562652588;7.410282611846924;87.33448791503906
92;1673426264.162924;47.130642599999995;7.2406204;10.541000366210938;1673426264.3162687;-5.641565322875977;8.790802955627441;87.35433197021484
93;1673426264.3486428;47.1306425;7.2406204999999995;10.913000106811523;1673426264.4989147;-4.795191764831543;11.130455017089844;86.8908920288086
94;1673426264.5331154;47.1306424;7.2406207;11.29800033569336;1673426264.6834147;-4.632640361785889;6.844655513763428;87.25211334228516
95;1673426264.7161663;47.130642099999996;7.240620799999999;11.687000274658203;1673426264.8653822;-4.583164691925049;4.951736927032471;87.37893676757812
96;1673426264.903922;47.1306418;7.2406209;12.081000328063965;1673426265.063742;-4.278805255889893;9.423213005065918;86.77701568603516
97;1673426265.1073687;47.1306417;7.2406209;12.47800064086914;1673426265.2635934;-4.08277702331543;6.530375957489014;87.0938720703125
98;1673426265.3186548;47.1306417;7.2406209;12.873000144958496;1673426265.5016103;-4.565088272094727;5.09169864654541;87.18501281738281
99;1673426265.5640054;47.1306418;7.240620799999999;13.269001007080078;1673426265.76637;-4.69498872756958;9.808733940124512;86.74131774902344
100;1673426265.8024776;47.1306419;7.240620799999999;13.669000625610352;1673426265.9309292;-4.371720314025879;8.452825546264648;86.90397644042969
101;1673426265.9592342;47.1306419;7.2406207;14.067000389099121;1673426266.110784;-4.809103012084961;5.33535099029541;87.28154754638672
102;1673426266.1490164;47.1306419;7.2406206;14.4660005569458;1673426266.309173;-4.867549419403076;9.42923641204834;87.01824951171875
103;1673426266.343488;47.130641999999995;7.2406204999999995;14.867000579833984;1673426266.5229805;-4.647679805755615;9.14396858215332;87.0946273803711
104;1673426266.5570197;47.130642099999996;7.2406204999999995;15.266000747680664;1673426266.73759;-4.965338706970215;6.1651082038879395;87.2730712890625
105;1673426266.7688234;47.1306422;7.2406204;15.657000541687012;1673426266.9174314;-5.006868362426758;9.31944751739502;86.8734359741211
106;1673426266.9457304;47.1306423;7.2406204;16.047000885009766;1673426267.0848687;-4.78101110458374;10.330421447753906;86.75971221923828
107;1673426267.1255412;47.1306423;7.2406204;16.439001083374023;1673426267.2773592;-4.6009202003479;6.002190589904785;87.33554077148438
108;1673426267.3116333;47.1306423;7.2406204;16.834001541137695;1673426267.4853628;-4.822977542877197;7.763780117034912;87.1660385131836
109;1673426267.5310328;47.1306422;7.2406204;17.229000091552734;1673426267.6936202;-4.542854309082031;10.724543571472168;87.01060485839844
110;1673426267.7257273;47.1306422;7.2406204;17.62700080871582;1673426267.8893437;-4.747840404510498;6.257150173187256;87.32662200927734
111;1673426267.9274435;47.1306422;7.2406203;18.020999908447266;1673426268.083361;-5.062720775604248;7.369298934936523;86.8533935546875
112;1673426268.116312;47.1306423;7.2406203;18.41900062561035;1673426268.2782962;-4.527387619018555;10.883820533752441;86.48733520507812
113;1673426268.313095;47.1306423;7.2406204;18.817001342773438;1673426268.4658837;-4.3516764640808105;7.377501964569092;87.013427734375
114;1673426268.5021286;47.1306423;7.2406204;19.211000442504883;1673426268.6671972;-4.65764856338501;6.0260186195373535;87.26904296875
115;1673426268.7090256;47.1306422;7.2406203;19.60700035095215;1673426268.8667736;-4.491811752319336;10.233229637145996;86.90083312988281
116;1673426268.9002275;47.1306422;7.2406203;20.00400161743164;1673426269.0561829;-4.561612129211426;8.779831886291504;87.05853271484375
117;1673426269.0942569;47.1306423;7.2406201999999995;20.398000717163086;1673426269.2612395;-4.9601874351501465;5.932714462280273;87.32585906982422
118;1673426269.298337;47.1306424;7.2406201;20.786001205444336;1673426269.4512856;-5.11083984375;9.243349075317383;86.92955780029297
119;1673426269.49129;47.1306425;7.24062;21.176000595092773;1673426269.6671588;-4.7642292976379395;10.448075294494629;86.81652069091797
120;1673426269.7042556;47.1306425;7.24062;21.57000160217285;1673426269.8774145;-4.989508628845215;6.129947662353516;87.27975463867188
121;1673426269.9131;47.1306424;7.2406198999999996;21.96200180053711;1673426270.0818775;-4.968979358673096;7.365859031677246;87.03638458251953
122;1673426270.12844;47.1306424;7.2406198999999996;22.35900115966797;1673426270.2941177;-4.967331409454346;10.9429931640625;86.70545196533203
123;1673426270.3293877;47.1306424;7.240619799999999;22.759000778198242;1673426270.5184133;-4.916963577270508;6.830400466918945;87.0932846069336
124;1673426270.550795;47.1306424;7.2406197;23.155000686645508;1673426270.7047582;-5.2013678550720215;6.970246315002441;87.17280578613281
125;1673426270.7414541;47.1306425;7.2406197;23.55500030517578;1673426270.901382;-5.019528388977051;10.795882225036621;86.75321197509766
126;1673426270.93608;47.130642599999995;7.2406196;23.95400047302246;1673426271.0872915;-4.964157581329346;7.965600967407227;87.10957336425781
127;1673426271.1206489;47.1306425;7.2406196;24.350000381469727;1673426271.2842648;-5.160327434539795;5.954541206359863;87.26703643798828
128;1673426271.3201666;47.1306424;7.2406197;24.751001358032227;1673426271.495929;-4.8482561111450195;10.53591537475586;86.78740692138672
129;1673426271.5342155;47.1306424;7.2406197;25.156002044677734;1673426271.6904917;-4.547683238983154;8.523012161254883;86.8995132446289
130;1673426271.7227287;47.1306425;7.240619799999999;25.556001663208008;1673426271.8799145;-4.598971843719482;6.0406951904296875;87.33133697509766
131;1673426271.914399;47.1306425;7.240619799999999;25.95100212097168;1673426272.0716279;-4.691775798797607;9.757039070129395;86.96971893310547
132;1673426272.1079886;47.130642599999995;7.240619799999999;26.34800148010254;1673426272.2995944;-4.868859767913818;10.056658744812012;86.98857879638672
133;1673426272.336373;47.130642599999995;7.240619799999999;26.746002197265625;1673426272.516217;-5.021360397338867;5.611486911773682;87.37933349609375
134;1673426272.5484653;47.1306425;7.240619799999999;27.149002075195312;1673426272.7072911;-5.157963275909424;9.101491928100586;86.8255386352539
135;1673426272.7435527;47.1306425;7.240619799999999;27.559001922607422;1673426272.9068687;-4.646951198577881;10.551799774169922;86.60199737548828
136;1673426272.9449718;47.1306425;7.240619799999999;27.96200180053711;1673426273.1037588;-4.701881408691406;6.283207416534424;87.08911895751953
137;1673426273.1408877;47.1306425;7.240619799999999;28.35700225830078;1673426273.300092;-4.888645172119141;7.838343620300293;87.01612091064453
138;1673426273.3344116;47.130642599999995;7.240619799999999;28.753002166748047;1673426273.5098662;-4.614607334136963;11.227911949157715;86.88785552978516
139;1673426273.5553746;47.130642599999995;7.2406197;29.150001525878906;1673426273.7073786;-5.042531490325928;7.250981330871582;87.2801513671875
140;1673426273.7372053;47.1306424;7.2406197;29.547000885009766;1673426273.8814118;-5.244103908538818;5.829479217529297;87.36378479003906
141;1673426273.9146013;47.1306423;7.2406197;29.94700050354004;1673426274.0794964;-5.025536060333252;10.74593448638916;86.68753051757812
142;1673426274.1161518;47.1306423;7.2406196;30.34600067138672;1673426274.2877834;-4.6609787940979;7.704829692840576;86.95037841796875
143;1673426274.325152;47.1306423;7.2406197;30.74300193786621;1673426274.4906683;-4.771207809448242;6.227991580963135;87.17743682861328
144;1673426274.5236046;47.1306423;7.2406197;31.13500213623047;1673426274.6843698;-4.974569797515869;10.21028995513916;86.68102264404297
145;1673426274.72576;47.1306424;7.240619799999999;31.531002044677734;1673426274.9057317;-4.798905849456787;9.345925331115723;86.94276428222656
146;1673426274.946762;47.1306424;7.240619799999999;31.9320011138916;1673426275.1081038;-5.033299922943115;5.488552093505859;87.38233184814453
147;1673426275.1540163;47.1306423;7.2406197;32.33500289916992;1673426275.3377855;-4.946755886077881;9.497476577758789;86.98287963867188
148;1673426275.3730762;47.1306423;7.2406197;32.736000061035156;1673426275.5667188;-4.713106155395508;9.910204887390137;86.93305969238281
149;1673426275.6049588;47.1306424;7.2406197;33.13500213623047;1673426275.7521517;-4.805743217468262;6.436374664306641;87.2161636352539
150;1673426275.7843945;47.1306424;7.2406197;33.53300094604492;1673426275.945861;-5.05019998550415;8.679516792297363;86.9802474975586
151;1673426275.9800832;47.1306425;7.2406197;33.932003021240234;1673426276.135486;-4.6629638671875;10.831567764282227;86.68162536621094
152;1673426276.1647682;47.1306425;7.240619799999999;34.33400344848633;1673426276.3154387;-4.816981315612793;6.599982738494873;87.19438934326172
153;1673426276.3525712;47.1306424;7.240619799999999;34.7400016784668;1673426276.5005057;-5.014509677886963;6.832884788513184;87.17228698730469
154;1673426276.5323179;47.1306424;7.240619799999999;35.14800262451172;1673426276.691426;-4.812359809875488;11.00164794921875;86.75416564941406
155;1673426276.7290637;47.1306424;7.2406197;35.55400085449219;1673426276.8967535;-4.9693684577941895;7.460610866546631;87.16169738769531
156;1673426276.9325101;47.1306425;7.2406197;35.95600128173828;1673426277.0854678;-5.080214023590088;6.386926174163818;87.2822036743164
157;1673426277.1206067;47.1306425;7.2406197;36.35100173950195;1673426277.2829442;-4.885694980621338;10.473732948303223;86.76036071777344
158;1673426277.318646;47.1306425;7.2406197;36.75100326538086;1673426277.4802263;-4.574702739715576;9.386919975280762;86.77613830566406
159;1673426277.5174837;47.1306425;7.240619799999999;37.150001525878906;1673426277.6679652;-4.601343154907227;5.510898113250732;87.20215606689453
160;1673426277.7122808;47.1306425;7.240619799999999;37.553001403808594;1673426277.8794837;-4.986327648162842;9.49743938446045;86.84259796142578
161;1673426277.9117377;47.130642599999995;7.240619799999999;37.95900344848633;1673426278.072696;-4.818176746368408;9.848283767700195;87.03025817871094
162;1673426278.1078336;47.130642699999996;7.2406197;38.35900115966797;1673426278.2622237;-5.153909206390381;6.323445796966553;87.3544921875
163;1673426278.2965348;47.130642699999996;7.2406197;38.75100326538086;1673426278.470454;-5.186587333679199;9.047261238098145;87.14818572998047
164;1673426278.5056262;47.1306428;7.2406197;39.14500045776367;1673426278.6586766;-4.647594928741455;11.05745792388916;86.69757080078125
165;1673426278.6978867;47.1306428;7.2406197;39.54100036621094;1673426278.8793042;-4.660560131072998;6.551087379455566;87.10647583007812
166;1673426278.9186518;47.1306428;7.2406197;39.93400192260742;1673426279.094751;-4.787014007568359;7.630889415740967;86.89842224121094
167;1673426279.132624;47.1306428;7.2406197;40.329002380371094;1673426279.2980556;-4.782299518585205;11.209324836730957;86.69558715820312
168;1673426279.3377147;47.1306428;7.2406197;40.72600173950195;1673426279.5043063;-4.819991588592529;7.261513710021973;87.24142456054688
169;1673426279.5409513;47.1306428;7.2406197;41.12300109863281;1673426279.6977408;-5.190013885498047;7.042400360107422;87.30142211914062
170;1673426279.7353754;47.130642699999996;7.2406197;41.51400375366211;1673426279.8922384;-4.764345169067383;10.766683578491211;86.83192443847656
171;1673426279.9276323;47.130642699999996;7.2406197;41.906002044677734;1673426280.095394;-4.486683368682861;7.48451566696167;86.97313690185547
172;1673426280.1321964;47.130642599999995;7.2406197;42.30000305175781;1673426280.2989917;-4.829158306121826;6.011466026306152;86.96344757080078
173;1673426280.3332803;47.130642599999995;7.2406197;42.69900131225586;1673426280.526355;-5.045352458953857;10.138298988342285;86.73743438720703
174;1673426280.5610483;47.130642599999995;7.2406196;43.09700393676758;1673426280.7151031;-4.903003215789795;9.133349418640137;86.91304779052734
175;1673426280.7527306;47.130642699999996;7.2406196;43.493003845214844;1673426280.9251628;-5.0655717849731445;6.196263313293457;87.33966064453125
176;1673426280.9715743;47.130642699999996;7.2406196;43.88100051879883;1673426281.1169596;-5.0552077293396;9.394086837768555;87.06245422363281
177;1673426281.1537604;47.1306428;7.2406196;44.272003173828125;1673426281.3095772;-4.550471782684326;10.742618560791016;86.86602783203125
178;1673426281.3501608;47.130642699999996;7.2406197;44.660003662109375;1673426281.548555;-4.743758678436279;5.949469566345215;87.35250091552734
179;1673426281.5807695;47.130642599999995;7.2406196;45.053001403808594;1673426281.7219653;-4.996060848236084;8.087077140808105;87.0603256225586
180;1673426281.7742307;47.130642599999995;7.2406196;45.45100402832031;1673426281.9198034;-4.794960975646973;10.47109603881836;86.77062225341797
181;1673426281.9679236;47.130642599999995;7.2406196;45.84800338745117;1673426282.1275077;-4.855411529541016;7.003912448883057;87.10547637939453
182;1673426282.1657815;47.130642599999995;7.2406196;46.24500274658203;1673426282.3415163;-5.224514007568359;7.034712791442871;87.08348846435547
183;1673426282.4049568;47.130642599999995;7.2406196;46.63600158691406;1673426282.5484123;-4.953397750854492;10.776548385620117;86.60783386230469
184;1673426282.5796587;47.1306425;7.2406196;47.02900314331055;1673426282.7218373;-4.7596540451049805;7.582879066467285;86.99187469482422
185;1673426282.790556;47.1306424;7.2406196;47.423004150390625;1673426282.939812;-4.984687328338623;5.823169231414795;87.30484008789062
186;1673426282.9760795;47.1306424;7.2406196;47.81900405883789;1673426283.1197588;-4.966554641723633;10.224333763122559;87.11571502685547
187;1673426283.1495798;47.1306425;7.2406196;48.19600296020508;1673426283.2867997;-5.05152702331543;9.77224063873291;87.22923278808594
188;1673426283.3205516;47.130642599999995;7.2406196;48.52400207519531;1673426283.4842162;-5.151961326599121;6.140891075134277;87.35435485839844
189;1673426283.5203772;47.130642699999996;7.240619499999999;48.79500198364258;1673426283.689792;-4.9338812828063965;11.232852935791016;86.8077621459961
190;1673426283.7309427;47.1306428;7.240619499999999;49.0260009765625;1673426283.8919187;-4.967715263366699;8.415209770202637;87.10636138916016
191;1673426283.9312246;47.1306429;7.2406194;49.22200393676758;1673426284.0900033;-0.02653571218252182;11.986891746520996;88.26947021484375
192;1673426284.122199;47.1306429;7.240619199999999;49.38800048828125;1673426284.2852201;16.516090393066406;32.08688735961914;99.5680923461914
193;1673426284.3202097;47.1306424;7.2406182;49.53600311279297;1673426284.485491;21.997356414794922;49.0029296875;110.2686767578125
194;1673426284.5208619;47.1306406;7.2406147;49.663002014160156;1673426284.6826825;18.11421775817871;57.725135803222656;118.67606353759766
195;1673426284.7186058;47.1306365;7.2406074;49.7650032043457;1673426284.8893144;0.9646252989768982;59.55079650878906;128.099609375
196;1673426284.9245687;47.130629899999995;7.2405962;49.81700134277344;1673426285.0963728;-14.044694900512695;53.22515869140625;139.19308471679688
197;1673426285.1369357;47.1306211;7.2405819;49.84400177001953;1673426285.294927;-27.112043380737305;51.39554214477539;148.14199829101562
198;1673426285.3313725;47.130610499999996;7.2405653999999995;49.86000061035156;1673426285.500064;-39.25414276123047;44.98295593261719;160.641357421875
199;1673426285.540312;47.1305984;7.240546999999999;49.85700225830078;1673426285.683555;-48.47629165649414;40.9106559753418;174.02699279785156
200;1673426285.7148893;47.130584999999996;7.240526399999999;49.836002349853516;1673426285.884786;-47.617008209228516;28.87604331970215;-175.24880981445312
201;1673426285.9288204;47.1305705;7.2405037;49.788002014160156;1673426286.09099;-44.878684997558594;21.470184326171875;-170.18280029296875
202;1673426286.1281493;47.1305556;7.2404801;49.73400115966797;1673426286.2983758;-48.209556579589844;16.458478927612305;-162.9949951171875
203;1673426286.3348598;47.1305402;7.2404554999999995;49.68600082397461;1673426286.4867828;-48.86735916137695;10.48244571685791;-154.84152221679688
204;1673426286.5180278;47.1305243;7.24043;49.637001037597656;1673426286.6775987;-45.47831726074219;4.899247646331787;-147.6915283203125
205;1673426286.713703;47.1305081;7.240404;49.590003967285156;1673426286.8867426;-45.8776741027832;-0.040563881397247314;-141.3557891845703
206;1673426286.9228542;47.130491899999996;7.2403778;49.56800079345703;1673426287.0842164;-47.751197814941406;-4.890070915222168;-134.62368774414062
207;1673426287.1204906;47.1304757;7.2403514;49.560001373291016;1673426287.2745292;-46.84833908081055;-12.006484985351562;-132.91586303710938
208;1673426287.3096707;47.1304593;7.2403249999999995;49.560001373291016;1673426287.4670506;-47.00986862182617;-11.58194637298584;-136.53414916992188
209;1673426287.5071092;47.1304425;7.2402992;49.56300354003906;1673426287.6771626;-46.681610107421875;-9.781790733337402;-138.82373046875
210;1673426287.712354;47.1304253;7.2402738;49.57100296020508;1673426287.8730216;-47.724239349365234;-9.166457176208496;-139.55360412597656
211;1673426287.9112341;47.130407899999994;7.2402486999999995;49.58700180053711;1673426288.0857613;-48.48551559448242;-7.663396835327148;-140.3625946044922
212;1673426288.1210845;47.13039;7.2402239999999995;49.608001708984375;1673426288.2789402;-49.0621337890625;-6.226012229919434;-140.8612823486328
213;1673426288.313109;47.130372;7.2401995999999995;49.630001068115234;1673426288.481956;-49.07453536987305;-5.474899768829346;-140.90480041503906
214;1673426288.5153234;47.1303536;7.2401751999999995;49.650001525878906;1673426288.6747;-48.3213005065918;-5.109318256378174;-140.69741821289062
215;1673426288.710842;47.130335099999996;7.240151;49.663002014160156;1673426288.8801897;-47.46485137939453;-5.080774784088135;-140.36856079101562
216;1673426288.9157426;47.1303166;7.240126699999999;49.676002502441406;1673426289.0833917;-47.11470031738281;-5.319533824920654;-140.03298950195312
217;1673426289.1278374;47.130297999999996;7.240102299999999;49.68600082397461;1673426289.3211722;-47.211544036865234;-5.592151641845703;-139.78363037109375
218;1673426289.348527;47.1302794;7.240078;49.69900131225586;1673426289.5230782;-47.551822662353516;-5.760866165161133;-139.61685180664062
219;1673426289.556804;47.130260899999996;7.2400535999999995;49.71000289916992;1673426289.7140758;-47.54821014404297;-5.8855414390563965;-139.46435546875
220;1673426289.7525237;47.1302423;7.2400291999999995;49.720001220703125;1673426289.895073;-47.277828216552734;-5.837209701538086;-139.3369903564453
221;1673426289.9371336;47.130223799999996;7.2400049;49.72900390625;1673426290.0904422;-47.07727813720703;-5.926858425140381;-139.1553192138672
222;1673426290.1256225;47.1302052;7.2399806;49.73400115966797;1673426290.278109;-47.003936767578125;-5.846358776092529;-139.07398986816406
223;1673426290.3142436;47.130186699999996;7.2399562;49.74400329589844;1673426290.4840758;-47.4488410949707;-5.96156120300293;-138.9929962158203
224;1673426290.5262806;47.1301682;7.2399317;49.75600051879883;1673426290.7109654;-47.72463607788086;-5.970500946044922;-138.93035888671875
225;1673426290.739381;47.1301497;7.2399073;49.76300048828125;1673426290.8921666;-47.42240905761719;-5.904446125030518;-138.89122009277344
226;1673426290.935121;47.1301312;7.239882799999999;49.775001525878906;1673426291.1199417;-47.58110046386719;-5.940354824066162;-138.85183715820312
227;1673426291.1961477;47.1301127;7.2398582;49.788002014160156;1673426291.3447952;-47.914772033691406;-5.9729533195495605;-138.7908172607422
228;1673426291.374139;47.130094299999996;7.239833699999999;49.79300308227539;1673426291.5634315;-47.65753936767578;-5.903604984283447;-138.7665557861328
229;1673426291.6007116;47.1300758;7.2398090999999996;49.798004150390625;1673426291.742142;-47.28114700317383;-5.867059707641602;-138.7472686767578
230;1673426291.7894032;47.1300573;7.2397844;49.802001953125;1673426291.972215;-47.4180793762207;-5.835836887359619;-138.73097229003906
231;1673426292.0195534;47.130038899999995;7.2397597;49.803001403808594;1673426292.1682053;-47.59446334838867;-5.908831596374512;-138.6805877685547
232;1673426292.2083602;47.1300205;7.239735;49.802001953125;1673426292.3469398;-47.531246185302734;-5.864334583282471;-138.6918487548828
233;1673426292.3772001;47.1300021;7.239710199999999;49.802001953125;1673426292.512771;-47.3898811340332;-5.854548931121826;-138.69033813476562
234;1673426292.5440996;47.1299837;7.2396854;49.803001403808594;1673426292.6884255;-47.56410598754883;-5.855416774749756;-138.6614990234375
235;1673426292.7218611;47.129965299999995;7.2396606;49.803001403808594;1673426292.881358;-47.6451530456543;-5.872676372528076;-138.6485595703125
236;1673426292.9135814;47.129947;7.239635799999999;49.80400085449219;1673426293.0817037;-47.680938720703125;-5.868588924407959;-138.66795349121094
237;1673426293.1188219;47.1299286;7.2396109;49.807003021240234;1673426293.28862;-47.7415885925293;-5.882188320159912;-138.66751098632812
238;1673426293.3244402;47.1299103;7.239586;49.80900192260742;1673426293.488628;-47.63694381713867;-5.864701271057129;-138.6971435546875
239;1673426293.5249193;47.1298919;7.2395610999999995;49.810001373291016;1673426293.710405;-47.54354476928711;-5.836121559143066;-138.71527099609375
240;1673426293.7477705;47.129873599999996;7.2395361;49.80900192260742;1673426293.9193866;-47.458858489990234;-5.802023887634277;-138.68739318847656
241;1673426293.9521418;47.129855199999994;7.2395112;49.80900192260742;1673426294.101524;-47.30455780029297;-5.762895584106445;-138.70327758789062
242;1673426294.1366615;47.1298369;7.2394862;49.807003021240234;1673426294.3024552;-47.2775764465332;-5.772277355194092;-138.7120361328125
243;1673426294.3412497;47.1298185;7.2394612;49.803001403808594;1673426294.5156245;-47.11245346069336;-5.765344619750977;-138.70074462890625
244;1673426294.553293;47.1298002;7.2394362;49.802001953125;1673426294.7032845;-47.28223419189453;-5.779475212097168;-138.72708129882812
245;1673426294.7366948;47.1297819;7.239411199999999;49.80600357055664;1673426294.8923297;-47.7078857421875;-5.811300277709961;-138.73422241210938
246;1673426294.9326198;47.1297636;7.239386199999999;49.810001373291016;1673426295.1101542;-47.77003479003906;-5.769207954406738;-138.79632568359375
247;1673426295.146507;47.129745299999996;7.239361199999999;49.810001373291016;1673426295.3042247;-47.43192672729492;-5.712131500244141;-138.83493041992188
248;1673426295.3469303;47.129726999999995;7.2393361;49.81300354003906;1673426295.5077689;-47.40530776977539;-5.711242198944092;-138.8299102783203
249;1673426295.5439184;47.129708699999995;7.239311;49.81800079345703;1673426295.7117126;-47.56833267211914;-5.700934410095215;-138.86288452148438
250;1673426295.749966;47.1296903;7.239286;49.823001861572266;1673426295.9237907;-47.70572280883789;-5.653829097747803;-138.87094116210938
251;1673426295.9675283;47.129672;7.239261;49.829002380371094;1673426296.1190536;-47.82109451293945;-5.633493900299072;-138.9070587158203
252;1673426296.1685975;47.1296537;7.2392359;49.840003967285156;1673426296.341676;-47.806732177734375;-5.548218727111816;-138.97491455078125
253;1673426296.3768425;47.1296353;7.2392109;49.84700393676758;1673426296.532514;-47.55971145629883;-5.512497901916504;-138.98458862304688
254;1673426296.5633755;47.129616899999995;7.2391858;49.85200119018555;1673426296.7559817;-47.522708892822266;-5.530390739440918;-139.00271606445312
255;1673426296.8184426;47.1295986;7.2391606;49.855003356933594;1673426296.9858582;-47.43305206298828;-5.500601768493652;-139.05455017089844
256;1673426297.0132499;47.1295802;7.2391355;49.862003326416016;1673426297.1646585;-47.55122375488281;-5.448640823364258;-139.09190368652344
257;1673426297.1999443;47.1295618;7.2391103999999995;49.87000274658203;1673426297.3622386;-47.72622299194336;-5.400331497192383;-139.14796447753906
258;1673426297.3944468;47.1295435;7.239085299999999;49.87800216674805;1673426297.5467052;-47.69541549682617;-5.3325934410095215;-139.19503784179688
259;1673426297.5838304;47.129525;7.2390601;49.88600158691406;1673426297.7341652;-47.741695404052734;-5.270431995391846;-139.26275634765625
260;1673426297.766463;47.1295066;7.239034999999999;49.8900032043457;1673426297.9206414;-47.50568771362305;-5.228930473327637;-139.30377197265625
261;1673426297.9590404;47.1294882;7.2390096999999995;49.89400100708008;1673426298.1169755;-47.33625411987305;-5.181285381317139;-139.37802124023438
262;1673426298.1540678;47.129469799999995;7.2389845;49.90200424194336;1673426298.3165433;-47.71688461303711;-5.128772258758545;-139.4734344482422
263;1673426298.351174;47.1294514;7.2389594;49.91100311279297;1673426298.5069952;-47.866859436035156;-5.847506046295166;-139.34686279296875
264;1673426298.5443563;47.129433;7.2389342999999995;49.91800308227539;1673426298.706742;-47.85645294189453;-5.844682216644287;-139.67843627929688
265;1673426298.7678888;47.129414499999996;7.238909199999999;49.926002502441406;1673426298.921868;-47.66178894042969;-6.8955078125;-139.55772399902344
266;1673426298.9531167;47.129396;7.2388841;49.935001373291016;1673426299.108616;-47.494781494140625;-7.060870170593262;-139.9658966064453
267;1673426299.1438859;47.129377299999994;7.238859199999999;49.94300079345703;1673426299.3078947;-47.9373664855957;-7.095336437225342;-140.17172241210938
268;1673426299.3401387;47.129358599999996;7.238834499999999;49.95000076293945;1673426299.4915557;-47.755985260009766;-7.842870235443115;-140.25245666503906
269;1673426299.533622;47.129339699999996;7.2388099;49.957000732421875;1673426299.6861784;-47.466670989990234;-8.481830596923828;-140.46865844726562
270;1673426299.724427;47.1293207;7.2387855;49.9630012512207;1673426299.894183;-47.46952438354492;-8.935522079467773;-140.68055725097656
271;1673426299.9352684;47.1293016;7.2387614;49.970001220703125;1673426300.1014707;-45.966827392578125;-9.139178276062012;-141.0003662109375
272;1673426300.1463704;47.1292823;7.2387377;49.980003356933594;1673426300.295712;-35.46428680419922;-8.915125846862793;-141.26507568359375
273;1673426300.3413818;47.1292632;7.2387144999999995;50.01000213623047;1673426300.5065274;-18.404312133789062;-9.206192970275879;-139.4636993408203
274;1673426300.5408697;47.129244799999995;7.2386925;50.03600311279297;1673426300.7122173;-3.0450599193573;-7.207210063934326;-137.8575439453125
275;1673426300.7471378;47.1292279;7.238672299999999;50.05000305175781;1673426300.9147742;7.594854831695557;-5.690101146697998;-136.7608642578125
276;1673426300.9538226;47.129213;7.2386544;50.053001403808594;1673426301.127878;13.452701568603516;-5.571529388427734;-136.7442169189453
277;1673426301.1602285;47.1292007;7.2386392;50.04300308227539;1673426301.3215032;18.598346710205078;-3.237917423248291;-136.8345184326172
278;1673426301.3531234;47.1291909;7.2386266;50.00400161743164;1673426301.495809;21.0341739654541;-5.653132438659668;-136.15396118164062
279;1673426301.53397;47.1291833;7.2386164;49.93100357055664;1673426301.6912389;15.059659957885742;-15.696089744567871;-136.19491577148438
280;1673426301.7304265;47.1291778;7.2386086999999995;49.858001708984375;1673426301.9051597;6.773772239685059;-15.325241088867188;-137.1057586669922
281;1673426301.9513562;47.129173599999994;7.2386032;49.797000885009766;1673426302.1152453;-1.0115910768508911;-16.504621505737305;-136.41392517089844
282;1673426302.1505957;47.129170099999996;7.2385994;49.772003173828125;1673426302.3045266;-7.255001068115234;-12.750691413879395;-136.59593200683594
283;1673426302.3405201;47.1291669;7.238596599999999;49.788002014160156;1673426302.5152712;-10.337077140808105;-9.77538013458252;-136.33010864257812
284;1673426302.5570872;47.1291637;7.2385942;49.8390007019043;1673426302.716115;-11.48021411895752;-7.987009525299072;-134.49224853515625
285;1673426302.746524;47.1291606;7.2385917;49.897003173828125;1673426302.9396358;-11.57630443572998;-6.777825355529785;-131.9376678466797
286;1673426302.981331;47.1291576;7.2385888;49.94700241088867;1673426303.1390033;-9.885350227355957;-5.380317211151123;-129.44387817382812
287;1673426303.1737397;47.1291547;7.2385853;49.9900016784668;1673426303.3330061;-10.130370140075684;-3.308652877807617;-128.86929321289062
288;1673426303.3692114;47.1291522;7.2385815;50.03200149536133;1673426303.566564;-28.16346549987793;-3.0800089836120605;-135.91075134277344
289;1673426303.6114595;47.1291496;7.238576999999999;50.105003356933594;1673426303.7913356;-30.414140701293945;-0.9319385886192322;-140.53292846679688
290;1673426303.8215914;47.129146299999995;7.238570999999999;50.21600341796875;1673426303.960629;-16.036073684692383;-1.3946088552474976;-139.9082489013672
291;1673426303.995323;47.1291424;7.2385639;50.38100051879883;1673426304.1472259;-18.004493713378906;-3.139216899871826;-138.26058959960938
292;1673426304.1809597;47.1291386;7.238556099999999;50.64600372314453;1673426304.3419082;-23.71588134765625;-1.902328610420227;-137.7801055908203
293;1673426304.3763804;47.129134799999996;7.2385477;50.9900016784668;1673426304.5353904;-40.9649658203125;-11.501513481140137;-137.40777587890625
294;1673426304.5789907;47.1291303;7.2385385;51.362003326416016;1673426304.7410681;-46.54512023925781;-11.907849311828613;-138.41770935058594
295;1673426304.774559;47.129123899999996;7.238528;51.737003326416016;1673426304.9219697;-41.732200622558594;-12.696693420410156;-138.03634643554688
296;1673426304.9631965;47.1291155;7.2385163;52.10400390625;1673426305.1281903;-37.5981559753418;-11.725934028625488;-137.82479858398438
297;1673426305.1645482;47.1291059;7.2385038999999995;52.457000732421875;1673426305.3205657;-32.079376220703125;-11.767662048339844;-137.3938446044922
298;1673426305.3513649;47.1290956;7.238491;52.797000885009766;1673426305.5075457;-29.50775146484375;-9.050885200500488;-137.21702575683594
299;1673426305.5476758;47.129084999999996;7.2384778999999995;53.14200210571289;1673426305.7175732;-27.149673461914062;-7.883161544799805;-137.07391357421875
300;1673426305.755662;47.1290743;7.2384647;53.49200439453125;1673426305.9467294;-26.196083068847656;-5.766066074371338;-137.2182159423828
301;1673426305.9801757;47.1290638;7.2384514;53.85000228881836;1673426306.1258307;-25.39095115661621;-4.773350238800049;-137.3218994140625
302;1673426306.1590064;47.1290535;7.2384382;54.21600341796875;1673426306.3143275;-25.541921615600586;-4.191144943237305;-137.2737579345703
303;1673426306.3548853;47.1290434;7.2384249;54.5880012512207;1673426306.5157058;-25.815275192260742;-4.767566204071045;-137.1427764892578
304;1673426306.5525577;47.1290335;7.2384116;54.9630012512207;1673426306.7225542;-26.395835876464844;-5.964130401611328;-136.92794799804688
305;1673426306.7609234;47.1290239;7.2383983;55.34300231933594;1673426306.9198134;-26.82413101196289;-7.812304973602295;-136.7317352294922
306;1673426306.9540646;47.129014399999996;7.2383849;55.72500228881836;1673426307.1133573;-27.78369140625;-9.274494171142578;-136.42025756835938
307;1673426307.1553333;47.1290049;7.2383714999999995;56.112003326416016;1673426307.33868;-27.91305923461914;-9.401643753051758;-136.60755920410156
308;1673426307.3748426;47.1289954;7.238358099999999;56.500003814697266;1673426307.558413;-28.171598434448242;-8.818669319152832;-136.70663452148438
309;1673426307.5925925;47.128985799999995;7.2383446;56.89200210571289;1673426307.7502875;-28.303781509399414;-7.8296732902526855;-136.96107482910156
310;1673426307.7874858;47.1289762;7.238331199999999;57.285003662109375;1673426307.9372182;-28.16124725341797;-6.397975921630859;-137.44314575195312
311;1673426307.9686162;47.1289666;7.2383177;57.677001953125;1673426308.1110382;-28.063520431518555;-6.6865692138671875;-137.2996826171875
312;1673426308.153133;47.1289569;7.2383042;58.06900405883789;1673426308.3252149;-28.062694549560547;-6.918936252593994;-137.41094970703125
313;1673426308.3632755;47.1289472;7.2382908;58.45700454711914;1673426308.514663;-27.93750762939453;-8.244483947753906;-136.98190307617188
314;1673426308.5509207;47.1289375;7.2382773;58.84800338745117;1673426308.7162845;-27.783344268798828;-9.17255973815918;-136.84341430664062
315;1673426308.74769;47.1289278;7.2382637999999995;59.2400016784668;1673426308.9222033;-27.467763900756836;-10.063806533813477;-136.49151611328125
316;1673426308.9572427;47.1289181;7.2382503;59.634002685546875;1673426309.111171;-27.282604217529297;-10.065685272216797;-136.39646911621094
317;1673426309.1454706;47.1289083;7.2382368999999995;60.025001525878906;1673426309.29963;-27.635522842407227;-9.582724571228027;-136.58377075195312
318;1673426309.3372877;47.1288985;7.238223499999999;60.41400146484375;1673426309.5167673;-27.39887046813965;-9.334989547729492;-136.70742797851562
319;1673426309.5647502;47.1288887;7.238210199999999;60.801002502441406;1673426309.7525277;-27.76032066345215;-8.504009246826172;-136.85604858398438
320;1673426309.816257;47.128879;7.238196899999999;61.19200134277344;1673426309.9863062;-27.870656967163086;-7.865444660186768;-136.9496612548828
321;1673426310.0438902;47.1288692;7.238183599999999;61.58200454711914;1673426310.180657;-28.060592651367188;-7.187127590179443;-137.22805786132812
322;1673426310.2120504;47.1288595;7.2381702;61.97500228881836;1673426310.3911746;-28.264358520507812;-6.819186687469482;-137.3602294921875
323;1673426310.423428;47.128849699999996;7.2381568;62.36700439453125;1673426310.5703752;-28.209415435791016;-6.735034465789795;-137.17196655273438
324;1673426310.6070185;47.128839899999996;7.2381435;62.756004333496094;1673426310.769718;-28.23619842529297;-6.803330421447754;-137.1512908935547
325;1673426310.806617;47.128830099999995;7.238130099999999;63.144004821777344;1673426310.9614213;-28.44698715209961;-6.8512492179870605;-137.18283081054688
326;1673426311.0016663;47.1288203;7.2381167;63.52900314331055;1673426311.139832;-28.378847122192383;-7.3200883865356445;-137.06964111328125
327;1673426311.1774666;47.1288105;7.2381033;63.919002532958984;1673426311.3420527;-28.3087158203125;-7.909555912017822;-136.91030883789062
328;1673426311.3811326;47.1288007;7.2380898;64.31300354003906;1673426311.5398066;-28.29875373840332;-8.623597145080566;-136.769287109375
329;1673426311.5749402;47.1287909;7.2380762999999995;64.70700073242188;1673426311.7407002;-28.28584861755371;-9.29980182647705;-136.667236328125
330;1673426311.7768443;47.128781;7.2380628;65.09900665283203;1673426311.9417615;-28.19668197631836;-9.391827583312988;-136.5730743408203
331;1673426311.97701;47.128771099999994;7.238049299999999;65.49200439453125;1673426312.1289675;-28.294939041137695;-9.501114845275879;-136.63526916503906
332;1673426312.1641288;47.1287612;7.2380358;65.8810043334961;1673426312.343217;-28.373035430908203;-9.45419692993164;-136.5281982421875
333;1673426312.38187;47.1287513;7.2380223;66.26800537109375;1673426312.5644114;-28.34000587463379;-8.778511047363281;-136.71438598632812
334;1673426312.6005545;47.128741299999994;7.2380089;66.66000366210938;1673426312.7468154;-28.552831649780273;-8.57139778137207;-136.75430297851562
335;1673426312.7772877;47.1287313;7.2379954;67.05400085449219;1673426312.941677;-28.728845596313477;-8.245552062988281;-136.79344177246094
336;1673426312.980818;47.128721299999995;7.237981899999999;67.44700622558594;1673426313.1409895;-28.57860565185547;-7.8526835441589355;-136.86077880859375
337;1673426313.1753025;47.1287113;7.2379682999999995;67.83800506591797;1673426313.3273897;-28.61808204650879;-7.5120320320129395;-136.9990997314453
338;1673426313.3605773;47.1287014;7.2379546999999995;68.2280044555664;1673426313.5198529;-28.637502670288086;-7.721792221069336;-136.90834045410156
339;1673426313.5522995;47.1286914;7.237940999999999;68.62000274658203;1673426313.7266905;-28.5579776763916;-7.609546661376953;-137.01123046875
340;1673426313.7618268;47.1286815;7.2379273;69.02000427246094;1673426313.9207065;-28.54924964904785;-7.740506172180176;-137.03562927246094
341;1673426313.9516077;47.1286716;7.2379134999999994;69.42000579833984;1673426314.1055942;-28.53933334350586;-7.668678283691406;-137.05230712890625
342;1673426314.1399057;47.128661699999995;7.2378997;69.81900024414062;1673426314.298209;-28.47382926940918;-7.653833389282227;-137.0894012451172
343;1673426314.3370833;47.1286517;7.237886;70.21800231933594;1673426314.5126069;-28.52251434326172;-7.503421783447266;-137.1342010498047
344;1673426314.5557451;47.1286418;7.237872299999999;70.61700439453125;1673426314.7150702;-28.303186416625977;-7.38060998916626;-137.1595001220703
345;1673426314.7475903;47.1286318;7.237858699999999;71.01399993896484;1673426314.9156778;-28.35805320739746;-7.32507848739624;-137.11012268066406
346;1673426314.951335;47.1286219;7.237845;71.41100311279297;1673426315.1214159;-28.222909927368164;-7.555574417114258;-137.03611755371094
347;1673426315.1625357;47.128611899999996;7.237831399999999;71.81000518798828;1673426315.3192403;-28.15252685546875;-7.820765018463135;-136.99148559570312
348;1673426315.357156;47.1286019;7.2378177;72.20500183105469;1673426315.5253236;-28.210403442382812;-7.893223285675049;-136.91473388671875
349;1673426315.5605571;47.128592;7.2378041;72.60100555419922;1673426315.7496128;-28.386669158935547;-8.145180702209473;-136.81834411621094
350;1673426315.7887435;47.128581999999994;7.2377905;72.99600219726562;1673426315.9574327;-28.660480499267578;-8.151299476623535;-136.8400115966797
351;1673426315.9946468;47.1285721;7.2377769999999995;73.39100646972656;1673426316.146647;-28.81319236755371;-8.286441802978516;-136.7759552001953
352;1673426316.1849802;47.1285622;7.2377633999999995;73.78700256347656;1673426316.3463652;-28.72250747680664;-8.36571979522705;-136.8237762451172
353;1673426316.3859594;47.128552299999996;7.237749699999999;74.18500518798828;1673426316.5903144;-28.673166275024414;-8.340458869934082;-136.82957458496094
354;1673426316.6246111;47.1285423;7.237736099999999;74.58900451660156;1673426316.8194468;-28.65077781677246;-8.31193733215332;-136.7948455810547
355;1673426316.8467674;47.128532299999996;7.237722499999999;74.99600219726562;1673426317.0202255;-28.553539276123047;-8.431417465209961;-136.79931640625
356;1673426317.0475614;47.1285224;7.2377088;75.4000015258789;1673426317.2320616;-28.514976501464844;-8.394287109375;-136.81520080566406
357;1673426317.2593846;47.1285124;7.2376951;75.79800415039062;1673426317.3875525;-28.49220848083496;-8.484086990356445;-136.7717742919922
358;1673426317.4207392;47.128502499999996;7.2376815;76.19300079345703;1673426317.5683308;-28.53767967224121;-8.36601448059082;-136.8143768310547
359;1673426317.6020222;47.1284926;7.2376678;76.58800506591797;1673426317.7591622;-28.49278450012207;-8.372576713562012;-136.86204528808594
360;1673426317.793054;47.1284826;7.2376542;76.98600006103516;1673426317.9751961;-28.57549285888672;-8.334446907043457;-136.85537719726562
361;1673426318.0121133;47.128472699999996;7.2376404999999995;77.38899993896484;1673426318.1711044;-28.510087966918945;-8.21208667755127;-136.9187774658203
362;1673426318.2064142;47.1284628;7.237626799999999;77.78800201416016;1673426318.3647206;-28.479557037353516;-8.326027870178223;-136.881103515625
363;1673426318.4010427;47.1284529;7.2376131;78.18600463867188;1673426318.55208;-28.61507225036621;-8.335501670837402;-136.88136291503906
364;1673426318.583345;47.128443;7.2375995;78.5840072631836;1673426318.7359965;-28.50096321105957;-8.084888458251953;-136.95217895507812
365;1673426318.7694018;47.128433099999995;7.2375859;78.9800033569336;1673426318.9168324;-28.50121307373047;-8.17285442352295;-136.9160919189453
366;1673426318.9685607;47.1284232;7.2375722;79.375;1673426319.1397693;-28.637849807739258;-8.067102432250977;-136.92266845703125
367;1673426319.174091;47.1284133;7.2375586;79.76900482177734;1673426319.3322942;-28.667320251464844;-8.150691032409668;-136.92474365234375
368;1673426319.3714783;47.128403399999996;7.2375449;80.16300201416016;1673426319.5405738;-28.644977569580078;-8.148505210876465;-136.94418334960938
369;1673426319.5740116;47.1283935;7.2375313;80.5570068359375;1673426319.734747;-28.426794052124023;-8.088948249816895;-136.97019958496094
370;1673426319.774889;47.1283836;7.237517599999999;80.9520034790039;1673426319.9322865;-28.50739860534668;-8.10781478881836;-136.95448303222656
371;1673426319.9691067;47.128373599999996;7.2375039;81.34700012207031;1673426320.131495;-28.426942825317383;-8.142744064331055;-136.91085815429688
372;1673426320.170583;47.1283637;7.2374902;81.74100494384766;1673426320.3593862;-28.46436882019043;-8.196098327636719;-136.90611267089844
373;1673426320.4032657;47.1283537;7.2374766;82.13800048828125;1673426320.5591342;-28.411304473876953;-8.12353229522705;-136.92825317382812
374;1673426320.592374;47.128343799999996;7.2374629;82.53700256347656;1673426320.7426817;-28.31678581237793;-8.240004539489746;-136.9276885986328
375;1673426320.7778375;47.1283339;7.2374493;82.93400573730469;1673426320.9390793;-28.365478515625;-8.090054512023926;-136.92774963378906
376;1673426320.9750268;47.1283239;7.2374355999999995;83.3340072631836;1673426321.1312299;-28.40040397644043;-8.148382186889648;-136.9059600830078
377;1673426321.1654792;47.128313999999996;7.237422;83.73400115966797;1673426321.326659;-28.447877883911133;-8.170845031738281;-136.9327392578125
378;1673426321.3672533;47.1283041;7.2374084;84.13400268554688;1673426321.5190554;-28.450973510742188;-8.0580472946167;-136.92494201660156
379;1673426321.5571718;47.1282942;7.2373948;84.53400421142578;1673426321.727203;-28.41571617126465;-8.073369026184082;-136.92555236816406
380;1673426321.7653916;47.128284199999996;7.2373812;84.9320068359375;1673426321.935312;-28.36960220336914;-8.137351036071777;-136.9100799560547
381;1673426321.9730964;47.1282743;7.2373674999999995;85.3330078125;1673426322.1584413;-28.348037719726562;-8.192715644836426;-136.90151977539062
382;1673426322.1951003;47.1282644;7.2373539;85.73200225830078;1673426322.3559813;-28.416379928588867;-8.200700759887695;-136.91934204101562
383;1673426322.3936653;47.1282545;7.237340199999999;86.12500762939453;1673426322.5426183;-28.527711868286133;-8.134023666381836;-136.93789672851562
384;1673426322.574975;47.128244599999995;7.2373267;86.52000427246094;1673426322.7224684;-28.3817195892334;-8.189916610717773;-136.9011688232422
385;1673426322.7615309;47.1282347;7.2373131;86.91700744628906;1673426322.917544;-28.432662963867188;-8.199496269226074;-136.92416381835938
386;1673426322.9528365;47.1282247;7.2372995;87.31600189208984;1673426323.1271048;-28.411054611206055;-8.286781311035156;-136.9102020263672
387;1673426323.1641936;47.128214799999995;7.2372857999999995;87.71700286865234;1673426323.331959;-28.431028366088867;-8.286731719970703;-136.9260711669922
388;1673426323.3681586;47.1282049;7.2372722;88.11700439453125;1673426323.535617;-28.479310989379883;-8.192371368408203;-136.92233276367188
389;1673426323.5728178;47.1281949;7.2372586;88.51500701904297;1673426323.740822;-28.32895278930664;-8.344259262084961;-136.88282775878906
390;1673426323.775869;47.128184999999995;7.237245;88.91400146484375;1673426323.9460516;-28.299968719482422;-8.268415451049805;-136.89825439453125
391;1673426323.9833977;47.128175;7.2372314;89.31400299072266;1673426324.1634948;-28.362762451171875;-8.279738426208496;-136.9037322998047
392;1673426324.2017329;47.1281651;7.2372179;89.71400451660156;1673426324.3616555;-28.3190860748291;-8.320394515991211;-136.9174346923828
393;1673426324.400274;47.128155199999995;7.237204299999999;90.11300659179688;1673426324.5534074;-28.348522186279297;-8.204061508178711;-136.9151611328125
394;1673426324.5875812;47.1281452;7.237190699999999;90.51200103759766;1673426324.7361243;-28.37786293029785;-8.405052185058594;-136.89031982421875
395;1673426324.7712548;47.1281353;7.237177099999999;90.91100311279297;1673426324.9227808;-28.42786407470703;-8.184975624084473;-136.8869171142578
396;1673426324.9588947;47.1281253;7.2371636;91.3070068359375;1673426325.1206913;-28.38313102722168;-8.237452507019043;-136.87985229492188
397;1673426325.155923;47.1281154;7.23715;91.7030029296875;1673426325.3279989;-28.39712905883789;-8.23589038848877;-136.88186645507812
398;1673426325.3670692;47.1281055;7.2371365;92.10100555419922;1673426325.5362854;-28.408723831176758;-8.112777709960938;-136.89781188964844
399;1673426325.5763016;47.1280955;7.237122899999999;92.50000762939453;1673426325.744266;-28.262630462646484;-8.164319038391113;-136.86317443847656
400;1673426325.7842863;47.1280855;7.237109299999999;92.89900207519531;1673426325.959243;-28.25421905517578;-8.157607078552246;-136.8794403076172
401;1673426325.9992394;47.1280755;7.237095699999999;93.29800415039062;1673426326.1433628;-28.12671661376953;-8.170443534851074;-136.85787963867188
402;1673426326.1825967;47.1280655;7.237082099999999;93.69500732421875;1673426326.3481011;-28.20313835144043;-8.187514305114746;-136.84483337402344
403;1673426326.3783581;47.128055599999996;7.2370686;94.09200286865234;1673426326.541312;-28.148223876953125;-8.186184883117676;-136.83230590820312
404;1673426326.5813992;47.1280457;7.2370548999999995;94.49000549316406;1673426326.7463732;-28.29758071899414;-8.301750183105469;-136.86727905273438
405;1673426326.786758;47.1280358;7.2370413;94.89100646972656;1673426326.9387739;-28.00709342956543;-8.22775936126709;-136.88429260253906
406;1673426326.9760914;47.128025799999996;7.2370278;95.28900146484375;1673426327.155711;-28.228801727294922;-8.203325271606445;-136.82858276367188
407;1673426327.1998017;47.1280159;7.2370142;95.68700408935547;1673426327.3622625;-28.144561767578125;-8.235762596130371;-136.81455993652344
408;1673426327.4021163;47.1280059;7.237000699999999;96.08600616455078;1673426327.5623286;-28.156002044677734;-8.153094291687012;-136.80667114257812
409;1673426327.5977736;47.127995999999996;7.2369870999999995;96.48800659179688;1673426327.756491;-28.221389770507812;-8.219396591186523;-136.80490112304688
410;1673426327.7887003;47.127986199999995;7.2369734999999995;96.89000701904297;1673426327.9473054;-28.36253547668457;-8.337797164916992;-136.83860778808594
411;1673426327.988551;47.1279763;7.2369599;97.29100799560547;1673426328.1427686;-28.40729331970215;-8.234914779663086;-136.84938049316406
412;1673426328.179033;47.1279664;7.2369464;97.69100189208984;1673426328.3393292;-28.335128784179688;-8.155413627624512;-136.8173065185547
413;1673426328.37754;47.127956499999996;7.2369328;98.08900451660156;1673426328.5357194;-28.295547485351562;-8.202661514282227;-136.8383331298828
414;1673426328.5724113;47.1279465;7.2369192;98.4850082397461;1673426328.7375255;-28.388072967529297;-8.129725456237793;-136.8186798095703
415;1673426328.772661;47.1279366;7.2369056;98.88200378417969;1673426328.9263752;-28.334619522094727;-8.111132621765137;-136.8385772705078
416;1673426328.962647;47.127926699999996;7.236892;99.281005859375;1673426329.1379664;-28.2611026763916;-8.129986763000488;-136.80593872070312
417;1673426329.1752114;47.1279168;7.236878399999999;99.6830062866211;1673426329.3424742;-28.456741333007812;-8.2822904586792;-136.82968139648438
418;1673426329.3788507;47.127907;7.2368647;100.08700561523438;1673426329.540418;-28.469728469848633;-8.261198997497559;-136.80503845214844
419;1673426329.5794566;47.1278971;7.2368511;100.48700714111328;1673426329.7625883;-28.358341217041016;-8.266033172607422;-136.8217315673828
420;1673426329.7949088;47.127887199999996;7.2368375;100.88300323486328;1673426329.9694514;-28.31361961364746;-8.174383163452148;-136.82305908203125
