;pos_time;latitude;longitude;altitude;alt_time;pitch;roll;yaw
0;1673428774.8311749;47.1306424;7.24062;0.009000000543892384;1673428775.0135698;-0.2456565946340561;-0.5390414595603943;90.6905517578125
1;1673428775.0361717;47.1306424;7.24062;0.009000000543892384;1673428775.218434;-0.1491856575012207;-0.18943043053150177;90.4957275390625
2;1673428775.2326396;47.1306424;7.2406198999999996;0.009000000543892384;1673428775.4215813;-0.3694314658641815;-0.3496571183204651;90.67371368408203
3;1673428775.441632;47.1306423;7.2406198999999996;0.006000000052154064;1673428775.5989234;-0.457316130399704;-0.1745518445968628;90.6120376586914
4;1673428775.6116133;47.1306423;7.24062;0.003000000026077032;1673428775.783649;-0.38118839263916016;-0.47358670830726624;90.80184173583984
5;1673428775.804142;47.1306423;7.24062;0.0020000000949949026;1673428775.994421;-0.091398686170578;-0.0958193838596344;90.68045806884766
6;1673428776.0110133;47.1306423;7.24062;0.0;1673428776.1988595;-0.2952657639980316;-0.3388126492500305;90.75273132324219
7;1673428776.2252219;47.1306423;7.2406198999999996;-0.0020000000949949026;1673428776.41302;-0.32352179288864136;-0.25361016392707825;90.83232116699219
8;1673428776.4336638;47.1306423;7.2406198999999996;-0.004000000189989805;1673428776.6060772;-0.3545914888381958;-0.13606612384319305;90.69788360595703
9;1673428776.6246495;47.1306423;7.2406198999999996;-0.005000000353902578;1673428776.8104768;-0.42793720960617065;0.9393926858901978;90.74918365478516
10;1673428776.8280442;47.1306423;7.240619799999999;0.0;1673428777.0090823;-0.20763790607452393;1.0236082077026367;90.82711791992188
11;1673428777.0248768;47.1306423;7.240619799999999;0.0;1673428777.2182145;-0.31060951948165894;0.6604797840118408;90.77745056152344
12;1673428777.231881;47.1306423;7.240619799999999;0.0010000000474974513;1673428777.4656065;-0.4925367534160614;0.9420384168624878;90.76392364501953
13;1673428777.4773197;47.1306422;7.2406198999999996;0.0010000000474974513;1673428777.6250203;-0.1493089497089386;0.7325892448425293;90.82012176513672
14;1673428777.6421564;47.1306422;7.240619799999999;0.0010000000474974513;1673428777.8307483;-0.3515033423900604;1.2399252653121948;90.54966735839844
15;1673428777.8493345;47.1306422;7.240619799999999;0.005000000353902578;1673428778.0269394;-0.6571155190467834;1.4902395009994507;90.76433563232422
16;1673428778.0416243;47.1306422;7.2406198999999996;0.005000000353902578;1673428778.2407908;-0.6525564789772034;1.5211845636367798;90.64913177490234
17;1673428778.2524974;47.1306422;7.240619799999999;0.005000000353902578;1673428778.4606857;-0.5600224137306213;1.494179368019104;90.532958984375
18;1673428778.474386;47.1306422;7.240619799999999;0.0;1673428778.6290717;-0.7341185212135315;0.7276188731193542;90.29006958007812
19;1673428778.6413207;47.130642099999996;7.240619799999999;0.0020000000949949026;1673428778.842552;-0.876322329044342;0.7366929054260254;90.14891052246094
20;1673428778.8562472;47.130642099999996;7.240619799999999;0.0;1673428779.0307076;-0.6197366714477539;0.49132081866264343;89.9314193725586
21;1673428779.045894;47.130641999999995;7.240619799999999;-0.007000000216066837;1673428779.2124102;-0.6735506653785706;0.6055229306221008;89.83965301513672
22;1673428779.2270622;47.1306419;7.240619799999999;-0.015000000596046448;1673428779.408916;-0.9868234395980835;0.9115539193153381;88.20662689208984
23;1673428779.4257653;47.1306416;7.2406197;-0.01900000125169754;1673428779.6018827;-0.5424867272377014;-0.27404287457466125;83.13756561279297
24;1673428779.6205611;47.1306412;7.2406198999999996;-0.02500000037252903;1673428779.8591764;0.0012550738174468279;-0.4986514449119568;71.35093688964844
25;1673428779.8718646;47.1306404;7.2406204;-0.04200000315904617;1673428780.057426;-0.08409755676984787;-0.856061577796936;58.64583206176758
26;1673428780.0692842;47.130639099999996;7.2406213;-0.06000000238418579;1673428780.2421324;-0.2553843855857849;-3.5113332271575928;55.42668914794922
27;1673428780.2567673;47.1306373;7.240622699999999;-0.0560000017285347;1673428780.4240649;-0.34748008847236633;-7.950168132781982;54.90522384643555
28;1673428780.438771;47.1306349;7.240624599999999;-0.05000000074505806;1673428780.622861;-0.3319516181945801;-11.612663269042969;56.0478630065918
29;1673428780.63911;47.1306321;7.240627;-0.0430000014603138;1673428780.8044546;-0.06673266738653183;-15.415681838989258;59.632022857666016
30;1673428780.8181188;47.1306288;7.2406299999999995;-0.027000000700354576;1673428781.0576475;0.7145501971244812;-17.060314178466797;62.514793395996094
31;1673428781.0722883;47.1306252;7.2406334;-0.014000000432133675;1673428781.2474558;1.7754745483398438;-18.600465774536133;64.77159881591797
32;1673428781.2682009;47.1306215;7.2406371;0.0;1673428781.4597123;3.0166265964508057;-20.651138305664062;66.63617706298828
33;1673428781.4831939;47.1306179;7.2406409;0.018000001087784767;1673428781.6382468;4.098031044006348;-22.283838272094727;68.1105728149414
34;1673428781.6563694;47.1306143;7.2406448;0.039000000804662704;1673428781.8301318;5.29366397857666;-23.876296997070312;69.29289245605469
35;1673428781.8443148;47.1306108;7.2406486999999995;0.06100000441074371;1673428782.0099735;6.56571102142334;-25.653587341308594;70.2972183227539
36;1673428782.0236375;47.1306076;7.2406524;0.08700000494718552;1673428782.2001646;7.761288642883301;-27.38645362854004;71.13074493408203
37;1673428782.2168355;47.1306046;7.240655899999999;0.11100000888109207;1673428782.4043193;9.034592628479004;-29.036880493164062;71.82923126220703
38;1673428782.448288;47.130601899999995;7.240659;0.13199999928474426;1673428782.6275415;10.317670822143555;-30.806480407714844;72.47394561767578
39;1673428782.6402304;47.1305997;7.2406616999999995;0.15800000727176666;1673428782.8064156;11.665700912475586;-32.66796875;73.07469940185547
40;1673428782.8239763;47.130598;7.2406638999999995;0.18800000846385956;1673428783.043189;13.075681686401367;-34.25303268432617;73.64912414550781
41;1673428783.0583715;47.1305967;7.2406654999999995;0.22500000894069672;1673428783.2143323;14.529937744140625;-35.928123474121094;74.18283081054688
42;1673428783.2309415;47.1305961;7.240666399999999;0.2630000114440918;1673428783.4190986;16.184171676635742;-37.84678649902344;74.75840759277344
43;1673428783.43399;47.1305961;7.2406666;0.3020000159740448;1673428783.611261;17.714008331298828;-39.561222076416016;75.45281219482422
44;1673428783.6259115;47.1305969;7.240666;0.3450000286102295;1673428783.8399127;19.52129554748535;-41.18002700805664;76.06462860107422
45;1673428783.8549676;47.130598299999996;7.240664499999999;0.3890000283718109;1673428784.0187345;21.449907302856445;-42.93164825439453;76.86087036132812
46;1673428784.0412493;47.130600699999995;7.2406619999999995;0.43800002336502075;1673428784.2256837;23.724435806274414;-44.37247848510742;77.80753326416016
47;1673428784.2413108;47.1306039;7.2406587;0.492000013589859;1673428784.4188428;23.432146072387695;-42.106773376464844;79.42970275878906
48;1673428784.4417324;47.130607999999995;7.2406543999999995;0.5400000214576721;1673428784.6479616;21.29698371887207;-37.286441802978516;81.06120300292969
49;1673428784.661634;47.1306127;7.2406494;0.5830000042915344;1673428784.857746;18.563278198242188;-32.07237243652344;82.2700424194336
50;1673428784.872389;47.130617699999995;7.2406443;0.6220000386238098;1673428785.0637517;15.069661140441895;-26.787811279296875;83.03308868408203
51;1673428785.0814316;47.1306225;7.2406393;0.656000018119812;1673428785.2318861;12.152655601501465;-22.680749893188477;83.26933288574219
52;1673428785.2476265;47.130626899999996;7.240634699999999;0.6820000410079956;1673428785.4232306;9.867663383483887;-19.228899002075195;83.26782989501953
53;1673428785.4427538;47.1306307;7.2406308;0.7090000510215759;1673428785.6275287;8.688841819763184;-17.358261108398438;83.03895568847656
54;1673428785.6404;47.1306338;7.2406277;0.7350000143051147;1673428785.8443315;8.591564178466797;-17.884428024291992;82.62567138671875
55;1673428785.8661723;47.130635999999996;7.2406255999999996;0.753000020980835;1673428786.0441604;9.230423927307129;-19.390321731567383;82.2287826538086
56;1673428786.0604;47.1306375;7.2406242999999995;0.7770000100135803;1673428786.2421398;10.3206148147583;-19.522539138793945;82.1280746459961
57;1673428786.2568305;47.1306383;7.240623599999999;0.8140000104904175;1673428786.4366097;11.781795501708984;-22.428842544555664;81.87767028808594
58;1673428786.450296;47.1306388;7.2406234;0.8600000143051147;1673428786.637195;12.701864242553711;-25.061437606811523;81.76593017578125
59;1673428786.6523826;47.130638999999995;7.2406234;0.9180000424385071;1673428786.8199284;13.773710250854492;-24.157381057739258;81.8832778930664
60;1673428786.833586;47.130639099999996;7.2406234;0.9860000610351562;1673428787.0098863;14.796159744262695;-26.35150146484375;81.7723388671875
61;1673428787.0257044;47.1306392;7.2406235;1.0660001039505005;1673428787.2373176;14.902653694152832;-27.63369369506836;81.75821685791016
62;1673428787.2509809;47.1306393;7.2406235;1.1600000858306885;1673428787.4531496;14.917506217956543;-25.66701889038086;81.97035217285156
63;1673428787.4667983;47.1306395;7.240623299999999;1.2680000066757202;1673428787.6416628;14.760127067565918;-26.53462028503418;82.0021743774414
64;1673428787.6548975;47.130639699999996;7.2406229;1.3880000114440918;1673428787.8267019;14.132375717163086;-26.802202224731445;81.97197723388672
65;1673428787.848196;47.13064;7.2406223999999995;1.5210000276565552;1673428788.0473182;13.614529609680176;-24.601871490478516;81.27503967285156
66;1673428788.0631511;47.1306404;7.2406219;1.662000060081482;1673428788.258364;13.245471000671387;-25.284879684448242;81.2027587890625
67;1673428788.271086;47.1306407;7.2406215;1.814000129699707;1673428788.4672358;12.929291725158691;-25.656522750854492;81.10697174072266
68;1673428788.4790287;47.130640899999996;7.240621099999999;1.9780000448226929;1673428788.6775086;12.803319931030273;-23.558759689331055;81.3043441772461
69;1673428788.691288;47.1306412;7.2406207;2.1530001163482666;1673428788.8487234;12.89885425567627;-24.838977813720703;81.15257263183594
70;1673428788.868942;47.130641399999995;7.2406204999999995;2.3370001316070557;1673428789.0274074;12.916571617126465;-25.40984535217285;80.95127868652344
71;1673428789.0420406;47.1306416;7.2406204;2.5220000743865967;1673428789.2239535;12.970907211303711;-23.39578628540039;81.0370101928711
72;1673428789.2396655;47.1306418;7.2406201999999995;2.7070000171661377;1673428789.4153202;12.932049751281738;-25.077856063842773;80.91228485107422
73;1673428789.4328883;47.1306418;7.2406201999999995;2.8940000534057617;1673428789.5991783;13.104963302612305;-25.62213897705078;80.8688735961914
74;1673428789.614648;47.1306418;7.2406201;3.0840001106262207;1673428789.807663;13.083223342895508;-24.209110260009766;81.04235076904297
75;1673428789.823423;47.1306418;7.2406201;3.2700002193450928;1673428790.0226672;13.228937149047852;-25.0543155670166;80.96942901611328
76;1673428790.0392585;47.1306418;7.2406201;3.4580001831054688;1673428790.230509;13.353981971740723;-25.994672775268555;80.9527359008789
77;1673428790.2451534;47.1306419;7.2406201999999995;3.6480002403259277;1673428790.459417;13.351335525512695;-24.071325302124023;81.06221771240234
78;1673428790.4721045;47.1306418;7.2406201999999995;3.8410000801086426;1673428790.6734812;13.525795936584473;-25.590909957885742;80.94091796875
79;1673428790.6891072;47.1306418;7.2406201999999995;4.029000282287598;1673428790.8481321;13.389857292175293;-26.018526077270508;80.95374298095703
80;1673428790.862926;47.1306417;7.2406201999999995;4.218000411987305;1673428791.0306365;13.370734214782715;-24.359493255615234;81.06959533691406
81;1673428791.0452833;47.1306417;7.2406201999999995;4.403000354766846;1673428791.2114737;13.440468788146973;-25.555892944335938;80.89781188964844
82;1673428791.2280643;47.1306417;7.2406201999999995;4.593000411987305;1673428791.402213;13.162945747375488;-25.988792419433594;80.8598403930664
83;1673428791.4210632;47.1306418;7.2406201;4.7829999923706055;1673428791.5994685;13.215332984924316;-24.094085693359375;81.13219451904297
84;1673428791.6140993;47.1306418;7.2406201;4.974000453948975;1673428791.7956288;13.316814422607422;-25.272865295410156;81.02613067626953
85;1673428791.8121104;47.1306418;7.2406201;5.1650004386901855;1673428791.9907596;13.147644996643066;-26.257152557373047;80.87921142578125
86;1673428792.0084393;47.1306418;7.2406201;5.357000350952148;1673428792.199168;13.101412773132324;-24.161334991455078;81.13426971435547
87;1673428792.2149155;47.1306418;7.2406201;5.549000263214111;1673428792.4242158;13.39883041381836;-25.310760498046875;81.06777954101562
88;1673428792.4398298;47.1306419;7.2406201;5.73900032043457;1673428792.6248703;13.280985832214355;-25.80132484436035;80.9057846069336
89;1673428792.6395106;47.130641999999995;7.2406201;5.930000305175781;1673428792.806201;13.191733360290527;-24.15374755859375;81.03934478759766
90;1673428792.8276718;47.130641999999995;7.2406201;6.117000102996826;1673428793.0209258;13.446294784545898;-25.35793685913086;81.02507781982422
91;1673428793.0365777;47.130641999999995;7.2406201;6.301000118255615;1673428793.2102528;13.367537498474121;-26.27379035949707;80.89485168457031
92;1673428793.2278686;47.130641999999995;7.2406201;6.4860005378723145;1673428793.4009213;13.396900177001953;-24.10528564453125;81.05807495117188
93;1673428793.4237723;47.130641999999995;7.2406201;6.674000263214111;1673428793.60959;13.469671249389648;-25.10624122619629;80.96135711669922
94;1673428793.6431828;47.130641999999995;7.2406201;6.865000247955322;1673428793.816549;13.44863510131836;-26.027664184570312;80.87444305419922
95;1673428793.8321807;47.130641999999995;7.2406201;7.056000232696533;1673428794.015767;13.239439964294434;-24.124895095825195;81.025146484375
96;1673428794.0344567;47.130641999999995;7.24062;7.248000144958496;1673428794.2523236;13.492964744567871;-25.02340316772461;81.00493621826172
97;1673428794.2720954;47.130641999999995;7.24062;7.442000389099121;1673428794.471532;13.3087797164917;-25.891599655151367;80.93977355957031
98;1673428794.4852116;47.130641999999995;7.24062;7.635000228881836;1673428794.6665318;13.127102851867676;-24.150009155273438;81.07528686523438
99;1673428794.680187;47.130641999999995;7.2406198999999996;7.826000213623047;1673428794.8465118;13.410009384155273;-25.09373664855957;80.93966674804688
100;1673428794.859311;47.130642099999996;7.2406198999999996;8.023000717163086;1673428795.0075219;13.37744426727295;-26.1816463470459;80.86058807373047
101;1673428795.0231373;47.130642099999996;7.2406198999999996;8.219000816345215;1673428795.1911;13.258674621582031;-24.0975399017334;81.11219024658203
102;1673428795.2057364;47.130642099999996;7.2406198999999996;8.416000366210938;1673428795.4024348;13.48756217956543;-24.99224853515625;81.09130859375
103;1673428795.422958;47.130642099999996;7.2406198999999996;8.618000030517578;1673428795.6140587;13.308534622192383;-25.928874969482422;80.82518768310547
104;1673428795.6404138;47.130642099999996;7.2406198999999996;8.820000648498535;1673428795.8313735;13.189865112304688;-24.054061889648438;80.95753479003906
105;1673428795.8479648;47.130642099999996;7.2406198999999996;9.022000312805176;1673428796.0329669;13.466238975524902;-24.958040237426758;80.99720001220703
106;1673428796.0456636;47.130642099999996;7.2406198999999996;9.223000526428223;1673428796.2157595;13.240263938903809;-25.86829376220703;80.89729309082031
107;1673428796.2334964;47.130642099999996;7.2406198999999996;9.428000450134277;1673428796.4197156;13.227324485778809;-24.074813842773438;81.11162567138672
108;1673428796.4405653;47.130642099999996;7.2406198999999996;9.635000228881836;1673428796.6210785;13.416831016540527;-24.928125381469727;80.99198150634766
109;1673428796.6357024;47.130642099999996;7.2406198999999996;9.839000701904297;1673428796.8220677;13.229736328125;-26.1171875;80.95500183105469
110;1673428796.8386352;47.1306422;7.2406198999999996;10.050000190734863;1673428797.0060964;13.0886869430542;-22.74484634399414;81.30027770996094
111;1673428797.0218272;47.1306422;7.240619799999999;10.290000915527344;1673428797.203815;12.877769470214844;-24.036678314208984;81.08891296386719
112;1673428797.2184927;47.1306423;7.2406196;10.6510009765625;1673428797.4182572;13.856085777282715;-27.250322341918945;80.96900939941406
113;1673428797.4338589;47.1306425;7.2406194;11.055000305175781;1673428797.6024373;12.71821117401123;-23.64641571044922;81.10243225097656
114;1673428797.6219902;47.1306428;7.240619199999999;11.460000991821289;1673428797.7959144;12.568426132202148;-23.357757568359375;80.81486511230469
115;1673428797.8116472;47.1306431;7.240619;11.86500072479248;1673428798.008767;12.30101203918457;-23.954315185546875;80.76595306396484
116;1673428798.0282917;47.1306434;7.2406188;12.2760009765625;1673428798.2232943;12.294846534729004;-22.308277130126953;80.8722152709961
117;1673428798.2410145;47.1306435;7.2406187;12.687000274658203;1673428798.4253173;12.38121509552002;-22.09825897216797;80.95988464355469
118;1673428798.4401255;47.1306436;7.2406187;13.094000816345215;1673428798.618731;12.624025344848633;-24.060195922851562;80.88458251953125
119;1673428798.6353526;47.1306435;7.2406187;13.50200080871582;1673428798.8084466;12.439522743225098;-23.547657012939453;80.93315887451172
120;1673428798.8241782;47.130643299999996;7.2406188;13.91200065612793;1673428799.01905;12.673194885253906;-22.97614860534668;80.98351287841797
121;1673428799.0433981;47.130643199999994;7.240618899999999;14.318000793457031;1673428799.2187624;12.793601036071777;-25.0251407623291;80.8597412109375
122;1673428799.2545605;47.1306431;7.240619;14.7160005569458;1673428799.423536;12.671351432800293;-24.15618133544922;80.94939422607422
123;1673428799.437259;47.130643;7.240619;15.119000434875488;1673428799.6175606;13.079324722290039;-23.70771598815918;81.0482177734375
124;1673428799.6322005;47.1306428;7.2406191;15.528000831604004;1673428799.8277583;12.806931495666504;-25.335756301879883;80.88013458251953
125;1673428799.8443518;47.130642699999996;7.2406191;15.9350004196167;1673428800.04287;12.723938941955566;-24.378944396972656;81.0212173461914
126;1673428800.060431;47.130642599999995;7.2406191;16.343000411987305;1673428800.235412;12.912524223327637;-23.64849281311035;81.14212036132812
127;1673428800.2719662;47.130642599999995;7.240619199999999;16.7450008392334;1673428800.4359157;12.961535453796387;-25.046659469604492;80.9766845703125
128;1673428800.4555469;47.130642699999996;7.240619199999999;17.143001556396484;1673428800.6626048;12.859182357788086;-24.202123641967773;81.0234603881836
129;1673428800.6807244;47.130642699999996;7.240619199999999;17.546001434326172;1673428800.8396003;13.031670570373535;-23.31711769104004;81.03401184082031
130;1673428800.8554614;47.130642699999996;7.2406193;17.952001571655273;1673428801.0427787;13.072397232055664;-24.956836700439453;80.9080810546875
131;1673428801.0574183;47.130642699999996;7.2406194;18.360000610351562;1673428801.2306974;12.967495918273926;-23.657428741455078;81.04058074951172
132;1673428801.2453365;47.130642699999996;7.2406194;18.762001037597656;1673428801.427286;13.015119552612305;-23.218259811401367;81.02445220947266
133;1673428801.4499078;47.130642699999996;7.2406194;19.163000106811523;1673428801.61735;13.024970054626465;-24.719440460205078;80.9132308959961
134;1673428801.628085;47.130642699999996;7.2406194;19.565000534057617;1673428801.8000605;12.819543838500977;-23.7330379486084;81.04881286621094
135;1673428801.8137083;47.130642699999996;7.2406194;19.964000701904297;1673428801.9937127;13.013493537902832;-23.195344924926758;81.09027862548828
136;1673428802.0074844;47.130642599999995;7.2406194;20.3700008392334;1673428802.1853163;12.818341255187988;-25.010637283325195;80.86149597167969
137;1673428802.2030864;47.1306425;7.2406194;20.775001525878906;1673428802.3817885;12.88346004486084;-24.011451721191406;80.92141723632812
138;1673428802.3993568;47.1306425;7.240619499999999;21.179000854492188;1673428802.59475;12.999131202697754;-23.367929458618164;81.0863265991211
139;1673428802.6103625;47.1306424;7.240619499999999;21.58100128173828;1673428802.7858152;13.022490501403809;-25.1230411529541;80.90543365478516
140;1673428802.8014321;47.1306424;7.2406196;21.983001708984375;1673428802.9912188;12.947588920593262;-24.028650283813477;80.97023010253906
141;1673428803.0117016;47.1306424;7.2406196;22.37900161743164;1673428803.1965854;12.86229419708252;-23.520992279052734;81.08131408691406
142;1673428803.2141616;47.1306423;7.2406196;22.780000686645508;1673428803.398018;13.18931770324707;-24.94672393798828;80.9160385131836
143;1673428803.4146092;47.1306423;7.2406197;23.181001663208008;1673428803.5950038;12.94404411315918;-23.959714889526367;81.04057312011719
144;1673428803.611636;47.1306423;7.240619799999999;23.58500099182129;1673428803.8046234;13.151007652282715;-23.447113037109375;81.14151000976562
145;1673428803.82129;47.1306424;7.240619799999999;23.990001678466797;1673428804.0027823;13.16757583618164;-25.174400329589844;80.84245300292969
146;1673428804.0271826;47.1306424;7.240619799999999;24.395000457763672;1673428804.19948;13.02753734588623;-23.873579025268555;81.00520324707031
147;1673428804.215065;47.1306424;7.240619799999999;24.799001693725586;1673428804.3967714;13.045982360839844;-23.21841812133789;81.10874938964844
148;1673428804.4134877;47.1306424;7.240619799999999;25.19300079345703;1673428804.5953538;12.956531524658203;-24.981008529663086;80.85528564453125
149;1673428804.6126306;47.1306424;7.240619799999999;25.591001510620117;1673428804.8307588;12.900607109069824;-23.725326538085938;80.97437286376953
150;1673428804.8484645;47.1306425;7.240619799999999;25.98900032043457;1673428805.023212;13.046353340148926;-23.436717987060547;81.092529296875
151;1673428805.0407515;47.1306425;7.240619799999999;26.38800048828125;1673428805.2235663;13.269624710083008;-24.999296188354492;80.87742614746094
152;1673428805.2392824;47.1306425;7.240619799999999;26.792001724243164;1673428805.426306;12.961209297180176;-23.532011032104492;81.04266357421875
153;1673428805.4477727;47.1306425;7.240619799999999;27.198001861572266;1673428805.6238651;13.111042022705078;-23.521005630493164;81.05201721191406
154;1673428805.6394603;47.130642599999995;7.240619799999999;27.59800148010254;1673428805.8271139;13.043877601623535;-24.97979164123535;80.98516082763672
155;1673428805.8427436;47.130642599999995;7.2406197;28.005001068115234;1673428806.0183156;12.83911418914795;-23.23110008239746;81.057373046875
156;1673428806.0310333;47.130642699999996;7.2406197;28.413002014160156;1673428806.2223299;13.064936637878418;-23.462976455688477;81.04122924804688
157;1673428806.2497647;47.130642699999996;7.2406197;28.821001052856445;1673428806.4108753;13.058106422424316;-24.620222091674805;80.85733032226562
158;1673428806.4264815;47.130642699999996;7.2406197;29.226001739501953;1673428806.606349;12.897655487060547;-23.383991241455078;81.0424575805664
159;1673428806.6201675;47.130642699999996;7.240619799999999;29.62700080871582;1673428806.8113334;13.224928855895996;-23.329803466796875;81.04021453857422
160;1673428806.8269384;47.130642699999996;7.240619799999999;30.0260009765625;1673428807.0179358;12.99422836303711;-24.713865280151367;80.86286163330078
161;1673428807.0315952;47.130642699999996;7.240619799999999;30.418001174926758;1673428807.2350812;12.902573585510254;-23.4032039642334;81.02275848388672
162;1673428807.251658;47.130642699999996;7.240619799999999;30.816001892089844;1673428807.4258742;13.216633796691895;-23.385360717773438;80.99999237060547
163;1673428807.4434407;47.130642699999996;7.240619799999999;31.215002059936523;1673428807.6139228;13.118250846862793;-25.00699806213379;80.90890502929688
164;1673428807.6295285;47.130642699999996;7.240619799999999;31.617000579833984;1673428807.8142154;12.934944152832031;-23.53131103515625;81.01453399658203
165;1673428807.8288553;47.130642699999996;7.2406197;32.02300262451172;1673428808.0050642;13.13451099395752;-23.353425979614258;81.0483169555664
166;1673428808.028194;47.130642699999996;7.2406197;32.42399978637695;1673428808.2094772;13.08726978302002;-24.780147552490234;80.86563873291016
167;1673428808.2301257;47.130642699999996;7.2406197;32.81800079345703;1673428808.4089503;13.062581062316895;-23.454875946044922;81.01033782958984
168;1673428808.426558;47.130642699999996;7.240619799999999;33.217002868652344;1673428808.6232948;13.121241569519043;-23.337594985961914;81.0286636352539
169;1673428808.6414223;47.130642599999995;7.240619799999999;33.621002197265625;1673428808.8289611;13.065301895141602;-24.779630661010742;80.86015319824219
170;1673428808.8455527;47.130642599999995;7.240619799999999;34.027000427246094;1673428809.0304437;13.045894622802734;-23.607763290405273;81.06018829345703
171;1673428809.044109;47.130642599999995;7.2406197;34.43400192260742;1673428809.2389061;13.117859840393066;-23.187833786010742;81.13040161132812
172;1673428809.2515893;47.130642599999995;7.2406197;34.84000015258789;1673428809.4235952;12.950758934020996;-24.909269332885742;80.85755920410156
173;1673428809.442241;47.130642599999995;7.2406197;35.24500274658203;1673428809.6063092;12.834382057189941;-23.822452545166016;81.07201385498047
174;1673428809.6239202;47.1306425;7.2406196;35.6400032043457;1673428809.8036613;13.059317588806152;-23.4870548248291;81.11949920654297
175;1673428809.821332;47.1306425;7.2406196;36.03900146484375;1673428809.9912078;12.881864547729492;-24.95146942138672;80.96660614013672
176;1673428810.010727;47.1306424;7.2406196;36.44000244140625;1673428810.2078876;12.799314498901367;-23.881196975708008;80.98490142822266
177;1673428810.2293558;47.1306424;7.240619499999999;36.84000015258789;1673428810.419009;12.810924530029297;-23.36822509765625;81.0772476196289
178;1673428810.4326737;47.1306425;7.240619499999999;37.2400016784668;1673428810.615804;12.962316513061523;-24.95834732055664;80.87317657470703
179;1673428810.631511;47.1306425;7.240619499999999;37.638999938964844;1673428810.8168607;12.790760040283203;-23.652633666992188;81.02227783203125
180;1673428810.8305233;47.1306425;7.2406196;38.02900314331055;1673428811.0065262;13.065913200378418;-23.342607498168945;81.02153015136719
181;1673428811.0231185;47.1306424;7.2406196;38.427001953125;1673428811.2140868;12.86973762512207;-24.971845626831055;80.83573913574219
182;1673428811.230667;47.1306424;7.2406196;38.83100128173828;1673428811.4198523;12.8703031539917;-23.70018768310547;80.99105072021484
183;1673428811.4364462;47.1306425;7.2406196;39.23800277709961;1673428811.6099072;12.911629676818848;-23.050691604614258;81.11284637451172
184;1673428811.6265142;47.1306425;7.2406196;39.64400100708008;1673428811.811292;13.009294509887695;-24.737485885620117;80.91834259033203
185;1673428811.8279877;47.1306425;7.2406196;40.04900360107422;1673428812.0012393;12.853434562683105;-23.619285583496094;81.00135040283203
186;1673428812.0158796;47.1306425;7.2406196;40.45100021362305;1673428812.2118194;12.886669158935547;-23.229631423950195;81.12791442871094
187;1673428812.2285218;47.1306425;7.2406196;40.842002868652344;1673428812.401486;12.94474983215332;-24.638259887695312;81.01696014404297
188;1673428812.4239347;47.130642599999995;7.2406196;41.23800277709961;1673428812.6193016;12.846104621887207;-23.50202751159668;81.00848388671875
189;1673428812.6359015;47.130642599999995;7.2406196;41.637001037597656;1673428812.8146381;13.040489196777344;-23.098100662231445;80.9649429321289
190;1673428812.8294604;47.130642699999996;7.2406197;42.040000915527344;1673428813.012227;13.13056755065918;-24.70694923400879;80.85761260986328
191;1673428813.027844;47.130642699999996;7.2406197;42.44700241088867;1673428813.2049325;12.933128356933594;-23.621061325073242;81.02938842773438
192;1673428813.2195852;47.130642699999996;7.2406197;42.85300064086914;1673428813.4034925;12.996868133544922;-23.009441375732422;81.06446075439453
193;1673428813.422053;47.130642699999996;7.2406197;43.250003814697266;1673428813.622428;13.019871711730957;-24.594181060791016;80.90805053710938
194;1673428813.6409566;47.130642599999995;7.2406197;43.65400314331055;1673428813.831553;12.9382905960083;-23.85567283630371;80.92162322998047
195;1673428813.8471637;47.130642599999995;7.240619799999999;44.057003021240234;1673428814.0232773;12.986821174621582;-23.09129524230957;81.06918334960938
196;1673428814.0437994;47.130642599999995;7.240619799999999;44.457000732421875;1673428814.2228563;13.076550483703613;-24.84860610961914;80.9581069946289
197;1673428814.2374969;47.130642599999995;7.240619799999999;44.855003356933594;1673428814.4140859;12.906417846679688;-23.547283172607422;81.0190200805664
198;1673428814.4394617;47.130642599999995;7.2406198999999996;45.25600051879883;1673428814.6230028;13.198822021484375;-23.04136848449707;81.0551528930664
199;1673428814.638654;47.130642599999995;7.2406198999999996;45.65400314331055;1673428814.8268268;13.022269248962402;-24.64909553527832;80.98436737060547
200;1673428814.841467;47.130642599999995;7.2406198999999996;46.04500198364258;1673428815.0316918;12.971807479858398;-23.57253074645996;81.04560089111328
201;1673428815.0464487;47.130642599999995;7.2406198999999996;46.44400405883789;1673428815.2181816;13.132450103759766;-23.025392532348633;81.0802993774414
202;1673428815.2347643;47.130642599999995;7.2406198999999996;46.84700393676758;1673428815.4022033;13.02560043334961;-24.577062606811523;80.9063491821289
203;1673428815.4189408;47.1306425;7.2406198999999996;47.249000549316406;1673428815.592558;12.879034042358398;-23.526058197021484;81.05574798583984
204;1673428815.6136117;47.1306425;7.2406198999999996;47.647003173828125;1673428815.8070283;13.035850524902344;-23.061649322509766;81.08345794677734
205;1673428815.8236208;47.1306425;7.2406198999999996;48.0420036315918;1673428815.9973679;13.014466285705566;-25.009248733520508;80.6623764038086
206;1673428816.0146384;47.1306424;7.2406198999999996;48.3900032043457;1673428816.1991303;13.164697647094727;-24.015941619873047;80.9726333618164
207;1673428816.2140045;47.1306422;7.24062;48.69200134277344;1673428816.4063733;13.316349029541016;-23.964094161987305;81.00999450683594
208;1673428816.428048;47.130641999999995;7.2406201999999995;48.95100402832031;1673428816.6124892;13.361331939697266;-25.828678131103516;80.84371185302734
209;1673428816.6337357;47.1306417;7.2406203;49.17000198364258;1673428816.8235471;16.64190101623535;-22.023359298706055;81.05638122558594
210;1673428816.8401332;47.130641399999995;7.2406204999999995;49.35300064086914;1673428817.0237367;37.0084114074707;-1.6792985200881958;88.21566772460938
211;1673428817.0373976;47.130640799999995;7.2406201999999995;49.51300048828125;1673428817.2291439;47.06446075439453;21.41288185119629;101.5380630493164
212;1673428817.243755;47.1306387;7.240617899999999;49.65400314331055;1673428817.4158204;50.027164459228516;35.53257751464844;109.14862823486328
213;1673428817.4304602;47.1306343;7.2406123;49.76100158691406;1673428817.6066005;47.199302673339844;41.51063537597656;113.6967544555664
214;1673428817.622216;47.1306271;7.2406033999999995;49.8280029296875;1673428817.803468;31.935388565063477;41.2121467590332;121.89775085449219
215;1673428817.8192687;47.1306176;7.2405921;49.84400177001953;1673428817.998652;20.234569549560547;45.51051712036133;135.93226623535156
216;1673428818.0213516;47.130606;7.240578999999999;49.874000549316406;1673428818.2126174;8.321353912353516;54.10823059082031;149.54949951171875
217;1673428818.2311692;47.1305927;7.240564;49.92500305175781;1673428818.428531;-9.561591148376465;53.33353042602539;162.6154327392578
218;1673428818.4450893;47.1305779;7.2405472;49.957000732421875;1673428818.6192186;-24.17026710510254;48.94291687011719;173.20150756835938
219;1673428818.6371021;47.130562;7.2405292;49.954002380371094;1673428818.8271081;-30.546039581298828;42.16541290283203;-177.00665283203125
220;1673428818.8418937;47.1305449;7.24051;49.93800354003906;1673428819.023559;-37.96149826049805;38.77976608276367;-169.86676025390625
221;1673428819.0393229;47.1305269;7.2404899;49.9170036315918;1673428819.2218728;-42.416690826416016;34.677490234375;-159.7392120361328
222;1673428819.2355218;47.130508;7.240469;49.89400100708008;1673428819.4033036;-46.4478759765625;32.473182678222656;-148.5052490234375
223;1673428819.4209418;47.1304885;7.240446899999999;49.8640022277832;1673428819.5982237;-44.24264144897461;24.73987579345703;-140.07809448242188
224;1673428819.6182532;47.130469;7.2404239;49.814002990722656;1673428819.7992635;-41.04908752441406;19.52468490600586;-134.9636993408203
225;1673428819.816849;47.1304495;7.2404006;49.75300216674805;1673428820.0191247;-43.88726043701172;16.238052368164062;-128.38526916503906
226;1673428820.0348513;47.1304302;7.2403771;49.708003997802734;1673428820.2275152;-43.365665435791016;12.439294815063477;-126.19747924804688
227;1673428820.2412577;47.130410999999995;7.240353499999999;49.669002532958984;1673428820.4226317;-38.23003387451172;12.106403350830078;-130.39161682128906
228;1673428820.4372723;47.1303918;7.2403302;49.634002685546875;1673428820.6259186;-42.357177734375;17.86488914489746;-130.5301513671875
229;1673428820.6436338;47.130372699999995;7.240307199999999;49.634002685546875;1673428820.8298316;-47.91921615600586;15.779810905456543;-119.49011993408203
230;1673428820.8483944;47.130353899999996;7.240284;49.66400146484375;1673428821.0441182;-48.24024963378906;11.327298164367676;-109.08650970458984
231;1673428821.0616577;47.1303355;7.2402600999999995;49.69200134277344;1673428821.2302854;-44.404876708984375;8.940295219421387;-100.60221862792969
232;1673428821.2449343;47.130317999999995;7.2402358;49.70100402832031;1673428821.4293547;-38.99687576293945;10.637410163879395;-91.99317169189453
233;1673428821.446079;47.1303014;7.240211599999999;49.71000289916992;1673428821.6248229;-34.52112579345703;15.968250274658203;-82.54619598388672
234;1673428821.6416755;47.1302861;7.2401881999999995;49.7140007019043;1673428821.818169;-28.66886329650879;24.240875244140625;-72.18937683105469
235;1673428821.8318267;47.1302727;7.240166299999999;49.72700119018555;1673428822.0093105;-24.671144485473633;31.856632232666016;-63.3687629699707
236;1673428822.0250206;47.1302618;7.2401472;49.75200271606445;1673428822.2079842;-15.41262149810791;29.0284423828125;-67.43453216552734
237;1673428822.2266898;47.1302531;7.2401316;49.7650032043457;1673428822.423008;-3.4745211601257324;32.10227966308594;-86.85690307617188
238;1673428822.437647;47.130246299999996;7.2401193;49.79900360107422;1673428822.6139936;4.811577320098877;40.82216262817383;-100.44830322265625
239;1673428822.6355734;47.130241299999994;7.2401102999999996;49.88900375366211;1673428822.810458;0.8640516400337219;46.496036529541016;-113.98735809326172
240;1673428822.8241067;47.1302386;7.240103899999999;50.00800323486328;1673428823.0102127;-22.94470977783203;41.997676849365234;-125.3758316040039
241;1673428823.029791;47.1302376;7.240098;50.118003845214844;1673428823.2158177;-47.25105667114258;22.8403377532959;-133.91238403320312
242;1673428823.2373707;47.130236599999996;7.2400908;50.18600082397461;1673428823.4261644;-59.233219146728516;14.179043769836426;-139.94686889648438
243;1673428823.4429405;47.130233399999995;7.2400809;50.22700119018555;1673428823.634011;-48.91484069824219;10.093815803527832;-145.29196166992188
244;1673428823.6507328;47.130226799999996;7.2400690999999995;50.21600341796875;1673428823.818917;-43.254085540771484;5.458803653717041;-139.3899688720703
245;1673428823.8306105;47.1302172;7.2400565;50.189002990722656;1673428824.0100086;-49.226348876953125;9.457588195800781;-134.5902099609375
246;1673428824.0262034;47.1302054;7.2400435;50.195003509521484;1673428824.2119107;-55.04035949707031;12.969186782836914;-132.5149688720703
247;1673428824.2315226;47.130191599999996;7.2400291999999995;50.21200180053711;1673428824.420027;-53.81538391113281;14.855674743652344;-131.67724609375
248;1673428824.436733;47.1301762;7.2400129;50.230003356933594;1673428824.6208713;-53.81570816040039;17.462892532348633;-132.49891662597656
249;1673428824.6391609;47.1301597;7.2399947;50.242000579833984;1673428824.8109367;-51.98811340332031;18.498674392700195;-133.11622619628906
250;1673428824.8286743;47.130142199999995;7.2399749;50.2400016784668;1673428825.0139604;-50.07248306274414;19.978450775146484;-133.45851135253906
251;1673428825.0314908;47.1301242;7.2399537;50.22300338745117;1673428825.2010581;-48.46236038208008;19.940593719482422;-133.2817840576172
252;1673428825.2235568;47.130105799999995;7.239931299999999;50.189002990722656;1673428825.4007626;-43.912288665771484;17.068344116210938;-133.02786254882812
253;1673428825.4219415;47.1300873;7.2399083;50.1510009765625;1673428825.6143494;-42.28155517578125;17.3103084564209;-133.64620971679688
254;1673428825.6299644;47.130068699999995;7.2398850999999995;50.11900329589844;1673428825.8073525;-44.215335845947266;19.155046463012695;-133.72398376464844
255;1673428825.8244836;47.130049899999996;7.239861899999999;50.09700393676758;1673428826.00728;-47.13359832763672;22.1748046875;-127.0545883178711
256;1673428826.0210822;47.1300312;7.2398381;50.090003967285156;1673428826.2052755;-46.916316986083984;15.477614402770996;-114.3984375
257;1673428826.22156;47.130013;7.2398136;50.079002380371094;1673428826.4158583;-45.070594787597656;11.604166984558105;-105.9307861328125
258;1673428826.4324584;47.1299955;7.2397886;50.06100082397461;1673428826.6273768;-42.62590026855469;6.567627429962158;-96.9483642578125
259;1673428826.6429834;47.129978799999996;7.2397636;50.04600143432617;1673428826.8202143;-42.47919845581055;0.5415815711021423;-88.72677612304688
260;1673428826.8377688;47.1299628;7.239738699999999;50.03400421142578;1673428827.0561516;-45.43487548828125;-10.78896713256836;-90.95401763916016
261;1673428827.0709002;47.1299475;7.239713999999999;50.03700256347656;1673428827.2353666;-41.556270599365234;-7.956628799438477;-106.79932403564453
262;1673428827.2499938;47.1299317;7.2396894;50.04600143432617;1673428827.4286528;-40.82902526855469;-11.60723876953125;-116.58935546875
263;1673428827.4571087;47.1299152;7.2396657;50.05000305175781;1673428827.6275158;-42.23199462890625;-5.601564407348633;-129.7675018310547
264;1673428827.6457543;47.1298975;7.2396435;50.03300094604492;1673428827.8224022;-44.53882598876953;4.145455837249756;-137.20387268066406
265;1673428827.8389924;47.129878399999996;7.2396227;50.022003173828125;1673428828.0274694;-42.1465950012207;25.566621780395508;-141.49053955078125
266;1673428828.04318;47.1298585;7.239602199999999;50.03700256347656;1673428828.2181103;-44.19304656982422;35.75070571899414;-129.8946533203125
267;1673428828.2327535;47.129839;7.2395808;50.05400085449219;1673428828.4113188;-37.41056442260742;31.82364273071289;-113.36799621582031
268;1673428828.4260116;47.1298209;7.2395586;50.04600143432617;1673428828.605963;-31.21932029724121;33.55951690673828;-104.6856460571289
269;1673428828.6211672;47.129804799999995;7.2395362;50.02100372314453;1673428828.8078487;-26.352033615112305;34.095245361328125;-95.03498077392578
270;1673428828.822525;47.1297911;7.2395149;49.992000579833984;1673428829.0086706;-27.68937873840332;33.50175857543945;-86.05947875976562
271;1673428829.027253;47.12978;7.239495499999999;49.96800231933594;1673428829.2265036;-32.281105041503906;28.38841438293457;-76.35539245605469
272;1673428829.246035;47.129771399999996;7.2394779;49.9630012512207;1673428829.4157841;-40.72419357299805;28.413606643676758;-72.45051574707031
273;1673428829.432945;47.1297652;7.239462;49.97800064086914;1673428829.6190472;-42.64085388183594;31.030288696289062;-83.5697250366211
274;1673428829.6362116;47.1297613;7.2394468;50.00100326538086;1673428829.8247159;-40.08513641357422;34.29560470581055;-97.23149108886719
275;1673428829.8403728;47.129759199999995;7.239431799999999;50.03300094604492;1673428830.0239615;-31.15810203552246;39.29862594604492;-107.6690444946289
276;1673428830.0386157;47.1297584;7.239416299999999;50.06500244140625;1673428830.217303;-18.934406280517578;43.316505432128906;-117.5567398071289
277;1673428830.2315419;47.129758599999995;7.2394004999999995;50.090003967285156;1673428830.4187095;-7.377399444580078;41.94008255004883;-129.8627166748047
278;1673428830.4361193;47.1297594;7.2393848;50.105003356933594;1673428830.6055646;0.4774925112724304;21.39344024658203;-142.51585388183594
279;1673428830.6241443;47.1297606;7.2393696;50.14400100708008;1673428830.8144598;-4.8545074462890625;-25.17613983154297;-145.11129760742188
280;1673428830.8325646;47.129760999999995;7.2393566;50.14200210571289;1673428831.0178425;-10.176159858703613;-25.638164520263672;-147.91651916503906
281;1673428831.051964;47.1297596;7.2393471;49.9900016784668;1673428831.2233787;-7.883061408996582;-21.045379638671875;-152.35833740234375
282;1673428831.2389984;47.1297559;7.239342;49.801002502441406;1673428831.4258268;-9.376749992370605;-16.769207000732422;-161.03382873535156
283;1673428831.4483032;47.12975;7.2393408;49.691001892089844;1673428831.6229546;-16.414566040039062;-21.908666610717773;-166.9807586669922
284;1673428831.6381273;47.1297421;7.239343099999999;49.65900421142578;1673428831.8270838;-13.601380348205566;-30.039443969726562;-154.83026123046875
285;1673428831.841722;47.129732399999995;7.2393484;49.669002532958984;1673428832.0182838;-8.219693183898926;-32.320011138916016;-141.19493103027344
286;1673428832.035581;47.129720999999996;7.239356399999999;49.69700241088867;1673428832.2119415;-9.457839012145996;-6.72866678237915;-132.599609375
287;1673428832.228129;47.1297083;7.2393662999999995;49.71000289916992;1673428832.4189515;-15.912622451782227;35.21810531616211;-132.10568237304688
288;1673428832.4380586;47.129695299999995;7.2393759;49.72700119018555;1673428832.6107175;-11.337942123413086;39.16581344604492;-126.46844482421875
289;1673428832.6293957;47.129683199999995;7.2393833999999995;49.72900390625;1673428832.8190145;-5.628683567047119;30.439863204956055;-117.71368408203125
290;1673428832.8356369;47.1296725;7.2393889;49.71600341796875;1673428833.043585;-11.358327865600586;31.247711181640625;-110.35824584960938
291;1673428833.0601768;47.1296634;7.239393199999999;49.724002838134766;1673428833.2557557;-21.25688362121582;30.869796752929688;-100.55854797363281
292;1673428833.2772295;47.1296556;7.239396299999999;49.755001068115234;1673428833.4851968;-32.734413146972656;33.20207214355469;-90.89300537109375
293;1673428833.5096004;47.1296494;7.2393981;49.801002502441406;1673428833.6979237;-40.463619232177734;32.17809295654297;-79.65313720703125
294;1673428833.7449796;47.129645;7.2393982999999995;49.84600067138672;1673428833.8765192;-42.03733825683594;24.22659683227539;-68.43534851074219
295;1673428833.8921688;47.129642399999994;7.239396999999999;49.88300323486328;1673428834.1058822;-46.79136657714844;17.215431213378906;-60.06983184814453
296;1673428834.117582;47.1296416;7.2393944999999995;49.939002990722656;1673428834.2881544;-57.54607009887695;11.203551292419434;-51.05002212524414
297;1673428834.3008733;47.1296428;7.2393902;50.01900100708008;1673428834.4680238;-56.50645065307617;1.8058257102966309;-41.13656234741211
298;1673428834.4836316;47.1296459;7.239383999999999;50.09100341796875;1673428834.659547;-52.44432830810547;-3.0010008811950684;-38.65309524536133
299;1673428834.7080488;47.129650399999996;7.2393763;50.150001525878906;1673428834.8684866;-47.75037384033203;-1.0964634418487549;-42.669166564941406
300;1673428834.8831587;47.1296557;7.239367499999999;50.19400405883789;1673428835.078654;-43.545902252197266;-0.18744537234306335;-44.834049224853516
301;1673428835.1052096;47.129661299999995;7.2393579;50.22600173950195;1673428835.2775822;-43.32948303222656;-0.917365550994873;-45.46841049194336
302;1673428835.3030102;47.1296669;7.239347899999999;50.24800109863281;1673428835.4656086;-46.20383834838867;-2.5021324157714844;-45.941349029541016
303;1673428835.4841523;47.129672299999996;7.239337399999999;50.26900100708008;1673428835.666805;-44.92300796508789;0.37887927889823914;-50.62311553955078
304;1673428835.6794722;47.129677699999995;7.2393260999999995;50.27700424194336;1673428835.8960598;-42.9962272644043;7.924237251281738;-62.433929443359375
305;1673428835.911659;47.1296829;7.2393144;50.281002044677734;1673428836.1009507;-36.68680191040039;13.584535598754883;-73.41146087646484
306;1673428836.1139772;47.1296879;7.239302299999999;50.281002044677734;1673428836.2739513;-30.84995460510254;7.543386936187744;-81.96794128417969
307;1673428836.2887585;47.129692299999995;7.239290199999999;50.27300262451172;1673428836.4654279;-21.670740127563477;-11.796833992004395;-91.64820861816406
308;1673428836.4831567;47.129695299999995;7.239278499999999;50.25400161743164;1673428836.6530824;-14.45196533203125;-36.729190826416016;-101.97400665283203
309;1673428836.6689537;47.1296957;7.2392682;50.22200393676758;1673428836.8611372;-13.242114067077637;-26.966846466064453;-111.88401794433594
310;1673428836.8806615;47.1296927;7.2392606;50.11000061035156;1673428837.068846;-12.187633514404297;-19.96462059020996;-117.44781494140625
311;1673428837.085544;47.129686899999996;7.2392556;49.99400329589844;1673428837.2684596;-18.309307098388672;-19.9823055267334;-125.83244323730469
312;1673428837.2840877;47.1296788;7.2392527;49.90900421142578;1673428837.4739015;-30.139591217041016;-15.480731964111328;-135.69642639160156
313;1673428837.4963481;47.1296685;7.239251599999999;49.85900115966797;1673428837.6986501;-32.02061462402344;-2.9653818607330322;-146.71157836914062
314;1673428837.710361;47.129656;7.2392514;49.82200241088867;1673428837.8719954;-25.0736083984375;15.144659996032715;-145.58778381347656
315;1673428837.8895688;47.129641799999995;7.2392512;49.80800247192383;1673428838.0949974;-20.308216094970703;35.635005950927734;-136.09609985351562
316;1673428838.107664;47.129627299999996;7.2392495;49.86600112915039;1673428838.2770236;-7.591158866882324;51.35569381713867;-133.81590270996094
317;1673428838.3000212;47.1296141;7.2392458;49.93800354003906;1673428838.486187;-10.344998359680176;53.60131072998047;-136.0057830810547
318;1673428838.5145252;47.1296033;7.2392401;49.98400115966797;1673428838.6689825;-23.90025520324707;54.594993591308594;-135.3669891357422
319;1673428838.6826465;47.1295948;7.2392318;50.025001525878906;1673428838.850078;-34.004150390625;54.27703094482422;-133.6969757080078
320;1673428838.86682;47.129588299999995;7.2392204;50.06300354003906;1673428839.0671017;-39.76797866821289;46.763118743896484;-131.89524841308594
321;1673428839.08979;47.1295831;7.239205699999999;50.08100128173828;1673428839.2709236;-43.41190719604492;36.38965606689453;-133.09420776367188
322;1673428839.288634;47.1295783;7.2391885;50.0880012512207;1673428839.4674764;-47.56663131713867;29.053464889526367;-134.4665069580078
323;1673428839.5027802;47.129573;7.2391689999999995;50.09300231933594;1673428839.704025;-50.247413635253906;22.354341506958008;-134.09805297851562
324;1673428839.7425053;47.129566399999995;7.2391476;50.0890007019043;1673428839.9052265;-50.198272705078125;16.165084838867188;-134.47866821289062
325;1673428839.9428506;47.1295581;7.239125;50.07200241088867;1673428840.091039;-46.50577163696289;10.497196197509766;-134.73031616210938
326;1673428840.104276;47.1295479;7.239102;50.0420036315918;1673428840.3304636;-46.85017395019531;8.918362617492676;-136.47776794433594
327;1673428840.3417356;47.1295359;7.2390792;50.0150032043457;1673428840.5115268;-46.98245620727539;5.065077781677246;-135.53842163085938
328;1673428840.528127;47.129521999999994;7.2390567;49.9890022277832;1673428840.6981664;-45.39677429199219;8.171759605407715;-136.72573852539062
329;1673428840.7108533;47.1295064;7.2390348;49.9630012512207;1673428840.9028964;-45.36302185058594;6.848261833190918;-135.52391052246094
330;1673428840.917536;47.129489299999996;7.2390134999999995;49.95100402832031;1673428841.102469;-46.58592224121094;11.710909843444824;-136.55618286132812
331;1673428841.119066;47.129471099999996;7.2389924;49.945003509521484;1673428841.3036628;-45.68901443481445;12.571154594421387;-136.45191955566406
332;1673428841.3475254;47.129452;7.2389712;49.945003509521484;1673428841.4993877;-47.2078971862793;15.111292839050293;-136.37086486816406
333;1673428841.5130525;47.129432099999995;7.23895;49.948001861572266;1673428841.7000017;-45.26472473144531;17.46211051940918;-136.1688995361328
334;1673428841.7156122;47.1294118;7.2389284;49.95900344848633;1673428841.9332783;-47.585693359375;21.8021183013916;-136.51258850097656
335;1673428841.9469674;47.129391299999995;7.2389063;49.96800231933594;1673428842.101831;-46.208805084228516;23.091598510742188;-134.5064239501953
336;1673428842.1145005;47.1293709;7.238883599999999;49.98100280761719;1673428842.2878702;-46.6503791809082;21.776697158813477;-133.10133361816406
337;1673428842.3020673;47.1293508;7.23886;49.98600387573242;1673428842.4618583;-44.072147369384766;22.804288864135742;-132.78164672851562
338;1673428842.4784408;47.1293308;7.2388357999999995;49.98400115966797;1673428842.6680906;-43.44911575317383;23.967857360839844;-131.95675659179688
339;1673428842.6846838;47.1293113;7.2388110999999995;49.98500061035156;1673428842.8833237;-42.70340347290039;27.482526779174805;-131.5481719970703
340;1673428842.9008842;47.129292299999996;7.238785999999999;49.98800277709961;1673428843.0710497;-40.521236419677734;29.432939529418945;-130.23114013671875
341;1673428843.0876338;47.129274099999996;7.238760399999999;49.99100112915039;1673428843.2790008;-36.1657829284668;32.37628936767578;-129.48193359375
342;1673428843.2995355;47.129256899999994;7.2387345;49.9890022277832;1673428843.466634;-23.462129592895508;33.92787170410156;-129.53953552246094
343;1673428843.4812558;47.129241;7.238709;49.97600173950195;1673428843.6902728;-7.3834357261657715;35.297203063964844;-131.63040161132812
344;1673428843.708953;47.129226499999994;7.2386843999999995;49.952003479003906;1673428843.8928912;8.318252563476562;33.46942901611328;-134.91799926757812
345;1673428843.9055793;47.1292137;7.2386617;49.927001953125;1673428844.1078417;16.686674118041992;26.91360855102539;-139.27806091308594
346;1673428844.1216674;47.1292031;7.2386418;49.93800354003906;1673428844.3253293;21.044036865234375;19.064220428466797;-144.18453979492188
347;1673428844.367945;47.129194299999995;7.238625099999999;49.97500228881836;1673428844.5262153;23.798479080200195;13.53165054321289;-146.07444763183594
348;1673428844.5389452;47.1291869;7.2386117;50.00700378417969;1673428844.6915321;22.437946319580078;12.525790214538574;-147.25938415527344
349;1673428844.7051983;47.1291807;7.238601999999999;50.038002014160156;1673428844.8835692;18.520404815673828;14.449460983276367;-148.03099060058594
350;1673428844.8991828;47.1291754;7.2385950999999995;50.066001892089844;1673428845.0868728;15.44484806060791;17.18003273010254;-147.76083374023438
351;1673428845.1083436;47.1291708;7.2385904;50.0880012512207;1673428845.2751925;11.106282234191895;21.53841209411621;-145.80490112304688
352;1673428845.315066;47.1291666;7.2385873;50.10200119018555;1673428845.5124753;6.808469772338867;26.609437942504883;-143.07937622070312
353;1673428845.5350535;47.129162699999995;7.2385851;50.10700225830078;1673428845.6954489;3.984645128250122;28.553871154785156;-140.06480407714844
354;1673428845.7110686;47.129159099999995;7.238583299999999;50.11000061035156;1673428845.8810549;0.2198600471019745;31.0758056640625;-136.48338317871094
355;1673428845.89667;47.1291558;7.2385816;50.1140022277832;1673428846.0763025;-13.907958030700684;29.42851448059082;-137.4383544921875
356;1673428846.0919156;47.1291527;7.238579499999999;50.14500427246094;1673428846.3330805;-37.38979721069336;26.314830780029297;-138.0854949951172
357;1673428846.3447943;47.1291491;7.2385759;50.268001556396484;1673428846.5038846;-42.673973083496094;18.753774642944336;-135.3291473388672
358;1673428846.5194976;47.129143899999995;7.2385693;50.461002349853516;1673428846.6782558;-32.156761169433594;18.10962677001953;-134.53982543945312
359;1673428846.6939108;47.1291368;7.2385603;50.70900344848633;1673428846.860129;-29.042142868041992;20.84840202331543;-133.9846954345703
360;1673428846.8747675;47.1291286;7.23855;51.01400375366211;1673428847.0553112;-31.248462677001953;31.60406494140625;-134.22047424316406
361;1673428847.0699496;47.1291198;7.2385382;51.375003814697266;1673428847.2656517;-30.926753997802734;29.087181091308594;-134.4510955810547
362;1673428847.284197;47.1291108;7.2385249;51.750003814697266;1673428847.4574697;-27.906797409057617;26.90484046936035;-135.5251007080078
363;1673428847.4730878;47.1291016;7.2385104;52.12700271606445;1673428847.6486192;-24.882505416870117;24.924827575683594;-136.22067260742188
364;1673428847.6629808;47.129092299999996;7.2384954;52.506004333496094;1673428847.8788874;-22.67562484741211;23.19279670715332;-136.60781860351562
365;1673428847.8983943;47.1290828;7.2384803;52.88500213623047;1673428848.0790083;-21.06770133972168;22.5257568359375;-136.89186096191406
366;1673428848.0936325;47.1290731;7.2384654;53.26700210571289;1673428848.282402;-19.930740356445312;22.23644256591797;-136.98004150390625
367;1673428848.2961009;47.1290633;7.238450899999999;53.650001525878906;1673428848.4900672;-19.45245933532715;22.75868034362793;-137.11105346679688
368;1673428848.5195215;47.1290534;7.2384368;54.03700256347656;1673428848.679272;-19.589111328125;23.578081130981445;-137.16329956054688
369;1673428848.6958148;47.129043499999995;7.2384233;54.426002502441406;1673428848.8824632;-19.960018157958984;24.15272331237793;-137.13902282714844
370;1673428848.9000418;47.1290336;7.2384099;54.81100082397461;1673428849.0845947;-20.362468719482422;24.732009887695312;-137.08633422851562
371;1673428849.0992277;47.1290237;7.2383967;55.19900131225586;1673428849.2768507;-21.2437686920166;25.04520034790039;-137.07089233398438
372;1673428849.2916682;47.129013799999996;7.2383836;55.58900451660156;1673428849.4653385;-21.890886306762695;25.403148651123047;-137.03311157226562
373;1673428849.47998;47.129003999999995;7.238370499999999;55.983001708984375;1673428849.6726718;-22.282201766967773;25.31092643737793;-136.93983459472656
374;1673428849.6883209;47.1289942;7.2383573;56.37800216674805;1673428849.887286;-22.725969314575195;25.459014892578125;-136.92564392089844
375;1673428849.9024704;47.1289844;7.238344;56.7760009765625;1673428850.0898826;-22.801143646240234;25.16490364074707;-136.84837341308594
376;1673428850.1076827;47.1289745;7.238330599999999;57.172000885009766;1673428850.283874;-22.51381492614746;25.119548797607422;-136.8101348876953
377;1673428850.3000221;47.128964599999996;7.2383169999999994;57.566001892089844;1673428850.4719846;-22.389972686767578;25.043333053588867;-136.83746337890625
378;1673428850.4885752;47.128954799999995;7.2383033999999995;57.96200180053711;1673428850.6794617;-22.349750518798828;24.984216690063477;-136.8727569580078
379;1673428850.6972055;47.1289449;7.238289699999999;58.35600280761719;1673428850.884383;-22.14119529724121;24.998329162597656;-136.8730010986328
380;1673428850.8999863;47.1289349;7.238276;58.74900436401367;1673428851.084096;-21.981189727783203;25.027999877929688;-136.88710021972656
381;1673428851.0978959;47.128924999999995;7.2382624;59.138004302978516;1673428851.3325584;-21.89215850830078;25.111406326293945;-136.92340087890625
382;1673428851.3434434;47.1289151;7.2382488;59.531002044677734;1673428851.518684;-22.14460563659668;25.056550979614258;-136.93373107910156
383;1673428851.5313733;47.1289052;7.2382351;59.92200469970703;1673428851.7104857;-21.923255920410156;25.08938980102539;-136.9213409423828
384;1673428851.7241433;47.128895199999995;7.2382214;60.31200408935547;1673428851.9047647;-21.932695388793945;25.021970748901367;-136.91416931152344
385;1673428851.9174526;47.1288853;7.2382078;60.70000457763672;1673428852.0660467;-22.049114227294922;24.906888961791992;-136.9134521484375
386;1673428852.0828865;47.1288755;7.2381942;61.08700180053711;1673428852.2461534;-22.142192840576172;24.898094177246094;-136.92385864257812
387;1673428852.2637265;47.1288656;7.2381804999999995;61.47500228881836;1673428852.4372542;-22.223167419433594;24.87156105041504;-136.923828125
388;1673428852.4538302;47.128855699999995;7.2381668999999995;61.86700439453125;1673428852.628484;-22.10608673095703;25.030658721923828;-136.8878631591797
389;1673428852.6441293;47.1288457;7.2381533;62.25700378417969;1673428852.8230324;-22.119455337524414;24.93525505065918;-136.90594482421875
390;1673428852.8396623;47.1288358;7.2381397;62.64500427246094;1673428853.024024;-22.15530776977539;25.010616302490234;-136.9148712158203
391;1673428853.04062;47.1288258;7.2381261;63.03300476074219;1673428853.2230687;-22.04127311706543;25.011926651000977;-136.89166259765625
392;1673428853.2398152;47.1288158;7.2381123999999994;63.42200469970703;1673428853.4249086;-21.97211265563965;25.162635803222656;-136.90797424316406
393;1673428853.4405227;47.128805899999996;7.2380987999999995;63.81200408935547;1673428853.6204708;-21.946535110473633;25.002241134643555;-136.8771514892578
394;1673428853.6370533;47.1287959;7.238085099999999;64.20700073242188;1673428853.8204408;-21.974857330322266;25.005706787109375;-136.91122436523438
395;1673428853.8391669;47.128786;7.238071499999999;64.60600280761719;1673428854.0159543;-22.116844177246094;25.04191780090332;-136.93260192871094
396;1673428854.0325112;47.128775999999995;7.238057899999999;65.0050048828125;1673428854.2143595;-21.99245262145996;25.078838348388672;-136.8915252685547
397;1673428854.2319474;47.1287661;7.238044299999999;65.40299987792969;1673428854.4317107;-22.15651512145996;25.023590087890625;-136.91708374023438
398;1673428854.4611828;47.1287561;7.2380306;65.8010025024414;1673428854.6813455;-21.95574378967285;25.038307189941406;-136.8683624267578
399;1673428854.716157;47.128746199999995;7.2380169;66.20000457763672;1673428854.8906946;-22.066009521484375;24.9498233795166;-136.89305114746094
400;1673428854.911427;47.1287362;7.2380033;66.5979995727539;1673428855.0816388;-21.983070373535156;24.926067352294922;-136.89443969726562
401;1673428855.0962732;47.1287263;7.2379896;66.99800109863281;1673428855.2559931;-22.104082107543945;24.946897506713867;-136.9160614013672
402;1673428855.2711651;47.128716399999995;7.2379758999999995;67.39800262451172;1673428855.4444299;-21.94231414794922;25.054943084716797;-136.89730834960938
403;1673428855.4600487;47.1287064;7.2379622999999995;67.80000305175781;1673428855.6337109;-21.984609603881836;24.995344161987305;-136.8982391357422
404;1673428855.649329;47.128696399999995;7.2379487;68.20000457763672;1673428855.8667336;-21.910411834716797;25.13302993774414;-136.89686584472656
405;1673428855.8862865;47.1286865;7.2379351;68.59900665283203;1673428856.076173;-21.975183486938477;25.215898513793945;-136.9141845703125
406;1673428856.091882;47.1286765;7.2379215;68.9990005493164;1673428856.2772846;-21.94886589050293;25.103912353515625;-136.886962890625
407;1673428856.2950165;47.128666599999995;7.2379077999999994;69.4010009765625;1673428856.4823241;-21.915334701538086;25.02477264404297;-136.8954620361328
408;1673428856.499893;47.1286567;7.2378941999999995;69.80400085449219;1673428856.679315;-21.935758590698242;25.076683044433594;-136.9071502685547
409;1673428856.694926;47.1286467;7.2378805999999996;70.20899963378906;1673428856.874876;-21.974594116210938;25.04853630065918;-136.9022674560547
410;1673428856.8945658;47.128636799999995;7.237866899999999;70.61400604248047;1673428857.082833;-21.961641311645508;25.123106002807617;-136.91278076171875
411;1673428857.0966542;47.1286268;7.237853299999999;71.01900482177734;1673428857.2769685;-21.957778930664062;25.07590103149414;-136.88475036621094
412;1673428857.2994232;47.1286169;7.2378396;71.42300415039062;1673428857.4846249;-22.015357971191406;25.10785484313965;-136.90525817871094
413;1673428857.5012171;47.128606999999995;7.237826;71.8270034790039;1673428857.6830177;-22.1525821685791;24.949960708618164;-136.89955139160156
414;1673428857.7005863;47.1285971;7.237812399999999;72.2300033569336;1673428857.8833764;-22.03716468811035;24.97178077697754;-136.8856964111328
415;1673428857.9019113;47.1285872;7.2377987;72.63400268554688;1673428858.0925045;-22.0815372467041;25.00017738342285;-136.89630126953125
