;pos_time;latitude;longitude;altitude;alt_time;pitch;roll;yaw
0;1673423895.2628772;47.130642599999995;7.2406198999999996;-0.014000000432133675;1673423895.3694723;0.1776283085346222;0.19336208701133728;90.18539428710938
1;1673423895.4633644;47.130642599999995;7.2406198999999996;-0.014000000432133675;1673423895.5669096;-0.07431849092245102;-0.042263664305210114;90.26628112792969
2;1673423895.6835618;47.130642599999995;7.240619799999999;-0.015000000596046448;1673423895.7739189;-0.12673921883106232;0.07653757184743881;90.1353759765625
3;1673423895.8540606;47.1306425;7.2406198999999996;-0.012000000104308128;1673423895.9560606;-0.09390006214380264;0.3988976776599884;90.29219818115234
4;1673423896.0448408;47.1306425;7.2406198999999996;-0.010000000707805157;1673423896.149601;0.1781567633152008;-0.17768684029579163;90.44776916503906
5;1673423896.2472236;47.1306425;7.2406198999999996;-0.010000000707805157;1673423896.3630064;-0.007701011374592781;-0.3593429625034332;90.2624282836914
6;1673423896.4666865;47.1306425;7.2406198999999996;-0.01100000087171793;1673423896.5701406;-0.16079814732074738;-0.24566017091274261;90.25699615478516
7;1673423896.6801183;47.1306424;7.2406198999999996;-0.009000000543892384;1673423896.7852235;-0.2702029049396515;-0.3357853889465332;90.3789291381836
8;1673423896.8941336;47.1306424;7.24062;-0.007000000216066837;1673423896.993261;-0.16887004673480988;-0.07947537302970886;90.18026733398438
9;1673423897.086528;47.1306424;7.24062;-0.007000000216066837;1673423897.1817615;-0.01681365631520748;-0.37245050072669983;90.48741149902344
10;1673423897.2676468;47.1306424;7.24062;-0.010000000707805157;1673423897.3599293;0.05639418587088585;-0.09872506558895111;90.1264419555664
11;1673423897.4571342;47.1306424;7.24062;-0.012000000104308128;1673423897.5650578;-0.07288888841867447;-0.469554603099823;90.48086547851562
12;1673423897.6783967;47.1306424;7.2406198999999996;-0.014000000432133675;1673423897.7736282;-0.2592754364013672;-0.15069730579853058;90.31085205078125
13;1673423897.8807619;47.1306423;7.24062;-0.003000000026077032;1673423897.9818375;-0.19313748180866241;0.9284124970436096;90.40442657470703
14;1673423898.110192;47.1306423;7.24062;-0.007000000216066837;1673423898.2090387;-0.2992202043533325;0.5356611609458923;90.3514404296875
15;1673423898.306843;47.1306423;7.24062;-0.009000000543892384;1673423898.4097164;-0.32055315375328064;0.8111681342124939;90.30648803710938
16;1673423898.5350068;47.1306423;7.24062;-0.00800000037997961;1673423898.6416762;-0.2125846892595291;0.5268221497535706;90.42558288574219
17;1673423898.7316175;47.1306423;7.24062;-0.006000000052154064;1673423898.8162186;-0.023266131058335304;0.7542697787284851;90.16585540771484
18;1673423898.8885338;47.1306424;7.2406198999999996;-0.00800000037997961;1673423898.9752092;-0.10514921694993973;1.064927339553833;90.4618911743164
19;1673423899.0735183;47.1306424;7.2406198999999996;-0.007000000216066837;1673423899.1727648;-0.06195100024342537;1.649417519569397;90.38232421875
20;1673423899.2777138;47.1306424;7.24062;-0.004000000189989805;1673423899.3770406;0.17260238528251648;1.5107654333114624;90.6092529296875
21;1673423899.4687362;47.1306424;7.24062;0.0;1673423899.568837;-0.03357080742716789;1.2408490180969238;90.26699829101562
22;1673423899.664222;47.1306423;7.24062;0.0;1673423899.764769;0.08943452686071396;1.2551674842834473;90.34862518310547
23;1673423899.8963344;47.1306423;7.24062;0.0;1673423899.9976473;0.10531874001026154;0.7950090765953064;90.09170532226562
24;1673423900.0939963;47.1306423;7.2406198999999996;0.0010000000474974513;1673423900.1951017;0.25344330072402954;0.38931283354759216;90.29928588867188
25;1673423900.2844565;47.1306423;7.240619799999999;0.004000000189989805;1673423900.378825;0.20749977231025696;0.48734351992607117;90.43621063232422
26;1673423900.4723644;47.1306422;7.240619799999999;0.00800000037997961;1673423900.5753062;0.21264776587486267;0.19145071506500244;90.9402847290039
27;1673423900.673073;47.130642099999996;7.2406197;0.006000000052154064;1673423900.7756538;0.19220402836799622;0.45212820172309875;90.72193908691406
28;1673423900.8789394;47.1306419;7.2406197;0.0;1673423900.9827776;0.11438643932342529;0.09838593751192093;91.22542572021484
29;1673423901.0718296;47.130641399999995;7.2406197;0.009000000543892384;1673423901.1684172;0.2669192850589752;-1.2102088928222656;92.39241790771484
30;1673423901.261461;47.1306407;7.2406197;0.014000000432133675;1673423901.3677208;0.2765434682369232;-4.408237457275391;94.98553466796875
31;1673423901.4621236;47.1306398;7.2406197;0.026000000536441803;1673423901.5690563;0.2851978540420532;-8.751358032226562;97.5787353515625
32;1673423901.6718073;47.1306386;7.2406197;0.03400000184774399;1673423901.7725675;0.2858351767063141;-14.116422653198242;99.08917236328125
33;1673423901.8722346;47.1306373;7.2406197;0.04500000178813934;1673423901.9748096;0.01846114732325077;-16.536163330078125;97.91403198242188
34;1673423902.0681603;47.1306357;7.240619499999999;0.0650000050663948;1673423902.1714072;-0.14415554702281952;-18.18828773498535;96.67085266113281
35;1673423902.272493;47.1306343;7.240619199999999;0.09600000083446503;1673423902.389093;-0.43129634857177734;-20.150531768798828;95.68101501464844
36;1673423902.4678876;47.130632999999996;7.240618899999999;0.1380000114440918;1673423902.5560658;-1.0081733465194702;-21.685546875;94.9239730834961
37;1673423902.6577933;47.1306319;7.2406185;0.18900001049041748;1673423902.758997;-1.575930118560791;-23.318950653076172;94.29319763183594
38;1673423902.8465397;47.130631099999995;7.2406182;0.24800001084804535;1673423902.9407606;-2.251168966293335;-25.19622230529785;93.8012466430664
39;1673423903.0363986;47.1306307;7.240617899999999;0.3150000274181366;1673423903.1373603;-2.855365753173828;-27.068626403808594;93.4071273803711
40;1673423903.2385933;47.1306308;7.2406177;0.3890000283718109;1673423903.3419323;-3.6244900226593018;-28.91963768005371;93.05843353271484
41;1673423903.4386318;47.1306314;7.240617599999999;0.4710000157356262;1673423903.5422616;-4.311430931091309;-30.283584594726562;92.71885681152344
42;1673423903.6467113;47.1306325;7.2406178;0.5550000071525574;1673423903.7523577;-4.384186744689941;-28.271039962768555;92.41744995117188
43;1673423903.853426;47.130634199999996;7.2406179999999996;0.6460000276565552;1673423903.966232;-4.2294111251831055;-24.98609161376953;92.13204193115234
44;1673423904.0693393;47.1306361;7.2406184;0.7430000305175781;1673423904.1736221;-3.7957522869110107;-21.37889862060547;91.89490509033203
45;1673423904.2793298;47.1306381;7.2406188;0.8470000624656677;1673423904.377961;-3.2561264038085938;-19.1060733795166;91.80482482910156
46;1673423904.4858816;47.13064;7.240619199999999;0.9600000381469727;1673423904.588459;-2.9396986961364746;-16.701862335205078;91.97933959960938
47;1673423904.6783044;47.130641399999995;7.2406196;1.0880000591278076;1673423904.772831;-2.4590821266174316;-11.53209400177002;92.16561889648438
48;1673423904.8843746;47.1306424;7.2406198999999996;1.2300000190734863;1673423904.980594;-2.0389137268066406;-14.019294738769531;92.79347229003906
49;1673423905.0917795;47.1306431;7.2406201;1.3830000162124634;1673423905.1977687;-1.4286115169525146;-15.502985000610352;93.27750396728516
50;1673423905.2998245;47.1306434;7.2406201999999995;1.5550000667572021;1673423905.4030552;-1.6987981796264648;-13.743765830993652;91.62263488769531
51;1673423905.504262;47.130643299999996;7.2406203;1.7430000305175781;1673423905.619157;-1.8158825635910034;-17.41557502746582;92.4585952758789
52;1673423905.7318115;47.1306431;7.2406203;1.9290001392364502;1673423905.8163288;-1.713958501815796;-20.549654006958008;92.9217300415039
53;1673423905.9025476;47.1306429;7.2406201999999995;2.111999988555908;1673423905.9977615;-1.9854551553726196;-17.61988067626953;93.0665054321289
54;1673423906.0790238;47.130642599999995;7.2406201;2.2970001697540283;1673423906.1695323;-2.168626308441162;-18.974761962890625;93.23155212402344
55;1673423906.274027;47.1306424;7.24062;2.4810001850128174;1673423906.3767843;-2.3086161613464355;-21.80313491821289;93.71102142333984
56;1673423906.4939072;47.1306424;7.24062;2.677000045776367;1673423906.585375;-2.3962292671203613;-19.620513916015625;93.47020721435547
57;1673423906.6740904;47.1306422;7.2406198999999996;2.873000144958496;1673423906.7704105;-2.5144455432891846;-18.374893188476562;93.22792053222656
58;1673423906.8617177;47.130642099999996;7.2406198999999996;3.069000244140625;1673423906.9698157;-2.09957218170166;-22.41749382019043;93.46156311035156
59;1673423907.0652962;47.130642099999996;7.24062;3.264000177383423;1673423907.1775775;-2.151493549346924;-18.617597579956055;93.31947326660156
60;1673423907.2872748;47.1306422;7.24062;3.457000255584717;1673423907.3964837;-2.4799749851226807;-17.364879608154297;93.32588195800781
61;1673423907.4888666;47.1306423;7.24062;3.6460001468658447;1673423907.5920312;-2.3555819988250732;-20.32289695739746;93.60273742675781
62;1673423907.680235;47.1306424;7.24062;3.8350002765655518;1673423907.775744;-2.2025277614593506;-19.435771942138672;93.43604278564453
63;1673423907.868321;47.1306423;7.24062;4.028000354766846;1673423907.973094;-2.351588487625122;-16.811960220336914;93.232421875
64;1673423908.065502;47.1306422;7.24062;4.2230000495910645;1673423908.1663938;-2.351949453353882;-20.179624557495117;93.44844055175781
65;1673423908.2698758;47.130642099999996;7.24062;4.4170002937316895;1673423908.375418;-2.154526472091675;-20.780868530273438;93.57794952392578
66;1673423908.4640477;47.130641999999995;7.24062;4.611000061035156;1673423908.565338;-2.406670570373535;-17.36884307861328;93.21656036376953
67;1673423908.6558325;47.130641999999995;7.24062;4.802000045776367;1673423908.7584708;-2.3395168781280518;-19.197002410888672;93.38180541992188
68;1673423908.8591583;47.130642099999996;7.24062;4.991000175476074;1673423908.967096;-2.0722665786743164;-20.641956329345703;93.56682586669922
69;1673423909.0635335;47.130641999999995;7.24062;5.189000129699707;1673423909.167402;-2.3718414306640625;-17.926334381103516;93.33197021484375
70;1673423909.2676752;47.1306419;7.24062;5.392000198364258;1673423909.368198;-2.477968454360962;-18.669357299804688;93.25676727294922
71;1673423909.4626975;47.1306417;7.24062;5.5970001220703125;1673423909.5681865;-2.1487679481506348;-21.8090877532959;93.36237335205078
72;1673423909.665506;47.1306417;7.24062;5.797000408172607;1673423909.774111;-2.351969003677368;-18.528785705566406;93.45991516113281
73;1673423909.8759966;47.1306417;7.24062;5.991000175476074;1673423909.9906974;-2.543663501739502;-17.864444732666016;93.34318542480469
74;1673423910.096402;47.1306418;7.24062;6.184000492095947;1673423910.191467;-2.2725985050201416;-20.94125747680664;93.46797943115234
75;1673423910.295475;47.1306419;7.24062;6.37600040435791;1673423910.4024572;-2.3143539428710938;-19.567665100097656;93.3652572631836
76;1673423910.5065432;47.1306418;7.24062;6.570000171661377;1673423910.5960696;-2.540160894393921;-16.92144012451172;93.15789794921875
77;1673423910.686038;47.1306418;7.24062;6.764000415802002;1673423910.7852623;-2.478740930557251;-21.00864028930664;93.5201644897461
78;1673423910.8785148;47.1306417;7.24062;6.956000328063965;1673423910.9776566;-2.326465368270874;-19.907550811767578;93.43208312988281
79;1673423911.0641139;47.1306417;7.24062;7.15000057220459;1673423911.166461;-2.5348620414733887;-17.49970054626465;93.25305938720703
80;1673423911.2637095;47.1306418;7.24062;7.343000411987305;1673423911.366823;-2.5218076705932617;-19.9710636138916;93.3921127319336
81;1673423911.4790413;47.1306418;7.24062;7.535000324249268;1673423911.5811315;-2.124768018722534;-20.53413963317871;93.46891021728516
82;1673423911.6714745;47.1306418;7.24062;7.734000205993652;1673423911.7764475;-2.4562435150146484;-17.91305923461914;93.21968841552734
83;1673423911.8738084;47.1306417;7.24062;7.929000377655029;1673423911.9814405;-2.2849280834198;-19.209659576416016;93.3083267211914
84;1673423912.0703156;47.1306416;7.24062;8.123000144958496;1673423912.166084;-2.378404140472412;-21.888952255249023;93.51712799072266
85;1673423912.2904053;47.1306417;7.24062;8.315000534057617;1673423912.3908007;-2.598896026611328;-17.994150161743164;93.2747573852539
86;1673423912.4895165;47.1306418;7.24062;8.506999969482422;1673423912.5985742;-2.612952470779419;-18.171415328979492;93.25032043457031
87;1673423912.685645;47.1306419;7.24062;8.693000793457031;1673423912.7869473;-2.420720100402832;-21.109973907470703;93.52159881591797
88;1673423912.87829;47.1306419;7.24062;8.88700008392334;1673423912.9905427;-2.293488025665283;-18.718017578125;93.3285140991211
89;1673423913.0877085;47.1306418;7.2406201;9.086000442504883;1673423913.1845784;-2.5755882263183594;-17.524751663208008;93.18812561035156
90;1673423913.301174;47.1306417;7.2406201;9.284000396728516;1673423913.409188;-2.344120740890503;-21.38671875;93.52796173095703
91;1673423913.5080652;47.1306417;7.2406201999999995;9.479000091552734;1673423913.6207237;-2.2084386348724365;-19.490337371826172;93.41714477539062
92;1673423913.7041364;47.1306417;7.2406201999999995;9.672000885009766;1673423913.8044367;-2.392483949661255;-17.649028778076172;93.26638793945312
93;1673423913.901742;47.1306418;7.2406201999999995;9.863000869750977;1673423913.9970524;-2.241220235824585;-20.66644287109375;93.46196746826172
94;1673423914.0880349;47.1306418;7.2406201999999995;10.058000564575195;1673423914.2012196;-2.205310583114624;-19.98122787475586;93.41854095458984
95;1673423914.3003762;47.1306419;7.2406201999999995;10.290000915527344;1673423914.4056182;-2.316197156906128;-16.64419937133789;92.92068481445312
96;1673423914.505686;47.130641999999995;7.2406201999999995;10.63800048828125;1673423914.5981653;-2.610521078109741;-20.173301696777344;93.33881378173828
97;1673423914.678456;47.1306422;7.2406203;11.019000053405762;1673423914.7700355;-2.327458381652832;-21.708637237548828;93.456787109375
98;1673423914.858713;47.1306425;7.2406203;11.408000946044922;1673423914.9658055;-2.3236303329467773;-16.693252563476562;93.34033203125
99;1673423915.066091;47.1306429;7.2406204;11.802000999450684;1673423915.167491;-2.45955753326416;-16.36786651611328;93.29973602294922
100;1673423915.2798746;47.130643199999994;7.2406204;12.199000358581543;1673423915.3812234;-2.099456787109375;-18.44782257080078;93.53956604003906
101;1673423915.4784708;47.130643299999996;7.2406204;12.60400104522705;1673423915.577335;-2.3342604637145996;-16.38671112060547;93.39053344726562
102;1673423915.680535;47.130643199999994;7.2406204;13.011000633239746;1673423915.7766554;-2.2727243900299072;-15.763517379760742;93.15483856201172
103;1673423915.8748708;47.1306431;7.2406204;13.421000480651855;1673423915.9731848;-2.2431528568267822;-19.103748321533203;93.4322738647461
104;1673423916.0757542;47.1306429;7.2406204;13.828001022338867;1673423916.1809883;-2.230039119720459;-19.06142807006836;93.4968032836914
105;1673423916.2799191;47.1306428;7.2406204;14.235000610351562;1673423916.3881655;-2.3805441856384277;-16.72901153564453;93.30985260009766
106;1673423916.4965703;47.130642699999996;7.2406204;14.63800048828125;1673423916.5947094;-2.2841360569000244;-19.2116756439209;93.3306655883789
107;1673423916.6903803;47.130642699999996;7.2406204;15.043001174926758;1673423916.7888622;-2.2010488510131836;-20.31466293334961;93.38546752929688
108;1673423916.8846211;47.1306425;7.2406204;15.455000877380371;1673423916.986719;-2.4828975200653076;-17.493154525756836;93.18688201904297
109;1673423917.084358;47.1306424;7.2406204;15.870000839233398;1673423917.1919246;-2.3526663780212402;-18.078824996948242;93.31425476074219
110;1673423917.2800121;47.1306424;7.2406204;16.277999877929688;1673423917.3738925;-2.245511770248413;-21.188804626464844;93.47120666503906
111;1673423917.4664896;47.1306424;7.2406204;16.683000564575195;1673423917.5656085;-2.385021448135376;-17.650999069213867;93.3080825805664
112;1673423917.6787062;47.1306425;7.2406204;17.08300018310547;1673423917.776762;-2.635594367980957;-17.154861450195312;93.28314971923828
113;1673423917.8662014;47.130642599999995;7.2406203;17.48200035095215;1673423917.9623413;-2.22420334815979;-19.782514572143555;93.44549560546875
114;1673423918.048102;47.130642599999995;7.2406203;17.884000778198242;1673423918.150032;-2.1956560611724854;-18.522729873657227;93.35431671142578
115;1673423918.2402298;47.130642599999995;7.2406204;18.288000106811523;1673423918.3504448;-2.3637659549713135;-16.450912475585938;93.14348602294922
116;1673423918.4498641;47.1306425;7.2406204;18.692001342773438;1673423918.5588214;-2.3189358711242676;-19.001821517944336;93.48914337158203
117;1673423918.6594899;47.1306425;7.2406204;19.093000411987305;1673423918.770444;-2.1600704193115234;-20.225059509277344;93.52876281738281
118;1673423918.8863392;47.130642599999995;7.2406203;19.492000579833984;1673423918.9806652;-2.382765054702759;-16.83191680908203;93.30638885498047
119;1673423919.0824296;47.130642599999995;7.2406203;19.884000778198242;1673423919.1760578;-2.430629253387451;-18.080448150634766;93.42565155029297
120;1673423919.264574;47.130642699999996;7.2406203;20.275001525878906;1673423919.3617845;-2.173252820968628;-20.08119010925293;93.572021484375
121;1673423919.4554722;47.130642699999996;7.2406203;20.676000595092773;1673423919.5614877;-2.2506752014160156;-17.723237991333008;93.27952575683594
122;1673423919.6609948;47.130642599999995;7.2406201999999995;21.07900047302246;1673423919.7707963;-2.40518856048584;-17.035377502441406;93.26939392089844
123;1673423919.865377;47.1306425;7.2406201999999995;21.48200035095215;1673423919.9699311;-2.2617759704589844;-20.974273681640625;93.56476593017578
124;1673423920.0649867;47.1306425;7.2406201;21.887001037597656;1673423920.1702783;-2.553520679473877;-18.063037872314453;93.35252380371094
125;1673423920.2756586;47.1306425;7.2406201;22.286001205444336;1673423920.3774202;-2.798410654067993;-16.714557647705078;93.2208480834961
126;1673423920.4747324;47.130642599999995;7.24062;22.684001922607422;1673423920.5748467;-2.491065740585327;-19.68439483642578;93.48461151123047
127;1673423920.6702297;47.130642699999996;7.24062;23.08500099182129;1673423920.7744212;-2.334287166595459;-18.821508407592773;93.4868392944336
128;1673423920.8761861;47.130642699999996;7.24062;23.492000579833984;1673423920.9854608;-2.656916856765747;-16.61023712158203;93.2751235961914
129;1673423921.093735;47.130642599999995;7.24062;23.8960018157959;1673423921.1816173;-2.4337475299835205;-18.974172592163086;93.37274169921875
130;1673423921.27893;47.130642599999995;7.24062;24.299001693725586;1673423921.3868756;-2.2920405864715576;-20.09425163269043;93.47213745117188
131;1673423921.4820035;47.130642599999995;7.24062;24.700000762939453;1673423921.5901518;-2.5874698162078857;-17.004831314086914;93.23712158203125
132;1673423921.6904368;47.130642599999995;7.24062;25.09600067138672;1673423921.7938871;-2.6326868534088135;-17.574867248535156;93.20189666748047
133;1673423921.894081;47.130642599999995;7.24062;25.499000549316406;1673423922.021236;-2.2954628467559814;-20.182607650756836;93.4853286743164
134;1673423922.1144;47.130642599999995;7.2406198999999996;25.907001495361328;1673423922.2104745;-2.3784971237182617;-17.95296287536621;93.37920379638672
135;1673423922.3057215;47.130642599999995;7.2406198999999996;26.315000534057617;1673423922.4053445;-2.5884881019592285;-16.481700897216797;93.11885070800781
136;1673423922.5140533;47.1306425;7.2406198999999996;26.724000930786133;1673423922.6057682;-2.3398969173431396;-20.245859146118164;93.46488952636719
137;1673423922.6990454;47.1306424;7.2406198999999996;27.131000518798828;1673423922.7973342;-2.4396824836730957;-19.180347442626953;93.46649169921875
138;1673423922.8869894;47.1306424;7.2406198999999996;27.52800178527832;1673423922.992232;-2.6225175857543945;-16.51066780090332;93.18656921386719
139;1673423923.0927582;47.1306424;7.2406198999999996;27.928001403808594;1673423923.194683;-2.590247631072998;-19.360027313232422;93.41474151611328
140;1673423923.2874358;47.1306424;7.24062;28.330001831054688;1673423923.3848822;-2.1548922061920166;-19.436092376708984;93.52983856201172
141;1673423923.477404;47.1306424;7.24062;28.73400115966797;1673423923.5835385;-2.483701229095459;-16.855560302734375;93.27987670898438
142;1673423923.6868117;47.1306423;7.24062;29.13800048828125;1673423923.782114;-2.5026323795318604;-18.634897232055664;93.33843231201172
143;1673423923.876704;47.1306422;7.24062;29.542001724243164;1673423923.9822152;-2.2629499435424805;-20.680580139160156;93.50016021728516
144;1673423924.081509;47.1306422;7.24062;29.942001342773438;1673423924.1868176;-2.578648567199707;-17.150720596313477;93.37413024902344
145;1673423924.2976365;47.1306423;7.24062;30.334001541137695;1673423924.3998983;-2.5716004371643066;-17.512958526611328;93.31185150146484
146;1673423924.492784;47.1306423;7.24062;30.731000900268555;1673423924.597059;-2.5771665573120117;-20.285324096679688;93.44702911376953
147;1673423924.6923325;47.1306424;7.2406198999999996;31.13300132751465;1673423924.7868328;-2.5754036903381348;-18.021324157714844;93.44226837158203
148;1673423924.9019318;47.1306424;7.2406198999999996;31.538002014160156;1673423925.006451;-2.8310770988464355;-16.923419952392578;93.22451782226562
149;1673423925.0925426;47.1306423;7.2406198999999996;31.944002151489258;1673423925.1858587;-2.4732415676116943;-20.198978424072266;93.4950180053711
150;1673423925.28269;47.1306423;7.24062;32.34800338745117;1673423925.3937478;-2.514976978302002;-18.496007919311523;93.29498291015625
151;1673423925.493152;47.1306424;7.24062;32.74100112915039;1673423925.586459;-2.6353418827056885;-16.589811325073242;93.25482940673828
152;1673423925.6845796;47.1306424;7.24062;33.138999938964844;1673423925.7905421;-2.6438565254211426;-19.111297607421875;93.41324615478516
153;1673423925.8869145;47.1306425;7.24062;33.53900146484375;1673423926.0055335;-2.4917774200439453;-19.489038467407227;93.50275421142578
154;1673423926.1149716;47.1306425;7.24062;33.944000244140625;1673423926.2149305;-2.623276710510254;-17.077518463134766;93.19102478027344
155;1673423926.3039768;47.1306425;7.2406201;34.35000228881836;1673423926.4027786;-2.613049030303955;-17.98316192626953;93.30401611328125
156;1673423926.4961183;47.1306424;7.2406201;34.75699996948242;1673423926.597399;-2.3430988788604736;-20.818164825439453;93.53038024902344
157;1673423926.7426445;47.1306424;7.2406201;35.163002014160156;1673423926.8232758;-2.5973713397979736;-17.20696258544922;93.35686492919922
158;1673423926.9035664;47.1306424;7.2406201;35.557003021240234;1673423926.988136;-2.7293546199798584;-17.353578567504883;93.29142761230469
159;1673423927.069679;47.1306425;7.2406201;35.95500183105469;1673423927.1688602;-2.39345383644104;-20.355079650878906;93.54866027832031
160;1673423927.2660124;47.130642599999995;7.2406201999999995;36.35700225830078;1673423927.372093;-2.3925180435180664;-17.70710563659668;93.32313537597656
161;1673423927.477038;47.130642599999995;7.2406201999999995;36.76000213623047;1673423927.589702;-2.566488027572632;-16.771305084228516;93.26880645751953
162;1673423927.6918826;47.1306425;7.2406201999999995;37.165000915527344;1673423927.7853863;-2.271864414215088;-19.89352035522461;93.48033905029297
163;1673423927.8754315;47.1306425;7.2406203;37.56800079345703;1673423927.9713218;-2.4334185123443604;-19.07334327697754;93.37007141113281
164;1673423928.0685241;47.1306425;7.2406201999999995;37.961002349853516;1673423928.168773;-2.6814088821411133;-16.574085235595703;93.18315124511719
165;1673423928.2697892;47.1306425;7.2406201999999995;38.35300064086914;1673423928.3661828;-2.5103836059570312;-19.17653465270996;93.41791534423828
166;1673423928.4654255;47.130642599999995;7.2406201999999995;38.74800109863281;1673423928.578366;-2.3959360122680664;-19.510601043701172;93.48213958740234
167;1673423928.6818101;47.130642599999995;7.2406201999999995;39.1510009765625;1673423928.7924302;-2.830277442932129;-16.973968505859375;93.17169189453125
168;1673423928.8737571;47.1306425;7.2406201999999995;39.55600357055664;1673423928.97984;-2.554888963699341;-18.283042907714844;93.34369659423828
169;1673423929.080623;47.1306424;7.2406201999999995;39.95900344848633;1673423929.1824512;-2.330385684967041;-20.769012451171875;93.60980987548828
170;1673423929.2992098;47.1306424;7.2406201;40.361000061035156;1673423929.3997157;-2.585749387741089;-17.267282485961914;93.26864624023438
171;1673423929.504373;47.1306424;7.2406201;40.75300216674805;1673423929.5979426;-2.794326066970825;-17.228071212768555;93.24266052246094
172;1673423929.6932046;47.1306425;7.24062;41.14600372314453;1673423929.78989;-2.7005789279937744;-20.172607421875;93.59025573730469
173;1673423929.8870811;47.1306425;7.24062;41.54600143432617;1673423929.9959688;-2.62605881690979;-18.10231590270996;93.38947296142578
174;1673423930.0906854;47.1306425;7.24062;41.94900131225586;1673423930.1891022;-2.820418357849121;-16.785280227661133;93.16226196289062
175;1673423930.2791104;47.1306424;7.2406198999999996;42.35400390625;1673423930.3694623;-2.635930299758911;-19.980960845947266;93.40689849853516
176;1673423930.4655905;47.1306424;7.2406198999999996;42.76000213623047;1673423930.57659;-2.6422805786132812;-18.89266014099121;93.42855072021484
177;1673423930.683283;47.1306424;7.2406198999999996;43.15500259399414;1673423930.7841737;-2.6625709533691406;-16.78587532043457;93.20977020263672
178;1673423930.89779;47.1306424;7.2406198999999996;43.55000305175781;1673423930.996451;-2.726386070251465;-19.4180908203125;93.40219116210938
179;1673423931.0949905;47.1306425;7.24062;43.95100021362305;1673423931.1865072;-2.463308334350586;-19.859994888305664;93.45552825927734
180;1673423931.2868774;47.1306425;7.24062;44.35600280761719;1673423931.388558;-2.8758888244628906;-16.92093849182129;93.28929901123047
181;1673423931.4863021;47.1306424;7.24062;44.76000213623047;1673423931.582687;-2.8012773990631104;-18.02625274658203;93.30549621582031
182;1673423931.6854937;47.1306424;7.24062;45.16100311279297;1673423931.784689;-2.579293727874756;-20.60719108581543;93.56941223144531
183;1673423931.8852847;47.1306424;7.2406198999999996;45.564002990722656;1673423931.987599;-2.6409640312194824;-16.735408782958984;93.223876953125
184;1673423932.0837283;47.1306425;7.2406198999999996;45.958003997802734;1673423932.1854017;-2.9415230751037598;-17.1932373046875;93.31611633300781
185;1673423932.2847443;47.1306425;7.2406198999999996;46.35700225830078;1673423932.3828955;-2.640998601913452;-19.822458267211914;93.5854721069336
186;1673423932.4753864;47.130642599999995;7.2406198999999996;46.76000213623047;1673423932.5783803;-2.8494956493377686;-18.047719955444336;93.45065307617188
187;1673423932.6670597;47.1306425;7.2406198999999996;47.165000915527344;1673423932.7717745;-2.8469414710998535;-16.59775161743164;93.2162094116211
188;1673423932.87565;47.1306425;7.240619799999999;47.56800079345703;1673423932.9798791;-2.847273111343384;-19.674442291259766;93.4240951538086
189;1673423933.0782013;47.1306425;7.240619799999999;47.967002868652344;1673423933.1802347;-2.904045343399048;-19.04867172241211;93.25843811035156
190;1673423933.2757201;47.1306424;7.240619799999999;48.333003997802734;1673423933.384682;-3.127685308456421;-17.528514862060547;93.11707305908203
191;1673423933.4828825;47.1306424;7.240619799999999;48.650001525878906;1673423933.5850022;-2.920412063598633;-19.60033416748047;93.41902160644531
192;1673423933.6799312;47.1306423;7.240619799999999;48.923004150390625;1673423933.7832546;-2.7535345554351807;-19.763113021850586;93.49011993408203
193;1673423933.890657;47.130642099999996;7.240619799999999;49.160003662109375;1673423933.987362;-2.8883376121520996;-16.863895416259766;93.31022644042969
194;1673423934.0885527;47.1306418;7.240619799999999;49.36000061035156;1673423934.19167;6.333125591278076;-9.130703926086426;93.80009460449219
195;1673423934.2837682;47.1306413;7.240619499999999;49.525001525878906;1673423934.3982017;24.48776626586914;16.665693283081055;105.05756378173828
196;1673423934.4956355;47.130639699999996;7.2406175;49.6660041809082;1673423934.5992432;30.894712448120117;37.64101791381836;115.97940826416016
197;1673423934.6923225;47.1306358;7.240612;49.77400207519531;1673423934.7924585;26.654132843017578;46.62609100341797;122.16576385498047
198;1673423934.8931794;47.1306292;7.240602699999999;49.832000732421875;1673423934.998456;11.2129487991333;46.471900939941406;132.59991455078125
199;1673423935.0886836;47.13062;7.2405902;49.86900329589844;1673423935.1788867;-2.934887647628784;47.72309494018555;143.74041748046875
200;1673423935.2683296;47.130608599999995;7.2405751;49.900001525878906;1673423935.368784;-18.71908187866211;47.780399322509766;153.9196014404297
201;1673423935.4638646;47.130595;7.2405577;49.927001953125;1673423935.564949;-33.4047737121582;45.52711486816406;166.51663208007812
202;1673423935.671969;47.1305793;7.240538099999999;49.95500183105469;1673423935.774022;-45.3769416809082;41.20250701904297;179.95372009277344
203;1673423935.8791611;47.1305615;7.2405159;49.980003356933594;1673423935.9919446;-53.468177795410156;34.79397201538086;-168.23741149902344
204;1673423936.0982912;47.130541799999996;7.2404911;49.98500061035156;1673423936.206363;-56.13460159301758;28.28744125366211;-158.40306091308594
205;1673423936.3052793;47.1305207;7.2404639;49.95100402832031;1673423936.4108665;-49.21025848388672;22.45431900024414;-152.36355590820312
206;1673423936.5092578;47.130498499999995;7.2404348;49.88900375366211;1673423936.6584802;-47.54487228393555;16.937519073486328;-145.7394256591797
207;1673423936.737178;47.1304759;7.2404044999999995;49.816001892089844;1673423936.8744957;-47.90196990966797;12.20655345916748;-139.9587860107422
208;1673423936.986308;47.130452999999996;7.2403732;49.74500274658203;1673423937.0631423;-45.98090744018555;9.082751274108887;-133.0683135986328
209;1673423937.166329;47.13043;7.2403413;49.691001892089844;1673423937.2456179;-44.47087478637695;1.9845523834228516;-128.58746337890625
210;1673423937.3315535;47.1304071;7.2403093;49.64900207519531;1673423937.44119;-43.728885650634766;1.7501413822174072;-131.85519409179688
211;1673423937.5227685;47.130384;7.2402773;49.62200164794922;1673423937.6236165;-44.90873336791992;3.2637741565704346;-134.06951904296875
212;1673423937.7212958;47.130360599999996;7.2402453;49.62200164794922;1673423937.8215816;-47.16284942626953;4.509248733520508;-134.801513671875
213;1673423937.9139755;47.130337;7.2402133;49.63600158691406;1673423938.017331;-48.58326721191406;6.082972049713135;-135.31427001953125
214;1673423938.0966733;47.130313;7.2401811;49.6670036315918;1673423938.1876543;-48.148521423339844;6.801200866699219;-135.38726806640625
215;1673423938.288009;47.1302889;7.2401487;49.70600128173828;1673423938.385733;-48.55466842651367;7.4967546463012695;-135.4944610595703
216;1673423938.4752874;47.1302647;7.2401161;49.73600387573242;1673423938.580427;-48.65855407714844;7.385644435882568;-135.29444885253906
217;1673423938.6825304;47.1302405;7.2400832;49.7660026550293;1673423938.7845654;-48.01275634765625;7.236451625823975;-135.2196502685547
218;1673423938.8849626;47.1302161;7.24005;49.79900360107422;1673423938.9955394;-47.979496002197266;7.30870246887207;-135.20755004882812
219;1673423939.0872383;47.1301917;7.240016499999999;49.832000732421875;1673423939.1832657;-48.1671142578125;7.182582855224609;-135.14654541015625
220;1673423939.28469;47.130167199999995;7.239982899999999;49.8650016784668;1673423939.392578;-48.46823501586914;7.17022705078125;-135.1593780517578
221;1673423939.4925811;47.1301427;7.2399492;49.89900207519531;1673423939.6005213;-48.838111877441406;7.072598457336426;-135.1425323486328
222;1673423939.6909404;47.1301182;7.2399153;49.927001953125;1673423939.792234;-48.6618766784668;6.823401927947998;-135.0926971435547
223;1673423939.893409;47.130093599999995;7.2398815;49.93800354003906;1673423939.9974778;-47.887054443359375;6.477714538574219;-134.9855194091797
224;1673423940.090245;47.130069;7.2398473999999995;49.95000076293945;1673423940.201315;-47.49666213989258;6.628135681152344;-135.19921875
225;1673423940.3051188;47.130044399999996;7.2398134;49.965003967285156;1673423940.4006228;-47.871578216552734;6.878205299377441;-135.30221557617188
226;1673423940.49324;47.1300197;7.2397792999999995;49.980003356933594;1673423940.5873032;-48.56471252441406;6.832549095153809;-135.26959228515625
227;1673423940.6727664;47.129995;7.2397452;49.99100112915039;1673423940.7808852;-48.53706741333008;6.721279144287109;-135.22726440429688
228;1673423940.8801227;47.129970199999995;7.2397111;49.99700164794922;1673423940.994861;-48.15245056152344;6.605132579803467;-135.21151733398438
229;1673423941.0861993;47.1299455;7.2396771;49.9900016784668;1673423941.1903658;-47.61940383911133;6.505742073059082;-135.2003936767578
230;1673423941.2912297;47.1299207;7.239643;49.98100280761719;1673423941.3971848;-47.2119140625;6.682373523712158;-135.33642578125
231;1673423941.4956765;47.129895999999995;7.239609;49.97800064086914;1673423941.5914953;-47.53354263305664;6.749287128448486;-135.38978576660156
232;1673423941.68781;47.1298714;7.239574999999999;49.97900390625;1673423941.7910168;-48.219547271728516;6.784453392028809;-135.39015197753906
233;1673423941.8842175;47.129846699999995;7.239541;49.97900390625;1673423941.9795122;-48.49032211303711;6.749639511108398;-135.31114196777344
234;1673423942.086526;47.129821899999996;7.239506899999999;49.97500228881836;1673423942.192626;-48.24942398071289;6.585114002227783;-135.28858947753906
235;1673423942.2810578;47.1297972;7.2394729;49.97200393676758;1673423942.3835194;-47.85281753540039;6.626554489135742;-135.30584716796875
236;1673423942.4838262;47.1297724;7.239439;49.965003967285156;1673423942.593465;-47.815364837646484;6.637056350708008;-135.28231811523438
237;1673423942.6996815;47.129747699999996;7.239405;49.95500183105469;1673423942.7922223;-47.773399353027344;6.565813064575195;-135.28076171875
238;1673423942.894189;47.129723;7.239370999999999;49.94900131225586;1673423943.002173;-47.85960388183594;6.546385288238525;-135.2766876220703
239;1673423943.0974376;47.1296982;7.239337099999999;49.94600296020508;1673423943.1976953;-48.04003143310547;6.545292854309082;-135.26536560058594
240;1673423943.3036797;47.129673499999996;7.239303199999999;49.945003509521484;1673423943.4066045;-48.11206817626953;6.556022644042969;-135.25230407714844
241;1673423943.5025723;47.1296488;7.2392692;49.94200134277344;1673423943.5970573;-48.062278747558594;6.504560947418213;-135.21774291992188
242;1673423943.6872938;47.1296241;7.2392353;49.939002990722656;1673423943.7944055;-47.93687438964844;6.46188497543335;-135.18231201171875
243;1673423943.9062827;47.1295994;7.2392015;49.932003021240234;1673423944.001739;-47.63742446899414;6.531585216522217;-135.17843627929688
244;1673423944.099201;47.1295746;7.2391676;49.92400360107422;1673423944.2139857;-47.46647262573242;6.481227397918701;-135.1357879638672
245;1673423944.31237;47.1295499;7.239133799999999;49.9160041809082;1673423944.4146454;-47.37919998168945;6.427921295166016;-135.0751953125
246;1673423944.5027344;47.129525199999996;7.2391;49.91200256347656;1673423944.598104;-47.52585983276367;6.524489879608154;-135.12579345703125
247;1673423944.6947517;47.1295005;7.2390662;49.9160041809082;1673423944.7945135;-47.95975112915039;6.5907979011535645;-135.07254028320312
248;1673423944.8888285;47.129475799999994;7.2390323;49.92000198364258;1673423944.9899416;-48.262996673583984;6.4306721687316895;-134.93081665039062
249;1673423945.0973055;47.1294511;7.2389985;49.92400360107422;1673423945.1963606;-48.12342834472656;6.333333492279053;-134.8643341064453
250;1673423945.3007677;47.1294264;7.2389646;49.92900085449219;1673423945.4096665;-47.761680603027344;7.413154125213623;-135.08551025390625
251;1673423945.501029;47.129401699999995;7.2389307;49.93600082397461;1673423945.5982304;-47.42209243774414;12.728978157043457;-136.1151885986328
252;1673423945.6887167;47.1293772;7.2388965999999995;49.941001892089844;1673423945.7952666;-46.79502868652344;10.70413875579834;-134.50021362304688
253;1673423945.8959303;47.129352999999995;7.2388622;49.95000076293945;1673423946.0001173;-42.01034164428711;8.714814186096191;-133.41006469726562
254;1673423946.1050947;47.1293291;7.238827799999999;49.97900390625;1673423946.2061763;-28.169950485229492;11.994728088378906;-134.88824462890625
255;1673423946.298615;47.1293061;7.2387942;50.012001037597656;1673423946.398782;-8.8844633102417;10.523749351501465;-135.1012420654297
256;1673423946.4911442;47.129284299999995;7.2387624;50.031002044677734;1673423946.5932233;6.396560192108154;9.765237808227539;-136.79037475585938
257;1673423946.6934192;47.129264299999996;7.2387334999999995;50.02800369262695;1673423946.7964792;17.325550079345703;9.82013988494873;-137.26156616210938
258;1673423946.896743;47.129246599999995;7.2387083;50.00700378417969;1673423947.0014315;25.073244094848633;13.234169006347656;-137.78915405273438
259;1673423947.0950475;47.1292312;7.2386867;49.954002380371094;1673423947.198069;20.33224868774414;8.506267547607422;-138.09657287597656
260;1673423947.2996812;47.129217999999995;7.2386686;49.87000274658203;1673423947.3961513;24.212467193603516;10.865135192871094;-139.98480224609375
261;1673423947.4933429;47.1292068;7.2386536999999995;49.81100082397461;1673423947.592492;28.647077560424805;12.418421745300293;-139.13670349121094
262;1673423947.688677;47.1291977;7.2386414;49.78600311279297;1673423947.788801;30.430034637451172;14.077924728393555;-138.95974731445312
263;1673423947.8902075;47.129190799999996;7.2386313;49.781002044677734;1673423948.0026548;26.237442016601562;13.907313346862793;-137.3594207763672
264;1673423948.0961049;47.129185799999995;7.238623;49.78900146484375;1673423948.200243;18.686729431152344;11.605379104614258;-136.69190979003906
265;1673423948.2994382;47.129182;7.2386159;49.82200241088867;1673423948.4138868;9.654860496520996;9.239452362060547;-136.77639770507812
266;1673423948.5292242;47.129178599999996;7.2386095;49.867000579833984;1673423948.6442783;3.1544508934020996;8.1644926071167;-136.30747985839844
267;1673423948.735154;47.1291752;7.238603599999999;49.91100311279297;1673423948.8333023;0.7546095848083496;7.375862121582031;-137.08993530273438
268;1673423948.9159708;47.1291715;7.2385978;49.9530029296875;1673423949.0071208;1.5989327430725098;6.133819103240967;-138.41294860839844
269;1673423949.1074116;47.1291674;7.238592499999999;49.98500061035156;1673423949.2065315;4.090303421020508;7.380762577056885;-139.16336059570312
270;1673423949.2915804;47.129163299999995;7.2385876;50.00800323486328;1673423949.4045932;8.645488739013672;6.588901519775391;-139.0035400390625
271;1673423949.5733492;47.129159099999995;7.2385831;50.03000259399414;1673423949.6961617;13.385828018188477;6.747490406036377;-138.20582580566406
272;1673423949.7748;47.1291552;7.238579;50.05000305175781;1673423949.8741822;5.302494049072266;9.927903175354004;-137.95436096191406
273;1673423949.9663064;47.1291514;7.238575;50.09400177001953;1673423950.0502708;-19.909006118774414;15.017452239990234;-138.291259765625
274;1673423950.1339476;47.1291472;7.2385699;50.163002014160156;1673423950.2327266;-17.463619232177734;5.4976396560668945;-136.9818878173828
275;1673423950.3207624;47.1291417;7.2385632;50.31200408935547;1673423950.4116135;-15.435830116271973;7.069750785827637;-137.2512664794922
276;1673423950.506059;47.1291349;7.2385554;50.58700180053711;1673423950.618154;-30.503910064697266;16.20649528503418;-138.31976318359375
277;1673423950.7166514;47.1291271;7.2385459999999995;50.948001861572266;1673423950.8189876;-29.57056427001953;16.609437942504883;-135.64300537109375
278;1673423950.9366949;47.1291182;7.2385342999999995;51.329002380371094;1673423951.0310805;-27.403528213500977;17.211362838745117;-136.4120330810547
279;1673423951.1236975;47.129108699999996;7.238520599999999;51.73400115966797;1673423951.2275274;-21.60808563232422;13.301538467407227;-135.8656005859375
280;1673423951.3175423;47.129098899999995;7.2385056;52.13900375366211;1673423951.4170506;-16.74677085876465;9.83206844329834;-136.32376098632812
281;1673423951.5079389;47.1290888;7.23849;52.544002532958984;1673423951.6099906;-12.3861722946167;7.550235748291016;-136.66387939453125
282;1673423951.7066946;47.129078799999995;7.2384742;52.94400405883789;1673423951.8063743;-8.406244277954102;7.5018744468688965;-137.12246704101562
283;1673423951.9477856;47.1290688;7.2384587;53.345001220703125;1673423952.042997;-6.589078903198242;8.051648139953613;-137.8984832763672
284;1673423952.1536417;47.129058799999996;7.2384438;53.74500274658203;1673423952.2535777;-6.190872669219971;9.703682899475098;-138.16839599609375
285;1673423952.3382137;47.129048999999995;7.238429699999999;54.14200210571289;1673423952.433272;-7.29921293258667;9.126814842224121;-137.8220672607422
286;1673423952.5321229;47.1290392;7.2384163;54.538002014160156;1673423952.6212656;-8.924036026000977;8.305262565612793;-137.29124450683594
287;1673423952.7245781;47.1290294;7.2384032;54.93600082397461;1673423952.828612;-10.2778902053833;7.294591426849365;-136.79833984375
288;1673423952.9250221;47.129019799999995;7.2383906;55.33400344848633;1673423953.0244946;-11.447319984436035;7.491851329803467;-136.93544006347656
289;1673423953.1273484;47.129010199999996;7.2383779;55.733001708984375;1673423953.218966;-12.544862747192383;7.583985328674316;-136.6629638671875
290;1673423953.3226435;47.1290006;7.238365099999999;56.131004333496094;1673423953.4211879;-12.635032653808594;10.233711242675781;-136.82322692871094
291;1673423953.5087926;47.128991;7.238352099999999;56.52800369262695;1673423953.6010716;-13.32154655456543;11.785290718078613;-137.14804077148438
292;1673423953.699405;47.1289812;7.2383389;56.926002502441406;1673423953.8055503;-13.809784889221191;12.973653793334961;-137.49546813964844
293;1673423953.907448;47.128971299999996;7.238325499999999;57.32100296020508;1673423954.0049393;-14.241800308227539;11.24753475189209;-137.20736694335938
294;1673423954.0973814;47.128961399999994;7.238312;57.71800231933594;1673423954.2004924;-14.050766944885254;9.04112720489502;-137.04318237304688
295;1673423954.2956862;47.1289515;7.2382984;58.11900329589844;1673423954.4016066;-13.185179710388184;8.058977127075195;-136.80845642089844
296;1673423954.4918065;47.128941399999995;7.2382848;58.52100372314453;1673423954.5998247;-12.032093048095703;7.758606910705566;-136.38487243652344
297;1673423954.7085004;47.1289314;7.2382710999999995;58.92000198364258;1673423954.8177042;-11.247121810913086;8.698928833007812;-136.57852172851562
298;1673423954.9162116;47.128921299999995;7.238257399999999;59.31900405883789;1673423955.0379677;-11.175934791564941;10.823522567749023;-136.93246459960938
299;1673423955.1304257;47.1289113;7.2382437;59.717002868652344;1673423955.231583;-11.160876274108887;11.673454284667969;-137.0657501220703
300;1673423955.3372815;47.1289014;7.23823;60.11600112915039;1673423955.4481769;-11.594594955444336;12.240145683288574;-137.2819061279297
301;1673423955.5582485;47.128891499999995;7.2382164;60.51700210571289;1673423955.6370604;-12.188077926635742;10.671253204345703;-137.3249969482422
302;1673423955.7328827;47.1288815;7.2382031;60.9160041809082;1673423955.837136;-12.591232299804688;8.878585815429688;-136.77792358398438
303;1673423955.937099;47.128871499999995;7.2381898;61.31500244140625;1673423956.050935;-12.463495254516602;8.709620475769043;-136.8074951171875
304;1673423956.1438673;47.1288614;7.2381766;61.715003967285156;1673423956.2396069;-12.258527755737305;8.630680084228516;-136.50057983398438
305;1673423956.3429008;47.128851399999995;7.2381632;62.118003845214844;1673423956.4488227;-12.211394309997559;8.557843208312988;-136.3936767578125
306;1673423956.5323727;47.1288415;7.2381497999999995;62.519004821777344;1673423956.635542;-12.087417602539062;9.510132789611816;-136.3760223388672
307;1673423956.7732737;47.1288317;7.2381362;62.9170036315918;1673423956.8686943;-12.031737327575684;10.185138702392578;-136.7477569580078
308;1673423956.9655201;47.1288218;7.238122499999999;63.3180046081543;1673423957.0692675;-12.190716743469238;11.448526382446289;-136.70816040039062
309;1673423957.156858;47.128811999999996;7.238108899999999;63.72300338745117;1673423957.2536836;-12.087372779846191;12.251317977905273;-136.67279052734375
310;1673423957.345089;47.128802099999994;7.2380952;64.125;1673423957.4486651;-12.481220245361328;12.573589324951172;-136.83587646484375
311;1673423957.540576;47.1287922;7.2380815;64.5260009765625;1673423957.6331007;-12.588569641113281;12.359878540039062;-136.91314697265625
312;1673423957.7241518;47.1287824;7.238067699999999;64.92400360107422;1673423957.8273199;-12.725491523742676;12.116767883300781;-136.95297241210938
313;1673423957.923551;47.1287726;7.2380539;65.31900024414062;1673423958.0296817;-12.589498519897461;11.576250076293945;-136.94052124023438
314;1673423958.1317358;47.1287628;7.2380401999999995;65.71200561523438;1673423958.2237868;-12.939208030700684;10.391559600830078;-136.68746948242188
315;1673423958.3094695;47.128752899999995;7.238026499999999;66.1030044555664;1673423958.4146328;-12.855910301208496;10.081068992614746;-136.77609252929688
316;1673423958.51579;47.128743;7.238012899999999;66.49800109863281;1673423958.6191616;-12.972236633300781;8.557666778564453;-136.6195831298828
317;1673423958.71113;47.1287331;7.237999299999999;66.89800262451172;1673423958.8221521;-12.743870735168457;8.203700065612793;-136.5613555908203
318;1673423958.9204416;47.1287233;7.2379856;67.30000305175781;1673423959.0220568;-12.55965518951416;8.011444091796875;-136.72634887695312
319;1673423959.1342056;47.128713399999995;7.237972;67.69800567626953;1673423959.2346275;-12.305808067321777;8.358224868774414;-136.51585388183594
320;1673423959.3170555;47.1287035;7.237958399999999;68.09400177001953;1673423959.414585;-12.279662132263184;8.641786575317383;-136.53614807128906
321;1673423959.5106027;47.1286936;7.2379447;68.49000549316406;1673423959.6180341;-12.042535781860352;8.937382698059082;-136.6686248779297
322;1673423959.7183964;47.1286838;7.237930899999999;68.88600158691406;1673423959.8205016;-11.940332412719727;9.344980239868164;-136.67681884765625
323;1673423959.916387;47.128673899999995;7.2379171;69.28400421142578;1673423960.0171275;-11.90507698059082;9.850727081298828;-136.80682373046875
324;1673423960.1079597;47.128664099999995;7.2379033999999995;69.6830062866211;1673423960.2156365;-11.916028022766113;10.321908950805664;-136.841064453125
325;1673423960.310643;47.1286542;7.237889699999999;70.08200073242188;1673423960.4107966;-12.060794830322266;10.378509521484375;-136.83380126953125
326;1673423960.5103693;47.1286443;7.237876099999999;70.47900390625;1673423960.6191304;-12.438239097595215;10.051809310913086;-136.74180603027344
327;1673423960.7160413;47.1286345;7.237862499999999;70.87600708007812;1673423960.8253028;-12.551071166992188;10.786314964294434;-137.0543975830078
328;1673423960.9299161;47.1286245;7.237849;71.27100372314453;1673423961.031074;-12.331584930419922;10.750399589538574;-136.92808532714844
329;1673423961.1238642;47.1286144;7.2378355999999995;71.67100524902344;1673423961.2299507;-12.419546127319336;11.784059524536133;-136.9142608642578
330;1673423961.3309724;47.1286044;7.2378221;72.06999969482422;1673423961.4359248;-12.299917221069336;12.024641990661621;-136.9550323486328
331;1673423961.5280912;47.1285944;7.2378085;72.46900177001953;1673423961.6333997;-12.624369621276855;12.518598556518555;-137.06138610839844
332;1673423961.7258732;47.1285844;7.2377948;72.86900329589844;1673423961.8300025;-12.394074440002441;12.338360786437988;-137.06117248535156
333;1673423961.9302576;47.1285746;7.237781099999999;73.26900482177734;1673423962.0496068;-12.37061882019043;12.401712417602539;-137.01495361328125
334;1673423962.1527476;47.1285646;7.2377674999999995;73.67500305175781;1673423962.251133;-12.529437065124512;12.249811172485352;-137.12139892578125
335;1673423962.3750925;47.128554699999995;7.2377538999999995;74.08100128173828;1673423962.4685583;-12.54562759399414;12.521617889404297;-137.0476531982422
336;1673423962.561315;47.1285447;7.2377403;74.49000549316406;1673423962.6518495;-12.723942756652832;12.158943176269531;-136.88558959960938
337;1673423962.7587328;47.1285348;7.2377267;74.89800262451172;1673423962.8501399;-12.85866928100586;11.884134292602539;-136.83004760742188
338;1673423962.9449892;47.128524899999995;7.2377131;75.30400085449219;1673423963.0420246;-13.151619911193848;12.48470401763916;-136.89227294921875
339;1673423963.1339617;47.1285151;7.2376993;75.7040023803711;1673423963.2321448;-12.904023170471191;11.684576034545898;-137.00433349609375
340;1673423963.3257499;47.1285052;7.2376856;76.10000610351562;1673423963.4257169;-12.599692344665527;12.028631210327148;-137.201416015625
341;1673423963.516501;47.1284953;7.2376719;76.50200653076172;1673423963.6153638;-12.22984790802002;11.920703887939453;-137.13536071777344
342;1673423963.7163339;47.128485399999995;7.2376583;76.9020004272461;1673423963.82054;-12.531757354736328;11.673188209533691;-137.14785766601562
343;1673423963.9022372;47.1284754;7.237644599999999;77.302001953125;1673423963.9947233;-13.06719970703125;11.584553718566895;-137.05393981933594
344;1673423964.0902495;47.1284655;7.2376309;77.7020034790039;1673423964.193445;-12.95458984375;11.105112075805664;-136.87586975097656
345;1673423964.2966444;47.128455599999995;7.2376172;78.10200500488281;1673423964.399484;-13.144448280334473;10.978353500366211;-136.62171936035156
346;1673423964.5044875;47.1284457;7.2376035;78.5;1673423964.6264925;-13.067756652832031;10.659719467163086;-136.5120391845703
347;1673423964.730305;47.1284358;7.2375899;78.90300750732422;1673423964.8270068;-12.969128608703613;10.768447875976562;-136.6098175048828
348;1673423964.918469;47.128426;7.2375763;79.3030014038086;1673423965.020562;-12.687450408935547;10.687278747558594;-136.7144775390625
349;1673423965.1125433;47.128416099999995;7.2375627;79.7020034790039;1673423965.212775;-12.444219589233398;10.398720741271973;-136.92593383789062
350;1673423965.3131974;47.1284062;7.237549;80.10100555419922;1673423965.4211643;-12.295038223266602;9.991327285766602;-137.02830505371094
351;1673423965.5225549;47.1283963;7.2375352;80.49800109863281;1673423965.6282198;-13.02327823638916;9.845614433288574;-137.1224822998047
352;1673423965.7215621;47.1283864;7.2375215;80.88800048828125;1673423965.8248465;-13.768678665161133;9.50239086151123;-137.04141235351562
353;1673423965.9211106;47.128376499999995;7.2375077999999995;81.27900695800781;1673423966.0285375;-13.871216773986816;9.758966445922852;-136.9325714111328
354;1673423966.1328833;47.1283666;7.237494;81.67200469970703;1673423966.2320614;-13.050633430480957;10.026758193969727;-136.93971252441406
355;1673423966.3256822;47.1283569;7.2374803;82.06600189208984;1673423966.4235642;-12.027948379516602;10.574739456176758;-137.00454711914062
356;1673423966.5207083;47.128347;7.237466599999999;82.46800231933594;1673423966.6159148;-11.35175609588623;10.16579532623291;-136.84837341308594
357;1673423966.7091691;47.1283372;7.2374529;82.87600708007812;1673423966.8034167;-12.140690803527832;9.392472267150879;-136.7020263671875
358;1673423966.9056182;47.1283272;7.2374392;83.2800064086914;1673423967.0075252;-13.03415584564209;9.465609550476074;-136.72193908691406
359;1673423967.104844;47.1283173;7.2374255;83.67900085449219;1673423967.2098658;-13.945252418518066;10.059557914733887;-137.00010681152344
360;1673423967.328394;47.1283074;7.2374119;84.0780029296875;1673423967.4317875;-14.280423164367676;10.366483688354492;-137.09555053710938
361;1673423967.5276403;47.1282974;7.2373983;84.47700500488281;1673423967.628257;-13.215851783752441;10.300972938537598;-137.0390167236328
362;1673423967.7272496;47.1282875;7.2373847;84.87600708007812;1673423967.8216534;-12.117959976196289;10.536287307739258;-137.00262451171875
363;1673423967.919849;47.1282776;7.2373711;85.2750015258789;1673423968.0221624;-11.139813423156738;10.435037612915039;-136.86451721191406
364;1673423968.116771;47.128267699999995;7.2373575;85.67200469970703;1673423968.2174885;-11.440287590026855;10.192062377929688;-136.79554748535156
365;1673423968.3148842;47.1282578;7.2373439;86.07300567626953;1673423968.4175777;-12.876297950744629;9.867191314697266;-136.7278594970703
366;1673423968.5169017;47.1282479;7.2373303;86.47300720214844;1673423968.6226761;-14.158647537231445;10.2211275100708;-136.96495056152344
367;1673423968.7159574;47.128237899999995;7.2373166;86.87200164794922;1673423968.8175159;-14.42139720916748;10.397330284118652;-137.0879364013672
368;1673423968.916819;47.128228;7.237303;87.27200317382812;1673423969.0266821;-13.74094295501709;10.497753143310547;-137.1017303466797
369;1673423969.1172447;47.1282181;7.2372893;87.67100524902344;1673423969.2097406;-12.647818565368652;10.534582138061523;-137.0316162109375
370;1673423969.2979581;47.128208199999996;7.237275599999999;88.07000732421875;1673423969.399178;-11.51417350769043;10.461834907531738;-137.0125732421875
371;1673423969.495443;47.1281982;7.237261999999999;88.46700286865234;1673423969.6232107;-11.110939979553223;10.373370170593262;-136.9053192138672
372;1673423969.7239797;47.1281883;7.2372483999999995;88.86300659179688;1673423969.8311274;-12.271002769470215;10.37665843963623;-136.978271484375
373;1673423969.9352803;47.128178299999995;7.237234699999999;89.2550048828125;1673423970.0335922;-13.533531188964844;10.196355819702148;-136.96343994140625
374;1673423970.145489;47.1281684;7.237221;89.64900207519531;1673423970.2619064;-14.181415557861328;10.369295120239258;-137.01092529296875
375;1673423970.3572314;47.1281584;7.2372073;90.04500579833984;1673423970.4566028;-13.81065845489502;10.49266242980957;-137.0890655517578
376;1673423970.5539885;47.128148499999995;7.2371935999999994;90.44400787353516;1673423970.656708;-12.792806625366211;10.495984077453613;-137.01625061035156
377;1673423970.754185;47.1281386;7.2371799;90.84000396728516;1673423970.8441885;-11.570577621459961;10.51116943359375;-136.95779418945312
378;1673423970.9356675;47.1281286;7.237166299999999;91.23800659179688;1673423971.0333562;-10.997599601745605;10.299235343933105;-136.86265563964844
379;1673423971.137909;47.128118699999995;7.237152699999999;91.63800811767578;1673423971.235957;-11.719054222106934;10.42233657836914;-136.94969177246094
380;1673423971.3455842;47.1281087;7.237139099999999;92.03600311279297;1673423971.441375;-12.842496871948242;10.323501586914062;-136.99974060058594
381;1673423971.533316;47.128098699999995;7.2371254;92.43000793457031;1673423971.6373167;-13.994579315185547;10.441733360290527;-137.06309509277344
382;1673423971.727839;47.1280887;7.2371117;92.82200622558594;1673423971.8396285;-13.662618637084961;10.37406063079834;-137.0366973876953
383;1673423971.9346743;47.1280788;7.237098;93.21700286865234;1673423972.0376976;-12.96987247467041;10.672975540161133;-136.9844207763672
384;1673423972.135843;47.128068899999995;7.2370844;93.61200714111328;1673423972.2390223;-11.79545783996582;10.618922233581543;-137.00001525878906
385;1673423972.3371654;47.128059;7.2370709;94.00700378417969;1673423972.4359457;-11.31142520904541;10.369247436523438;-136.8790740966797
386;1673423972.522335;47.128049;7.2370573;94.40200805664062;1673423972.6155562;-11.147613525390625;10.443204879760742;-136.9413299560547
387;1673423972.7165399;47.128039099999995;7.2370436;94.79500579833984;1673423972.8139064;-11.667753219604492;10.369384765625;-136.95712280273438
388;1673423972.9173417;47.1280291;7.23703;95.18600463867188;1673423973.0165813;-13.20455265045166;10.240439414978027;-137.1553192138672
389;1673423973.1144886;47.1280192;7.2370163;95.5790023803711;1673423973.2252736;-14.135061264038086;10.38744831085205;-137.1514434814453
390;1673423973.3274565;47.128009299999995;7.2370027;95.97200775146484;1673423973.4246752;-13.198014259338379;10.451796531677246;-137.01852416992188
391;1673423973.5200174;47.1279994;7.2369892;96.36400604248047;1673423973.6309385;-12.387188911437988;10.489208221435547;-136.79446411132812
392;1673423973.727991;47.1279895;7.2369756999999995;96.75900268554688;1673423973.8199654;-11.465754508972168;10.397505760192871;-136.76268005371094
393;1673423973.9144874;47.127979599999996;7.2369623;97.156005859375;1673423974.0159507;-11.416203498840332;10.210415840148926;-136.90623474121094
394;1673423974.1162727;47.1279697;7.2369487999999995;97.54900360107422;1673423974.2185116;-11.708271026611328;10.19039249420166;-136.85501098632812
395;1673423974.3286617;47.1279597;7.2369352;97.94000244140625;1673423974.4330308;-12.711257934570312;10.448173522949219;-136.93963623046875
396;1673423974.531499;47.127949699999995;7.2369216;98.3340072631836;1673423974.6359963;-13.758405685424805;10.397101402282715;-137.11557006835938
397;1673423974.7234275;47.1279397;7.236908;98.73100280761719;1673423974.827672;-14.07225513458252;10.640946388244629;-137.16246032714844
398;1673423974.9179811;47.1279298;7.2368945;99.1310043334961;1673423975.0305815;-12.956125259399414;10.682735443115234;-137.00718688964844
399;1673423975.11102;47.127919899999995;7.2368809999999995;99.52800750732422;1673423975.2090998;-11.79146957397461;10.728431701660156;-136.8266143798828
400;1673423975.3053012;47.12791;7.2368675;99.9260025024414;1673423975.406563;-11.320636749267578;10.399038314819336;-136.71022033691406
401;1673423975.500886;47.1279001;7.236853999999999;100.32400512695312;1673423975.6019971;-11.631753921508789;10.311667442321777;-136.68650817871094
402;1673423975.7003522;47.127890199999996;7.2368405;100.72300720214844;1673423975.8033938;-12.360684394836426;10.147673606872559;-136.7639617919922
403;1673423975.9043288;47.1278803;7.2368269;101.12200164794922;1673423976.0134127;-13.29687213897705;10.302186012268066;-136.94229125976562
404;1673423976.1097598;47.1278703;7.236813199999999;101.52200317382812;1673423976.2099636;-14.201797485351562;10.417710304260254;-137.0306854248047
405;1673423976.3054724;47.127860399999996;7.236799599999999;101.92300415039062;1673423976.4106958;-13.945537567138672;10.488288879394531;-137.1021270751953
406;1673423976.5092027;47.1278505;7.2367859999999995;102.32100677490234;1673423976.610546;-13.57981014251709;10.464406967163086;-137.0789337158203
407;1673423976.7193513;47.1278406;7.2367723999999995;102.72000122070312;1673423976.8867085;-11.57392406463623;10.583860397338867;-136.82630920410156
408;1673423976.9796526;47.127830599999996;7.2367589;103.11700439453125;1673423977.0666866;-11.041573524475098;10.314769744873047;-136.6395721435547
409;1673423977.1552374;47.1278207;7.2367453;103.51500701904297;1673423977.2524095;-11.760665893554688;10.232443809509277;-136.6575469970703
410;1673423977.3500476;47.1278107;7.2367316;103.91400146484375;1673423977.4538283;-12.831753730773926;10.255806922912598;-136.79241943359375
411;1673423977.546797;47.127800799999996;7.236718;104.31400299072266;1673423977.6432822;-13.736090660095215;10.227575302124023;-136.9832305908203
412;1673423977.755409;47.1277908;7.2367044;104.71200561523438;1673423977.8592868;-14.23593807220459;10.630447387695312;-137.1099853515625
413;1673423977.9444513;47.1277809;7.2366908;105.11300659179688;1673423978.0398269;-13.44123649597168;10.659789085388184;-137.00572204589844
414;1673423978.13319;47.127770999999996;7.2366772;105.51500701904297;1673423978.2331994;-12.288290977478027;10.903359413146973;-136.8778533935547
415;1673423978.331839;47.127761;7.236663699999999;105.91700744628906;1673423978.4242005;-11.324830055236816;10.488329887390137;-136.7247314453125
416;1673423978.5182273;47.1277511;7.23665;106.31400299072266;1673423978.6166337;-11.477081298828125;10.576082229614258;-136.6678466796875
417;1673423978.7081666;47.127741199999996;7.2366364;106.71200561523438;1673423978.8113542;-12.739899635314941;10.317708969116211;-136.80438232421875
418;1673423978.929418;47.127731399999995;7.236622799999999;107.1100082397461;1673423979.0274658;-13.692293167114258;10.029264450073242;-136.82162475585938
419;1673423979.1291425;47.1277215;7.2366091;107.50900268554688;1673423979.229492;-14.468334197998047;10.238687515258789;-136.97181701660156
420;1673423979.3111515;47.1277116;7.2365954;107.91300201416016;1673423979.4112341;-14.199934005737305;10.541300773620605;-137.0454559326172
