;pos_time;latitude;longitude;altitude;alt_time;pitch;roll;yaw
0;1673426406.0252416;47.1306424;7.2406201;-0.027000000700354576;1673426406.1627002;-0.1504451334476471;-0.17178618907928467;90.33589172363281
1;1673426406.202986;47.1306424;7.24062;-0.023000001907348633;1673426406.350028;-0.0029833652079105377;-0.3633610010147095;90.49876403808594
2;1673426406.4030313;47.1306424;7.2406198999999996;-0.021000001579523087;1673426406.5518181;0.14791201055049896;0.01841464452445507;90.33598327636719
3;1673426406.6006362;47.1306424;7.24062;-0.020000001415610313;1673426406.7615225;-0.12339930236339569;-0.31645864248275757;90.49717712402344
4;1673426406.8054667;47.1306424;7.2406198999999996;-0.021000001579523087;1673426406.9628708;-0.21195855736732483;-0.08623739331960678;90.38728332519531
5;1673426407.0079496;47.1306424;7.2406198999999996;-0.01900000125169754;1673426407.166663;-0.19299596548080444;-0.08729544281959534;90.32318115234375
6;1673426407.2135184;47.1306424;7.2406198999999996;-0.020000001415610313;1673426407.3715236;0.011861490085721016;-0.19983398914337158;90.37590026855469
7;1673426407.4126701;47.1306423;7.2406198999999996;-0.024000000208616257;1673426407.5799656;0.07005681097507477;-0.08997073024511337;90.40814208984375
8;1673426407.6254237;47.1306423;7.2406198999999996;-0.02800000086426735;1673426407.7697282;-0.16300316154956818;-0.2649943232536316;90.41488647460938
9;1673426407.8138022;47.1306423;7.2406198999999996;-0.027000000700354576;1673426407.9530096;-0.028113950043916702;-0.2820098102092743;90.26363372802734
10;1673426408.0008318;47.1306423;7.24062;0.0010000000474974513;1673426408.155218;-0.19842790067195892;-0.7469149827957153;90.27346801757812
11;1673426408.2040896;47.1306423;7.2406201;0.005000000353902578;1673426408.3784823;-0.21829469501972198;-0.5551102161407471;90.40966796875
12;1673426408.4249337;47.1306423;7.2406201;0.007000000216066837;1673426408.571827;-0.3710726797580719;-0.4946713447570801;90.27726745605469
13;1673426408.6198566;47.1306423;7.2406201;0.007000000216066837;1673426408.7604032;-0.036487072706222534;-0.41142264008522034;90.28363037109375
14;1673426408.8271725;47.1306423;7.24062;0.004000000189989805;1673426408.9912775;-0.17478029429912567;-0.7082471251487732;90.3440170288086
15;1673426409.031376;47.1306423;7.2406198999999996;0.004000000189989805;1673426409.1755981;-0.16146515309810638;-0.7518430352210999;90.21687316894531
16;1673426409.2197149;47.1306424;7.2406198999999996;0.0010000000474974513;1673426409.366194;0.004247523844242096;-0.6590096950531006;90.14200592041016
17;1673426409.4094036;47.1306424;7.2406197;0.0;1673426409.5748923;0.10483875870704651;-0.8207846283912659;90.12935638427734
18;1673426409.6168704;47.1306424;7.2406197;0.0;1673426409.7708805;0.17896738648414612;-0.5739383697509766;89.92916870117188
19;1673426409.8129447;47.1306424;7.240619499999999;0.0;1673426409.9856267;0.03548883646726608;-0.6113287210464478;90.31048583984375
20;1673426410.0273128;47.1306424;7.2406194;0.0;1673426410.172561;-0.010019833222031593;-0.8200595378875732;90.31103515625
21;1673426410.2166147;47.1306424;7.2406194;-0.004000000189989805;1673426410.371382;-0.07419473677873611;-0.15329332649707794;90.0399169921875
22;1673426410.417601;47.1306424;7.2406194;-0.007000000216066837;1673426410.5653813;-0.0031909984536468983;0.012538573704659939;90.38648986816406
23;1673426410.614372;47.1306424;7.240619499999999;-0.010000000707805157;1673426410.7687514;-0.07117217779159546;-0.39554405212402344;90.3624038696289
24;1673426410.8087606;47.1306425;7.240619499999999;-0.007000000216066837;1673426410.9697857;0.0159615371376276;-0.4719963073730469;90.0965347290039
25;1673426411.0229552;47.1306425;7.2406196;-0.007000000216066837;1673426411.1680088;-0.08182685077190399;-0.40441209077835083;90.50230407714844
26;1673426411.2150507;47.1306425;7.2406196;-0.00800000037997961;1673426411.359289;-0.8114486336708069;0.15554310381412506;91.86271667480469
27;1673426411.4059198;47.130642599999995;7.240619499999999;-0.007000000216066837;1673426411.5582542;-2.138288974761963;1.2925889492034912;93.98579406738281
28;1673426411.6033032;47.130642699999996;7.240619499999999;0.0020000000949949026;1673426411.748019;-5.025302410125732;4.208456039428711;95.58483123779297
29;1673426411.7887146;47.1306429;7.240619499999999;0.017000000923871994;1673426411.939911;-7.34544038772583;9.321383476257324;95.59451293945312
30;1673426411.9880385;47.1306431;7.2406196;0.03700000047683716;1673426412.1500132;-7.353340148925781;9.518061637878418;94.17315673828125
31;1673426412.1911678;47.1306431;7.2406196;0.06400000303983688;1673426412.348569;-6.140671253204346;8.303173065185547;93.1051025390625
32;1673426412.3959825;47.1306431;7.240619799999999;0.11400000751018524;1673426412.5605867;-5.107391834259033;10.484319686889648;91.45911407470703
33;1673426412.6027;47.1306429;7.240619799999999;0.18400001525878906;1673426412.7651236;-4.6564764976501465;6.34453010559082;90.63922882080078
34;1673426412.805742;47.1306428;7.2406198999999996;0.2770000100135803;1673426412.9630003;-4.678677558898926;6.033843517303467;90.02288055419922
35;1673426413.0079513;47.1306428;7.2406198999999996;0.38600000739097595;1673426413.1509335;-4.847723007202148;10.951437950134277;88.99861145019531
36;1673426413.1978002;47.130642599999995;7.24062;0.5090000033378601;1673426413.3597293;-4.884239196777344;6.770055770874023;88.85055541992188
37;1673426413.4050014;47.1306424;7.24062;0.6480000019073486;1673426413.5662704;-5.2490925788879395;5.177146911621094;88.69458770751953
38;1673426413.6092184;47.1306423;7.24062;0.7970000505447388;1673426413.7678902;-4.983757495880127;9.653069496154785;87.86798095703125
39;1673426413.81491;47.1306423;7.24062;0.956000030040741;1673426413.971833;-4.823458194732666;8.127401351928711;87.75224304199219
40;1673426414.0167377;47.1306423;7.24062;1.1330000162124634;1673426414.1685278;-4.758411407470703;5.232604026794434;87.9708251953125
41;1673426414.2135954;47.1306424;7.24062;1.321000099182129;1673426414.3658514;-4.799120903015137;9.521683692932129;87.39227294921875
42;1673426414.4069922;47.1306424;7.24062;1.5120000839233398;1673426414.5558324;-4.434895992279053;8.94840145111084;88.60950469970703
43;1673426414.6020334;47.1306422;7.2406201;1.7060000896453857;1673426414.7612712;-4.913854122161865;4.829651832580566;88.58431243896484
44;1673426414.8102958;47.1306422;7.2406201;1.90500009059906;1673426414.9760685;-5.059969425201416;8.27568244934082;87.77912139892578
45;1673426415.02312;47.1306423;7.2406201;2.1060001850128174;1673426415.17598;-5.133910655975342;10.290849685668945;87.23633575439453
46;1673426415.2238073;47.1306423;7.24062;2.3000001907348633;1673426415.3741925;-4.8294758796691895;6.0007171630859375;87.58714294433594
47;1673426415.4161992;47.1306425;7.24062;2.5;1673426415.5687227;-4.881174087524414;8.312626838684082;87.19786071777344
48;1673426415.6186438;47.1306425;7.24062;2.703000068664551;1673426415.8143206;-4.415420055389404;11.01829719543457;86.80072021484375
49;1673426415.8537219;47.1306423;7.2406198999999996;2.8990001678466797;1673426416.0050433;-4.703940391540527;5.691341400146484;87.15393829345703
50;1673426416.0451076;47.1306422;7.2406198999999996;3.1000001430511475;1673426416.202229;-5.226144313812256;6.814213275909424;86.96610260009766
51;1673426416.2405875;47.1306422;7.2406198999999996;3.2990002632141113;1673426416.419015;-5.21711540222168;10.516356468200684;86.72711181640625
52;1673426416.460036;47.1306422;7.2406198999999996;3.4930002689361572;1673426416.6113;-5.203124046325684;6.761503219604492;87.2612075805664
53;1673426416.6533031;47.1306423;7.2406198999999996;3.692000150680542;1673426416.8190265;-5.226071357727051;6.846766948699951;87.21366882324219
54;1673426416.8601618;47.1306423;7.2406198999999996;3.8960001468658447;1673426416.9893918;-4.6774001121521;11.148468971252441;86.91180419921875
55;1673426417.0301394;47.1306422;7.2406198999999996;4.0960001945495605;1673426417.1740708;-4.417698860168457;6.56033182144165;87.0468978881836
56;1673426417.2175708;47.130641999999995;7.2406198999999996;4.302000045776367;1673426417.385586;-4.846162796020508;5.981873989105225;87.03362274169922
57;1673426417.4356575;47.130641999999995;7.24062;4.511000156402588;1673426417.597662;-4.963644504547119;10.317693710327148;86.62289428710938
58;1673426417.6417632;47.130641999999995;7.2406201;4.716000080108643;1673426417.7932239;-4.871170997619629;8.478466033935547;87.06576538085938
59;1673426417.8322847;47.130642099999996;7.2406201;4.913000106811523;1673426417.9755583;-5.048609256744385;5.601876258850098;87.38788604736328
60;1673426418.02837;47.130642099999996;7.2406201;5.109000205993652;1673426418.1814795;-4.9408440589904785;10.256721496582031;86.9083023071289
61;1673426418.2274675;47.130641999999995;7.2406201;5.305000305175781;1673426418.3829672;-4.475178241729736;8.375720024108887;86.83944702148438
62;1673426418.4301217;47.1306419;7.2406201;5.504000186920166;1673426418.5903678;-4.6057233810424805;5.1096577644348145;87.15426635742188
63;1673426418.6363146;47.130641999999995;7.2406201;5.712000370025635;1673426418.7888403;-4.7119669914245605;9.64671802520752;86.85318756103516
64;1673426418.832763;47.130642099999996;7.2406201;5.9170002937316895;1673426418.9862847;-4.852399826049805;9.978358268737793;87.0632553100586
65;1673426419.0279658;47.1306422;7.2406201;6.117000102996826;1673426419.1700644;-5.086391925811768;6.017114639282227;87.54953002929688
66;1673426419.2114167;47.1306423;7.2406201;6.318000316619873;1673426419.3774886;-5.444954872131348;9.452563285827637;86.98453521728516
67;1673426419.4201193;47.1306422;7.2406201;6.523000240325928;1673426419.5752642;-5.123068809509277;9.630072593688965;86.57233428955078
68;1673426419.6243577;47.130642099999996;7.24062;6.7270002365112305;1673426419.7742803;-4.975576877593994;5.755301475524902;87.17009735107422
69;1673426419.8153787;47.130642099999996;7.24062;6.928000450134277;1673426419.9601822;-5.033939838409424;8.443615913391113;87.14635467529297
70;1673426420.003203;47.130642099999996;7.24062;7.127000331878662;1673426420.1575212;-4.850422382354736;10.82129192352295;86.92352294921875
71;1673426420.208478;47.130642099999996;7.24062;7.328000545501709;1673426420.380862;-5.025548458099365;5.1791768074035645;87.34700012207031
72;1673426420.4220066;47.130641999999995;7.24062;7.528000354766846;1673426420.5768108;-5.6146626472473145;7.229832649230957;87.04106140136719
73;1673426420.6198034;47.130641999999995;7.2406198999999996;7.7300004959106445;1673426420.7962573;-5.2809271812438965;10.320868492126465;86.64602661132812
74;1673426420.841066;47.130641999999995;7.2406198999999996;7.931000232696533;1673426420.99793;-5.298454284667969;6.151006698608398;87.22355651855469
75;1673426421.0429802;47.130641999999995;7.2406198999999996;8.135000228881836;1673426421.1880293;-5.243027210235596;7.150497913360596;87.35977935791016
76;1673426421.23106;47.1306422;7.2406198999999996;8.338000297546387;1673426421.3843195;-4.911288738250732;11.14942741394043;86.9064712524414
77;1673426421.4292595;47.1306422;7.2406198999999996;8.539999961853027;1673426421.5803459;-4.8790435791015625;6.757953643798828;87.28353118896484
78;1673426421.6254387;47.1306422;7.24062;8.73900032043457;1673426421.7753942;-5.294368743896484;6.633039474487305;87.23326873779297
79;1673426421.8218515;47.1306423;7.24062;8.938000679016113;1673426421.9906652;-5.26658296585083;11.00444507598877;86.66809844970703
80;1673426422.0366628;47.1306422;7.24062;9.133000373840332;1673426422.187813;-5.206500053405762;7.4219889640808105;87.05985260009766
81;1673426422.235647;47.1306422;7.2406201;9.330000877380371;1673426422.3974707;-5.172224044799805;6.451116561889648;87.35259246826172
82;1673426422.4443529;47.1306424;7.2406201;9.530000686645508;1673426422.6023698;-4.841580390930176;11.526649475097656;86.88542175292969
83;1673426422.6467638;47.1306424;7.2406201;9.730000495910645;1673426422.7866185;-4.70435905456543;7.653989791870117;87.21074676513672
84;1673426422.8287826;47.1306423;7.2406201999999995;9.928000450134277;1673426422.9835274;-5.126857757568359;5.669150352478027;87.14531707763672
85;1673426423.028442;47.1306423;7.2406201;10.12600040435791;1673426423.1719809;-5.462612152099609;9.681617736816406;86.80343627929688
86;1673426423.2141447;47.1306422;7.2406201999999995;10.380000114440918;1673426423.402791;-5.85581111907959;10.431594848632812;86.99483489990234
87;1673426423.4542685;47.130642099999996;7.2406203;10.730000495910645;1673426423.6122909;-5.563448905944824;6.223473072052002;87.67139434814453
88;1673426423.6584966;47.130641999999995;7.2406206;11.117000579833984;1673426423.8274174;-4.7416229248046875;8.338438987731934;87.35027313232422
89;1673426423.8666573;47.130641999999995;7.240620799999999;11.51400089263916;1673426424.0049152;-4.235835552215576;9.975128173828125;87.075439453125
90;1673426424.043959;47.1306419;7.240621;11.914000511169434;1673426424.195641;-4.097564697265625;4.693700313568115;87.31901550292969
91;1673426424.2347054;47.1306418;7.240621099999999;12.312000274658203;1673426424.387578;-4.315382957458496;6.377316951751709;87.0542984008789
92;1673426424.4317365;47.1306417;7.240621099999999;12.711000442504883;1673426424.596377;-4.087014198303223;9.445465087890625;86.74226379394531
93;1673426424.6448941;47.1306416;7.240621099999999;13.108000755310059;1673426424.8144982;-4.29466438293457;5.4414801597595215;87.10814666748047
94;1673426424.8554504;47.1306417;7.240621;13.509000778198242;1673426425.0264494;-4.680305004119873;6.966299533843994;87.24983215332031
95;1673426425.0647478;47.1306419;7.2406209;13.915000915527344;1673426425.2104397;-4.5816497802734375;10.851767539978027;86.94771575927734
96;1673426425.2590163;47.130642099999996;7.240620799999999;14.318000793457031;1673426425.410373;-4.832861423492432;7.091212272644043;87.2442855834961
97;1673426425.4521513;47.130642099999996;7.2406207;14.722001075744629;1673426425.5943797;-5.33815860748291;6.295506477355957;87.10684967041016
98;1673426425.6353993;47.130642099999996;7.2406206;15.125000953674316;1673426425.7921126;-5.34072732925415;10.41797924041748;86.59127807617188
99;1673426425.8344936;47.130642099999996;7.2406204999999995;15.527000427246094;1673426425.989294;-5.1406073570251465;8.17302417755127;86.93035888671875
100;1673426426.0293112;47.130642099999996;7.2406204;15.9350004196167;1673426426.1989899;-5.039951801300049;5.526919841766357;87.4034423828125
101;1673426426.2450497;47.1306422;7.2406204999999995;16.34600067138672;1673426426.3919265;-4.662277698516846;10.023847579956055;86.94357299804688
102;1673426426.4368675;47.1306423;7.2406204999999995;16.759000778198242;1673426426.5854254;-4.471288204193115;9.361916542053223;87.02996826171875
103;1673426426.628543;47.1306423;7.2406206;17.171001434326172;1673426426.7764678;-4.826526641845703;5.508406162261963;87.31249237060547
104;1673426426.824352;47.1306423;7.2406206;17.577001571655273;1673426426.995004;-4.9977946281433105;8.418413162231445;87.0000228881836
105;1673426427.0438673;47.1306422;7.2406206;17.98400115966797;1673426427.1954968;-4.786216735839844;9.327929496765137;86.72130584716797
106;1673426427.2404025;47.130642099999996;7.2406206;18.393001556396484;1673426427.3992522;-4.874445915222168;5.770913600921631;87.29082489013672
107;1673426427.435446;47.1306422;7.2406204999999995;18.806001663208008;1673426427.6155658;-4.879167079925537;7.8516340255737305;87.1273422241211
108;1673426427.6607656;47.1306424;7.2406204999999995;19.218000411987305;1673426427.8865254;-4.590233325958252;10.942953109741211;86.92398071289062
109;1673426427.9208422;47.1306424;7.2406204999999995;19.62700080871582;1673426428.04595;-4.94942045211792;5.959295272827148;87.34550476074219
110;1673426428.0884483;47.1306424;7.2406204;20.03700065612793;1673426428.2394829;-5.206665992736816;7.289492607116699;87.16200256347656
111;1673426428.2845254;47.1306424;7.2406204;20.440000534057617;1673426428.4508078;-4.906241416931152;10.313151359558105;86.75051879882812
112;1673426428.5043037;47.1306423;7.2406204;20.843000411987305;1673426428.6919827;-4.68035888671875;6.985255241394043;87.03285217285156
113;1673426428.7200875;47.1306423;7.2406204;21.246000289916992;1673426428.8539767;-4.905333995819092;6.396085262298584;87.21984100341797
114;1673426428.8910563;47.1306425;7.2406204;21.6510009765625;1673426429.0313568;-4.78878927230835;11.018067359924316;86.81212615966797
115;1673426429.068987;47.130642599999995;7.2406204;22.052001953125;1673426429.1992164;-4.831684112548828;7.933974742889404;87.17461395263672
116;1673426429.2443507;47.1306425;7.2406204;22.455001831054688;1673426429.4058263;-5.008178234100342;5.867209434509277;87.46913146972656
117;1673426429.4441478;47.1306425;7.2406203;22.84800148010254;1673426429.595813;-4.88007926940918;10.043111801147461;86.89493560791016
118;1673426429.6358688;47.1306424;7.2406203;23.24300193786621;1673426429.7917573;-4.338449478149414;8.644932746887207;86.7557373046875
119;1673426429.8391967;47.1306424;7.2406203;23.642000198364258;1673426429.996216;-4.581891059875488;5.658358573913574;87.1991195678711
120;1673426430.0460813;47.1306425;7.2406201999999995;24.046001434326172;1673426430.1874778;-4.817707061767578;9.64619255065918;86.86132049560547
121;1673426430.2317185;47.130642599999995;7.2406201999999995;24.446001052856445;1673426430.3819401;-4.753781318664551;9.139812469482422;87.0372543334961
122;1673426430.4505267;47.130642599999995;7.2406201999999995;24.843000411987305;1673426430.609617;-5.119261741638184;5.821715354919434;87.56058502197266
123;1673426430.6490312;47.130642599999995;7.2406201;25.24300193786621;1673426430.7921019;-5.089889049530029;9.152536392211914;87.17415618896484
124;1673426430.8370514;47.130642599999995;7.2406201;25.634000778198242;1673426430.9798784;-4.8253679275512695;10.331612586975098;86.72880554199219
125;1673426431.0204792;47.130642599999995;7.24062;26.029001235961914;1673426431.1825624;-4.950309753417969;6.080700874328613;87.18744659423828
126;1673426431.2288077;47.130642599999995;7.2406198999999996;26.42300033569336;1673426431.3903134;-5.278013229370117;8.125144004821777;86.98741912841797
127;1673426431.431955;47.130642699999996;7.2406198999999996;26.821001052856445;1673426431.5893826;-4.806545257568359;10.802605628967285;86.72454071044922
128;1673426431.6335692;47.130642599999995;7.2406198999999996;27.21700096130371;1673426431.8041139;-5.095150947570801;6.060118675231934;87.25530242919922
129;1673426431.8599155;47.1306425;7.240619799999999;27.61100196838379;1673426432.01383;-5.204104900360107;7.383853912353516;87.3580322265625
130;1673426432.0641701;47.1306425;7.240619799999999;28.000001907348633;1673426432.2278848;-4.860004425048828;10.585807800292969;86.93115997314453
131;1673426432.2738416;47.1306424;7.240619799999999;28.391000747680664;1673426432.430895;-4.713409900665283;7.4776291847229;87.17581939697266
132;1673426432.4744809;47.1306425;7.240619799999999;28.78900146484375;1673426432.6235666;-5.1489691734313965;6.435860633850098;87.11670684814453
133;1673426432.6639178;47.130642599999995;7.240619799999999;29.189001083374023;1673426432.813777;-4.825671195983887;11.149165153503418;86.61942291259766
134;1673426432.8566182;47.130642699999996;7.240619799999999;29.584001541137695;1673426433.0119588;-4.770208358764648;8.298989295959473;86.93510437011719
135;1673426433.0568583;47.130642599999995;7.240619799999999;29.981000900268555;1673426433.204994;-4.908507347106934;6.204402923583984;87.28277587890625
136;1673426433.245988;47.130642599999995;7.240619799999999;30.386001586914062;1673426433.4089391;-5.058149814605713;10.40113353729248;87.0238037109375
137;1673426433.4471383;47.130642599999995;7.240619799999999;30.777002334594727;1673426433.607561;-4.748666763305664;9.446775436401367;87.09043884277344
138;1673426433.6567972;47.130642599999995;7.240619799999999;31.16900062561035;1673426433.823643;-5.085574150085449;5.817361354827881;87.4410629272461
139;1673426433.8669946;47.130642699999996;7.240619799999999;31.562002182006836;1673426434.0128253;-5.16710090637207;9.530623435974121;86.86618041992188
140;1673426434.0558162;47.130642699999996;7.2406197;31.95100212097168;1673426434.2019887;-4.771457195281982;10.274237632751465;86.7823257446289
141;1673426434.248996;47.130642599999995;7.2406197;32.34100341796875;1673426434.4027846;-4.945005893707275;5.82771635055542;87.12321472167969
142;1673426434.4538877;47.1306425;7.2406197;32.73200225830078;1673426434.6066706;-4.942601680755615;8.620635032653809;86.97065734863281
143;1673426434.6536746;47.1306425;7.240619799999999;33.11800003051758;1673426434.8031063;-4.941399574279785;10.365822792053223;86.79939270019531
144;1673426434.8460996;47.1306425;7.240619799999999;33.51000213623047;1673426434.9923236;-5.2315263748168945;6.06392765045166;87.45152282714844
145;1673426435.0344424;47.1306425;7.240619799999999;33.90500259399414;1673426435.1841226;-5.329669952392578;7.69183349609375;87.19586181640625
146;1673426435.230182;47.1306425;7.2406198999999996;34.301002502441406;1673426435.3983006;-4.718844413757324;10.851881980895996;86.73689270019531
147;1673426435.4490569;47.1306424;7.24062;34.694000244140625;1673426435.6025355;-4.652480125427246;6.447208404541016;87.01441192626953
148;1673426435.6486986;47.1306423;7.24062;35.09100341796875;1673426435.8166697;-4.911111354827881;6.696768760681152;87.1072006225586
149;1673426435.8617628;47.1306423;7.24062;35.49100112915039;1673426436.0519245;-4.802104473114014;10.521641731262207;86.8028793334961
150;1673426436.0939357;47.1306424;7.24062;35.88300323486328;1673426436.2412226;-4.73151159286499;8.144819259643555;87.1412353515625
151;1673426436.2819424;47.1306424;7.24062;36.284000396728516;1673426436.4192388;-4.972453594207764;5.85179328918457;87.3353271484375
152;1673426436.4604177;47.1306425;7.2406201;36.6870002746582;1673426436.6280386;-4.917365550994873;10.909416198730469;86.94734954833984
153;1673426436.669589;47.1306425;7.2406201;37.08700180053711;1673426436.8217134;-4.85192346572876;8.53979206085205;87.0790023803711
154;1673426436.8589747;47.1306424;7.2406201;37.486000061035156;1673426437.0450702;-5.047194480895996;5.6377363204956055;87.31610870361328
155;1673426437.0861287;47.1306424;7.2406201;37.884002685546875;1673426437.2328186;-5.055271625518799;9.729140281677246;86.91399383544922
156;1673426437.2729673;47.1306424;7.24062;38.275001525878906;1673426437.4503527;-4.623086929321289;9.45111083984375;86.9085693359375
157;1673426437.4928882;47.1306425;7.24062;38.67100143432617;1673426437.6392262;-4.881906032562256;5.976902484893799;87.3070068359375
158;1673426437.6809068;47.130642599999995;7.24062;39.07200241088867;1673426437.8317747;-4.934091567993164;8.953624725341797;86.9853744506836
159;1673426437.8710713;47.130642599999995;7.24062;39.4640007019043;1673426438.015171;-4.745294094085693;10.512471199035645;86.94640350341797
160;1673426438.063968;47.1306425;7.24062;39.862003326416016;1673426438.2117193;-5.002663612365723;6.057797431945801;87.29149627685547
161;1673426438.256671;47.1306425;7.24062;40.262001037597656;1673426438.401558;-5.246667861938477;8.224081993103027;87.06232452392578
162;1673426438.443201;47.130642599999995;7.2406201;40.660003662109375;1673426438.6049988;-4.653968811035156;10.776972770690918;86.6934585571289
163;1673426438.6460001;47.130642599999995;7.2406201;41.04900360107422;1673426438.8043778;-4.556584358215332;6.641604423522949;87.1575927734375
164;1673426438.849297;47.130642599999995;7.2406201;41.44200134277344;1673426439.0067751;-4.703233242034912;7.304723739624023;87.14925384521484
165;1673426439.0546174;47.130642599999995;7.2406201999999995;41.83400344848633;1673426439.2083895;-4.5667924880981445;10.980528831481934;86.88835144042969
166;1673426439.2531586;47.1306425;7.2406201999999995;42.22700119018555;1673426439.4013975;-4.621939659118652;7.063311576843262;87.17186737060547
167;1673426439.4415069;47.1306424;7.2406201999999995;42.62200164794922;1673426439.590374;-5.256700038909912;6.174583435058594;87.3116455078125
168;1673426439.6323702;47.1306424;7.2406201;43.01900100708008;1673426439.8046138;-5.03963041305542;10.313246726989746;86.84207916259766
169;1673426439.847454;47.1306424;7.24062;43.409000396728516;1673426440.0035186;-4.888046741485596;8.764854431152344;86.95345306396484
170;1673426440.0526202;47.1306424;7.24062;43.80500030517578;1673426440.1956449;-4.940273761749268;5.795331001281738;87.227294921875
171;1673426440.2484963;47.1306425;7.2406198999999996;44.20500183105469;1673426440.4132202;-4.927427768707275;10.23161792755127;86.92182922363281
172;1673426440.4581647;47.1306425;7.2406198999999996;44.605003356933594;1673426440.6195967;-4.735883712768555;9.293808937072754;87.11067962646484
173;1673426440.6674583;47.1306424;7.24062;45.00400161743164;1673426440.802263;-5.084908485412598;5.583446979522705;87.35985565185547
174;1673426440.8432372;47.1306424;7.24062;45.40500259399414;1673426441.00984;-4.953720569610596;9.157745361328125;86.96598052978516
175;1673426441.0558305;47.1306425;7.24062;45.803001403808594;1673426441.2159522;-4.641224384307861;10.530065536499023;86.8779296875
176;1673426441.260038;47.1306425;7.2406201;46.19200134277344;1673426441.4124863;-4.737059116363525;5.839492321014404;87.25145721435547
177;1673426441.4647808;47.130642599999995;7.24062;46.58400344848633;1673426441.6225624;-5.0775251388549805;8.071646690368652;87.0923080444336
178;1673426441.668523;47.130642599999995;7.24062;46.98200225830078;1673426441.8184407;-4.733921527862549;10.616626739501953;86.76847076416016
179;1673426441.8665805;47.1306425;7.24062;47.37800216674805;1673426442.0233881;-4.801388740539551;6.326290130615234;87.15592956542969
180;1673426442.0673108;47.1306424;7.24062;47.775001525878906;1673426442.2248847;-4.950274467468262;8.752054214477539;87.02031707763672
181;1673426442.2680302;47.1306424;7.24062;48.156002044677734;1673426442.4180858;-5.068122386932373;10.896544456481934;86.93800354003906
182;1673426442.462996;47.1306425;7.2406198999999996;48.48100280761719;1673426442.6199138;-5.089223384857178;7.218770980834961;87.2873306274414
183;1673426442.658428;47.130642599999995;7.240619799999999;48.7660026550293;1673426442.7991936;-5.34529972076416;6.805398464202881;87.29930114746094
184;1673426442.8402486;47.130642599999995;7.240619799999999;49.00700378417969;1673426442.9967296;-5.159957408905029;11.24512767791748;86.91337585449219
185;1673426443.044747;47.130642599999995;7.2406196;49.20600128173828;1673426443.1914072;-2.279015302658081;10.878642082214355;87.10016632080078
186;1673426443.232387;47.130642599999995;7.2406194;49.375003814697266;1673426443.3799953;15.550416946411133;28.074209213256836;95.36504364013672
187;1673426443.4311547;47.1306422;7.2406185;49.51900100708008;1673426443.5963702;23.823963165283203;44.25536346435547;107.51419067382812
188;1673426443.6402926;47.1306405;7.240615399999999;49.6510009765625;1673426443.8143425;22.75502586364746;55.9932746887207;115.86807250976562
189;1673426443.8713238;47.1306365;7.2406082;49.749000549316406;1673426444.0072875;7.228325843811035;58.799285888671875;124.30166625976562
190;1673426444.0512383;47.1306301;7.2405976;49.807003021240234;1673426444.204615;-7.37111234664917;56.637542724609375;134.03819274902344
191;1673426444.2525518;47.1306217;7.2405840999999995;49.84100341796875;1673426444.4137356;-20.016992568969727;50.996620178222656;144.74771118164062
192;1673426444.4560926;47.1306115;7.2405681;49.85900115966797;1673426444.6197958;-34.3211784362793;45.705204010009766;156.12484741210938
193;1673426444.6610832;47.1305998;7.24055;49.868003845214844;1673426444.8076372;-46.489688873291016;44.58464050292969;168.50746154785156
194;1673426444.855617;47.130586699999995;7.24053;49.85200119018555;1673426445.0156507;-48.39872360229492;31.81545639038086;-177.71823120117188
195;1673426445.0635924;47.130572699999995;7.240507699999999;49.80800247192383;1673426445.2155247;-44.34421920776367;22.854312896728516;-171.90663146972656
196;1673426445.2555509;47.1305578;7.2404839999999995;49.74100112915039;1673426445.4559817;-47.33802795410156;17.749256134033203;-165.80422973632812
197;1673426445.497022;47.1305425;7.2404594;49.67100143432617;1673426445.635374;-46.64995193481445;11.55366039276123;-157.87484741210938
198;1673426445.6756246;47.1305267;7.240434199999999;49.617000579833984;1673426445.8244128;-46.183353424072266;6.738065242767334;-150.5806884765625
199;1673426445.864598;47.1305106;7.2404085;49.58500289916992;1673426446.0101118;-47.291038513183594;2.749382495880127;-144.092041015625
200;1673426446.0531073;47.1304945;7.240382599999999;49.56300354003906;1673426446.2080894;-47.36296463012695;-2.3364925384521484;-136.9442138671875
201;1673426446.2512572;47.1304783;7.240356299999999;49.55500411987305;1673426446.4045591;-46.901519775390625;-11.183279991149902;-131.9856719970703
202;1673426446.4546537;47.130462;7.2403300999999995;49.56100082397461;1673426446.6039734;-46.802494049072266;-12.556436538696289;-134.81581115722656
203;1673426446.6470532;47.1304453;7.2403039;49.56700134277344;1673426446.8041556;-46.57674026489258;-10.356948852539062;-138.40118408203125
204;1673426446.8492055;47.1304283;7.2402782;49.583003997802734;1673426447.0092218;-47.667442321777344;-9.730801582336426;-139.43177795410156
205;1673426447.059004;47.1304109;7.240253;49.60300064086914;1673426447.2161975;-48.43316650390625;-8.443262100219727;-140.2186737060547
206;1673426447.2554061;47.1303932;7.2402283;49.63200378417969;1673426447.417473;-49.65793228149414;-6.9213738441467285;-140.85409545898438
207;1673426447.4772592;47.130375199999996;7.2402039;49.663002014160156;1673426447.632587;-49.850223541259766;-5.565699100494385;-141.09693908691406
208;1673426447.6952336;47.1303568;7.2401798;49.682003021240234;1673426447.8793983;-48.67982864379883;-4.917200565338135;-140.96710205078125
209;1673426447.9170785;47.1303383;7.2401554;49.695003509521484;1673426448.0601485;-47.27659225463867;-5.136969089508057;-140.49732971191406
210;1673426448.1017168;47.1303197;7.240131099999999;49.704002380371094;1673426448.2721949;-46.85085678100586;-5.401387691497803;-140.15533447265625
211;1673426448.3149238;47.1303012;7.240106699999999;49.71600341796875;1673426448.4509528;-47.50920867919922;-5.73314094543457;-139.8480224609375
212;1673426448.493486;47.1302826;7.2400823999999995;49.73200225830078;1673426448.636202;-48.1158561706543;-5.888332843780518;-139.688232421875
213;1673426448.6810865;47.130264;7.2400581;49.74700164794922;1673426448.8396168;-47.9527587890625;-5.886524200439453;-139.524658203125
214;1673426448.8787403;47.1302453;7.2400337;49.75800323486328;1673426449.0237641;-47.4668083190918;-5.817494869232178;-139.3373565673828
215;1673426449.070338;47.1302266;7.240009499999999;49.759002685546875;1673426449.231419;-46.62694549560547;-5.711266040802002;-139.1912078857422
216;1673426449.277499;47.130207999999996;7.239985099999999;49.755001068115234;1673426449.4396324;-46.36433792114258;-5.776121616363525;-139.05836486816406
217;1673426449.4866896;47.1301894;7.2399607999999995;49.759002685546875;1673426449.6433728;-47.16816329956055;-5.938943386077881;-138.9370574951172
218;1673426449.6874764;47.130171;7.2399363999999995;49.7660026550293;1673426449.8199842;-47.80713653564453;-6.019739151000977;-138.908203125
219;1673426449.8591623;47.1301525;7.2399119;49.77300262451172;1673426450.009957;-47.79328155517578;-6.0162787437438965;-138.89971923828125
220;1673426450.0528998;47.1301341;7.2398874;49.77900314331055;1673426450.2015512;-47.478885650634766;-5.990265369415283;-138.8253173828125
221;1673426450.2435098;47.130115599999996;7.239862899999999;49.77900314331055;1673426450.3953536;-47.075958251953125;-5.933676719665527;-138.7693328857422
222;1673426450.4424367;47.130097199999994;7.2398383;49.78200149536133;1673426450.613319;-47.28766632080078;-5.982518196105957;-138.7263946533203
223;1673426450.6613228;47.1300788;7.2398137;49.785003662109375;1673426450.8222008;-47.61327362060547;-5.996524810791016;-138.70872497558594
224;1673426450.8675284;47.1300604;7.239789;49.785003662109375;1673426451.0129557;-47.38658905029297;-5.96065092086792;-138.70050048828125
225;1673426451.0551932;47.130041999999996;7.2397643;49.78300094604492;1673426451.2121108;-47.21287536621094;-5.9280781745910645;-138.68704223632812
226;1673426451.2571146;47.1300236;7.2397396;49.790000915527344;1673426451.4196618;-47.70431137084961;-5.99514102935791;-138.6583709716797
227;1673426451.4642332;47.1300053;7.2397149;49.798004150390625;1673426451.626571;-48.072086334228516;-6.005817413330078;-138.65707397460938
228;1673426451.675419;47.1299869;7.2396902;49.802001953125;1673426451.84079;-47.798526763916016;-5.909703254699707;-138.69447326660156
229;1673426451.8850746;47.1299686;7.2396654;49.802001953125;1673426452.041572;-47.30220413208008;-5.848911285400391;-138.6725616455078
230;1673426452.0846686;47.129950199999996;7.239640499999999;49.801002502441406;1673426452.2518494;-47.35654830932617;-5.819005489349365;-138.65106201171875
231;1673426452.3041787;47.1299318;7.2396157;49.801002502441406;1673426452.437508;-47.70433807373047;-5.884284496307373;-138.64016723632812
232;1673426452.4779744;47.1299135;7.239590799999999;49.80400085449219;1673426452.6328402;-47.80923843383789;-5.850543022155762;-138.69296264648438
233;1673426452.6731105;47.1298951;7.239565799999999;49.80600357055664;1673426452.8178139;-47.70531463623047;-5.874997615814209;-138.68472290039062
234;1673426452.862859;47.1298768;7.239540799999999;49.80800247192383;1673426453.0191352;-47.627437591552734;-5.864552021026611;-138.698486328125
235;1673426453.066056;47.129858399999996;7.2395157999999995;49.80600357055664;1673426453.2225626;-47.55839920043945;-5.881942272186279;-138.70458984375
236;1673426453.2724903;47.129840099999996;7.2394908;49.80800247192383;1673426453.4191296;-47.635311126708984;-5.8961381912231445;-138.6964111328125
237;1673426453.46991;47.129821799999995;7.239465699999999;49.810001373291016;1673426453.6158352;-47.68867874145508;-5.858724117279053;-138.73753356933594
238;1673426453.6639588;47.1298034;7.239440699999999;49.81100082397461;1673426453.8202326;-47.54981231689453;-5.791348457336426;-138.7740936279297
239;1673426453.8664181;47.129785;7.2394156999999995;49.81100082397461;1673426454.0295076;-47.48148727416992;-5.7737040519714355;-138.7579803466797
240;1673426454.0883632;47.1297667;7.239390599999999;49.81300354003906;1673426454.2833729;-47.48920822143555;-5.723266124725342;-138.79989624023438
241;1673426454.3241599;47.129748299999996;7.2393655;49.81800079345703;1673426454.4649343;-47.67881774902344;-5.790530681610107;-138.8028106689453
242;1673426454.5084317;47.129729999999995;7.2393404;49.82600402832031;1673426454.6518567;-47.80330276489258;-5.792019367218018;-138.8167266845703
243;1673426454.6961067;47.1297116;7.2393152999999995;49.83100128173828;1673426454.8374982;-47.656639099121094;-5.740128040313721;-138.8626708984375
244;1673426454.8746605;47.1296933;7.239290199999999;49.8390007019043;1673426455.0197878;-47.6971321105957;-5.689423084259033;-138.89524841308594
245;1673426455.0688682;47.1296749;7.2392651;49.84600067138672;1673426455.219416;-47.76774597167969;-5.677004814147949;-138.90516662597656
246;1673426455.2684114;47.1296566;7.23924;49.85100173950195;1673426455.4316456;-47.765159606933594;-5.645770072937012;-138.9723358154297
247;1673426455.475748;47.129638199999995;7.2392148999999995;49.85600280761719;1673426455.6511307;-47.69565963745117;-5.608701229095459;-139.00086975097656
248;1673426455.6977646;47.1296198;7.2391897;49.86300277709961;1673426455.835664;-47.73404312133789;-5.606569766998291;-139.00613403320312
249;1673426455.8770058;47.1296014;7.239164499999999;49.867000579833984;1673426456.0275977;-47.67138671875;-5.510363578796387;-139.10671997070312
250;1673426456.0726461;47.129582899999996;7.239139199999999;49.87000274658203;1673426456.2192402;-47.60491943359375;-5.497514724731445;-139.10427856445312
251;1673426456.2682426;47.1295645;7.2391141;49.87000274658203;1673426456.426598;-47.587013244628906;-5.463174343109131;-139.16574096679688
252;1673426456.4696965;47.1295462;7.2390889;49.87200164794922;1673426456.631925;-47.41516876220703;-5.39290714263916;-139.191650390625
253;1673426456.6956615;47.1295278;7.239063799999999;49.874000549316406;1673426456.8394;-47.56973648071289;-5.3703813552856445;-139.25164794921875
254;1673426456.8834505;47.129509399999996;7.2390386;49.87900161743164;1673426457.0413144;-47.761173248291016;-5.359771251678467;-139.3277587890625
255;1673426457.086531;47.129490999999994;7.239013399999999;49.88600158691406;1673426457.2911973;-47.73916244506836;-5.236868858337402;-139.4215850830078
256;1673426457.3457718;47.1294726;7.2389883;49.8900032043457;1673426457.4905963;-47.58202362060547;-5.12939453125;-139.47113037109375
257;1673426457.5277274;47.1294542;7.238963099999999;49.89600372314453;1673426457.6652443;-47.511474609375;-5.408787250518799;-139.44017028808594
258;1673426457.7113068;47.129435699999995;7.238938;49.89900207519531;1673426457.858662;-47.48971176147461;-6.276336669921875;-139.45828247070312
259;1673426457.9010959;47.1294173;7.2389129;49.90500259399414;1673426458.051121;-47.91823196411133;-6.381252765655518;-139.6515655517578
260;1673426458.0912561;47.1293988;7.2388878;49.91400146484375;1673426458.241879;-47.457340240478516;-7.781628131866455;-139.70359802246094
261;1673426458.2887955;47.1293802;7.2388628;49.926002502441406;1673426458.4441688;-47.8368034362793;-7.310065746307373;-140.20672607421875
262;1673426458.4920037;47.129361499999995;7.238837999999999;49.93400192260742;1673426458.6376636;-47.94597244262695;-7.903063774108887;-140.2847442626953
263;1673426458.6874475;47.129342699999995;7.2388135;49.94200134277344;1673426458.8330936;-47.561859130859375;-8.399190902709961;-140.57737731933594
264;1673426458.8750713;47.129323799999995;7.238789199999999;49.95000076293945;1673426459.0370302;-47.57265853881836;-8.05833625793457;-140.96348571777344
265;1673426459.082905;47.1293047;7.238765099999999;49.95600128173828;1673426459.2316115;-46.066749572753906;-10.62221908569336;-140.63563537597656
266;1673426459.281543;47.129285499999995;7.2387413;49.97300338745117;1673426459.4355333;-38.68194580078125;-8.459997177124023;-141.634033203125
267;1673426459.478914;47.1292663;7.2387181;50.00400161743164;1673426459.6270475;-22.95702362060547;-9.566524505615234;-140.02520751953125
268;1673426459.6712046;47.1292477;7.2386959;50.03700256347656;1673426459.8250744;-6.362948894500732;-7.053281784057617;-138.6049041748047
269;1673426459.8736749;47.1292304;7.2386753;50.05000305175781;1673426460.0369177;6.429762840270996;-5.363401412963867;-137.08724975585938
270;1673426460.0818155;47.129215099999996;7.238657;50.051002502441406;1673426460.2360497;15.814716339111328;-2.789055824279785;-138.09423828125
271;1673426460.2839882;47.129202299999996;7.238641299999999;50.02100372314453;1673426460.443698;20.672266006469727;-5.97653865814209;-138.53045654296875
272;1673426460.485711;47.1291921;7.2386282;49.9530029296875;1673426460.6427412;14.963959693908691;-9.364363670349121;-136.92422485351562
273;1673426460.6830947;47.1291844;7.2386178;49.871002197265625;1673426460.8379917;14.638582229614258;-14.190780639648438;-135.68670654296875
274;1673426460.8848214;47.1291787;7.238609899999999;49.83400344848633;1673426461.0346289;6.887145519256592;-12.57964038848877;-136.66064453125
275;1673426461.0795226;47.1291745;7.2386044;49.8640022277832;1673426461.2304916;1.7189843654632568;-11.698991775512695;-136.13064575195312
276;1673426461.2724593;47.1291711;7.2386004999999995;49.90500259399414;1673426461.4316998;-7.175394058227539;-12.862658500671387;-135.91856384277344
277;1673426461.4765954;47.129168;7.2385972999999995;49.945003509521484;1673426461.6292946;-12.467244148254395;-11.221120834350586;-135.59255981445312
278;1673426461.6723993;47.129165;7.2385943;49.980003356933594;1673426461.833935;-14.809971809387207;-8.618237495422363;-134.8250732421875
279;1673426461.8770204;47.129162;7.2385911;50.01000213623047;1673426462.033877;-13.13001823425293;-6.17340612411499;-134.13381958007812
280;1673426462.0807252;47.129159099999995;7.2385873;50.03700256347656;1673426462.2852476;-9.408365249633789;-3.396836519241333;-134.0687255859375
281;1673426462.3323674;47.1291565;7.238583299999999;50.060001373291016;1673426462.4656403;-6.110386848449707;-5.523194789886475;-134.2390899658203
282;1673426462.505683;47.129154;7.2385794;50.08000183105469;1673426462.6689882;-25.547510147094727;-6.644941329956055;-136.2509002685547
283;1673426462.711543;47.1291515;7.238575099999999;50.137001037597656;1673426462.8548596;-24.885299682617188;-5.079506874084473;-139.150390625
284;1673426462.8920293;47.129148199999996;7.2385696;50.23100280761719;1673426463.047245;-16.452892303466797;-2.3681344985961914;-139.57073974609375
285;1673426463.088362;47.1291446;7.238563;50.38200378417969;1673426463.2519479;-16.818037033081055;1.826862096786499;-139.54830932617188
286;1673426463.297048;47.129140899999996;7.2385557;50.63100051879883;1673426463.4634542;-17.875864028930664;-1.1463758945465088;-138.18382263183594
287;1673426463.505573;47.1291373;7.2385478;50.9530029296875;1673426463.6551332;-40.044677734375;-13.127883911132812;-136.9332733154297
288;1673426463.6980867;47.1291332;7.238538999999999;51.30600357055664;1673426463.8496964;-47.643592834472656;-15.45242977142334;-138.4301300048828
289;1673426463.8933313;47.129127;7.2385288;51.66800308227539;1673426464.039273;-42.60358428955078;-14.622655868530273;-137.99009704589844
290;1673426464.0919752;47.129118999999996;7.2385174;52.02300262451172;1673426464.2415748;-38.17936325073242;-13.282461166381836;-138.36624145507812
291;1673426464.2816248;47.1291095;7.2385052;52.3640022277832;1673426464.4227388;-33.281494140625;-10.453792572021484;-138.3283233642578
292;1673426464.467901;47.1290993;7.2384926;52.69700241088867;1673426464.6366918;-31.546661376953125;-8.387410163879395;-137.77716064453125
293;1673426464.6796439;47.129088599999996;7.2384797999999995;53.03300094604492;1673426464.8399823;-29.187118530273438;-6.5166730880737305;-137.5792236328125
294;1673426464.8891134;47.129077699999996;7.238466799999999;53.37900161743164;1673426465.0542476;-27.396686553955078;-5.535767078399658;-137.37832641601562
295;1673426465.0962095;47.1290668;7.2384537;53.73200225830078;1673426465.2480145;-26.280200958251953;-5.223453998565674;-136.9622802734375
296;1673426465.2882528;47.1290561;7.238440499999999;54.09100341796875;1673426465.4561932;-25.55931282043457;-6.02994966506958;-136.7603302001953
297;1673426465.5043721;47.1290457;7.238427199999999;54.45900344848633;1673426465.6692073;-25.264488220214844;-6.966853618621826;-136.4765167236328
298;1673426465.712547;47.129035599999995;7.2384138;54.83500289916992;1673426465.87216;-25.580184936523438;-7.741704940795898;-136.49075317382812
299;1673426465.9113424;47.1290258;7.2384005;55.215003967285156;1673426466.0554833;-26.054304122924805;-8.002579689025879;-136.6628875732422
300;1673426466.1007137;47.129016199999995;7.2383869999999995;55.603004455566406;1673426466.2586496;-26.760591506958008;-6.733134746551514;-137.2610321044922
301;1673426466.3092358;47.1290067;7.2383735;55.99500274658203;1673426466.4477851;-27.363571166992188;-6.429193496704102;-137.49339294433594
302;1673426466.487803;47.128997299999995;7.238359999999999;56.38900375366211;1673426466.6362326;-28.254899978637695;-6.688526153564453;-137.50650024414062
303;1673426466.6766796;47.1289878;7.2383466;56.785003662109375;1673426466.854876;-28.631750106811523;-7.490768909454346;-137.17633056640625
304;1673426466.902709;47.1289782;7.2383332;57.17900085449219;1673426467.0654316;-28.445714950561523;-8.733263969421387;-136.97042846679688
305;1673426467.1113133;47.1289685;7.2383199;57.57200241088867;1673426467.2697306;-28.375436782836914;-9.374665260314941;-136.61590576171875
306;1673426467.3438077;47.1289588;7.238306499999999;57.961002349853516;1673426467.4985776;-28.02655029296875;-9.938652038574219;-136.48611450195312
307;1673426467.5378857;47.128949;7.238293199999999;58.353004455566406;1673426467.6742363;-27.98284149169922;-9.694693565368652;-136.4789276123047
308;1673426467.7198954;47.1289392;7.238279899999999;58.74400329589844;1673426467.8642511;-27.95454216003418;-9.26956844329834;-136.5369110107422
309;1673426467.9042723;47.128929299999996;7.2382665;59.13600158691406;1673426468.0493064;-27.846359252929688;-8.448943138122559;-136.77899169921875
310;1673426468.092745;47.128919499999995;7.2382532;59.525001525878906;1673426468.2496393;-28.068147659301758;-7.540951251983643;-136.93429565429688
311;1673426468.2929723;47.1289097;7.238239699999999;59.91800308227539;1673426468.4410017;-27.972640991210938;-7.073051452636719;-137.1367645263672
312;1673426468.4868865;47.1288999;7.2382263;60.307003021240234;1673426468.6295204;-28.190685272216797;-6.669062614440918;-137.25216674804688
313;1673426468.6724656;47.12889;7.2382127999999994;60.695003509521484;1673426468.836234;-28.223093032836914;-6.77524995803833;-137.18801879882812
314;1673426468.876766;47.128880099999996;7.2381993;61.08700180053711;1673426469.0387082;-28.32977867126465;-7.158976078033447;-137.043701171875
315;1673426469.0856907;47.128870199999994;7.2381858999999995;61.48500442504883;1673426469.2358358;-28.16279411315918;-7.713177680969238;-136.82936096191406
316;1673426469.2830734;47.1288603;7.238172499999999;61.88200378417969;1673426469.4351106;-28.38302993774414;-8.382534980773926;-136.68455505371094
317;1673426469.4795475;47.1288505;7.238159;62.27800369262695;1673426469.6535692;-28.246213912963867;-8.964614868164062;-136.53590393066406
318;1673426469.702553;47.1288406;7.2381455;62.67200469970703;1673426469.8614137;-28.217815399169922;-9.05785846710205;-136.5308837890625
319;1673426469.9044127;47.128830799999996;7.238131999999999;63.061004638671875;1673426470.0648026;-28.339862823486328;-8.928431510925293;-136.64663696289062
320;1673426470.1088932;47.128820999999995;7.238118399999999;63.4530029296875;1673426470.2646282;-28.31801986694336;-8.711904525756836;-136.84222412109375
321;1673426470.3134928;47.1288112;7.2381047999999995;63.846004486083984;1673426470.461546;-28.463359832763672;-8.073020935058594;-137.04664611816406
322;1673426470.5005906;47.1288014;7.2380911;64.24100494384766;1673426470.647101;-28.492000579833984;-7.567798137664795;-137.2313995361328
323;1673426470.6911135;47.1287916;7.238077499999999;64.63600158691406;1673426470.835688;-28.379783630371094;-7.081181526184082;-137.34278869628906
324;1673426470.878671;47.1287817;7.238064;65.0300064086914;1673426471.0558581;-28.45699691772461;-7.416992664337158;-137.19921875
325;1673426471.1000113;47.1287719;7.2380504;65.42100524902344;1673426471.2630215;-28.452821731567383;-7.3059492111206055;-137.1189727783203
326;1673426471.305392;47.1287619;7.238036999999999;65.81500244140625;1673426471.441362;-28.37755584716797;-7.619048118591309;-136.99168395996094
327;1673426471.487423;47.1287519;7.2380235;66.21600341796875;1673426471.6547124;-28.422428131103516;-8.142054557800293;-136.82968139648438
328;1673426471.7034838;47.1287419;7.23801;66.61300659179688;1673426471.8625224;-28.376066207885742;-8.362090110778809;-136.6882781982422
329;1673426471.9201176;47.1287319;7.2379966;67.00900268554688;1673426472.0853426;-28.40044593811035;-8.625092506408691;-136.6312713623047
330;1673426472.121462;47.128721899999995;7.2379831;67.406005859375;1673426472.259978;-28.526630401611328;-8.676993370056152;-136.61061096191406
331;1673426472.2990167;47.128712;7.237969499999999;67.802001953125;1673426472.4736278;-28.524240493774414;-8.696698188781738;-136.6312713623047
332;1673426472.5205226;47.1287021;7.237955899999999;68.19400024414062;1673426472.6701522;-28.607446670532227;-8.677075386047363;-136.67831420898438
333;1673426472.711296;47.128692199999996;7.2379422;68.59100341796875;1673426472.8545506;-28.59082794189453;-8.617189407348633;-136.7291717529297
334;1673426472.8954036;47.1286823;7.2379285;68.98699951171875;1673426473.0968559;-28.592741012573242;-8.51845932006836;-136.82339477539062
335;1673426473.1425192;47.1286724;7.237914699999999;69.38400268554688;1673426473.294306;-28.510929107666016;-8.333562850952148;-136.9184112548828
336;1673426473.3319824;47.1286625;7.237901;69.77900695800781;1673426473.4717143;-28.501646041870117;-8.246676445007324;-136.9606170654297
337;1673426473.5088706;47.128652599999995;7.237887199999999;70.17100524902344;1673426473.6482637;-28.606504440307617;-8.025125503540039;-136.9897918701172
338;1673426473.6970336;47.1286427;7.2378735999999995;70.56600189208984;1673426473.8666427;-28.47481918334961;-8.033773422241211;-137.0276641845703
339;1673426473.915482;47.1286327;7.237859899999999;70.96400451660156;1673426474.0707664;-28.35700798034668;-7.71245813369751;-137.13922119140625
340;1673426474.1205516;47.1286227;7.2378462;71.36400604248047;1673426474.304866;-28.347900390625;-7.38433837890625;-137.16639709472656
341;1673426474.337345;47.1286127;7.2378325;71.76600646972656;1673426474.4874046;-28.211063385009766;-7.308873176574707;-137.15379333496094
342;1673426474.531575;47.128602699999995;7.2378189;72.16400146484375;1673426474.6748748;-28.225849151611328;-7.074509143829346;-137.18370056152344
343;1673426474.7141001;47.1285927;7.2378053;72.56500244140625;1673426474.8655663;-28.1773624420166;-7.297155380249023;-137.0684814453125
344;1673426474.9114194;47.1285828;7.2377917;72.97000122070312;1673426475.072763;-28.318561553955078;-7.103006362915039;-137.08216857910156
345;1673426475.1276052;47.128572899999995;7.237778199999999;73.37000274658203;1673426475.3237152;-28.56202507019043;-7.311624050140381;-137.02110290527344
346;1673426475.368374;47.1285629;7.2377647;73.77300262451172;1673426475.4917238;-28.658485412597656;-7.381101608276367;-136.94338989257812
347;1673426475.530389;47.128553;7.2377512;74.17100524902344;1673426475.6793523;-28.72154426574707;-7.493471622467041;-136.89956665039062
348;1673426475.7266665;47.128543;7.2377376;74.57000732421875;1673426475.8639464;-28.750444412231445;-7.605535507202148;-136.90560913085938
349;1673426475.9040182;47.1285331;7.237724;74.96500396728516;1673426476.0516496;-28.725418090820312;-7.720505714416504;-136.9305877685547
350;1673426476.0946798;47.1285232;7.2377103;75.35800170898438;1673426476.2470953;-28.705965042114258;-7.734912395477295;-136.9178466796875
351;1673426476.291096;47.1285132;7.2376966;75.75200653076172;1673426476.461625;-28.638643264770508;-7.9906182289123535;-136.92523193359375
352;1673426476.5056438;47.1285033;7.237682899999999;76.14700317382812;1673426476.6565259;-28.619277954101562;-7.9278717041015625;-136.94602966308594
353;1673426476.704428;47.128493399999996;7.237669299999999;76.54400634765625;1673426476.8706079;-28.613506317138672;-8.166786193847656;-136.8689422607422
354;1673426476.9225006;47.128483499999994;7.2376556;76.94500732421875;1673426477.072661;-28.59543800354004;-8.286646842956543;-136.84861755371094
355;1673426477.1146219;47.1284736;7.2376419;77.34600067138672;1673426477.2553246;-28.766033172607422;-8.299979209899902;-136.84548950195312
356;1673426477.2936406;47.1284637;7.2376283;77.74400329589844;1673426477.444745;-28.698701858520508;-8.108436584472656;-136.8652801513672
357;1673426477.490748;47.128453699999994;7.2376146;78.14100646972656;1673426477.6517732;-28.700244903564453;-8.118659973144531;-136.86936950683594
358;1673426477.700619;47.1284438;7.237601;78.53800201416016;1673426477.8610404;-28.53099822998047;-8.290223121643066;-136.83334350585938
359;1673426477.9078624;47.128433799999996;7.2375872;78.93800354003906;1673426478.0721936;-28.47784996032715;-8.258631706237793;-136.88681030273438
360;1673426478.1103065;47.1284239;7.2375735;79.3340072631836;1673426478.2568061;-28.45229721069336;-8.279473304748535;-136.88204956054688
361;1673426478.3040543;47.128414;7.2375598;79.73300170898438;1673426478.4654636;-28.48699188232422;-8.160295486450195;-136.89666748046875
362;1673426478.513469;47.128403999999996;7.237546099999999;80.13600158691406;1673426478.6742883;-28.542383193969727;-8.234232902526855;-136.87644958496094
363;1673426478.7133365;47.128394199999995;7.2375324999999995;80.53900146484375;1673426478.8712647;-28.678600311279297;-8.194666862487793;-136.9108123779297
364;1673426478.9122562;47.1283842;7.2375188999999995;80.93800354003906;1673426479.0722187;-28.487937927246094;-8.100451469421387;-136.91212463378906
365;1673426479.1122348;47.1283743;7.237505199999999;81.33600616455078;1673426479.273549;-28.53704071044922;-8.229155540466309;-136.90151977539062
366;1673426479.3847034;47.128364399999995;7.2374915;81.73300170898438;1673426479.5269125;-28.502857208251953;-8.119793891906738;-136.92332458496094
367;1673426479.5607872;47.1283545;7.2374778;82.12700653076172;1673426479.681169;-28.56629753112793;-8.147397994995117;-136.90716552734375
368;1673426479.7231445;47.1283446;7.2374642;82.52200317382812;1673426479.871836;-28.589256286621094;-8.10040283203125;-136.92555236816406
369;1673426479.911852;47.128334699999996;7.2374506;82.91600036621094;1673426480.0566468;-28.592594146728516;-8.085678100585938;-136.91110229492188
370;1673426480.0984006;47.128324799999994;7.2374369;83.31100463867188;1673426480.2463953;-28.41866111755371;-8.086629867553711;-136.9144287109375
371;1673426480.2923815;47.1283148;7.2374233;83.70700073242188;1673426480.4466052;-28.468835830688477;-8.085855484008789;-136.9178924560547
372;1673426480.4946291;47.128304899999996;7.237409599999999;84.10400390625;1673426480.646748;-28.46015739440918;-8.061636924743652;-136.9340362548828
373;1673426480.692766;47.128295;7.2373959999999995;84.5050048828125;1673426480.848048;-28.38553810119629;-8.111682891845703;-136.90182495117188
374;1673426480.8950498;47.128285;7.237382299999999;84.90900421142578;1673426481.0474489;-28.343271255493164;-8.184615135192871;-136.92454528808594
375;1673426481.0973916;47.128275099999996;7.2373686;85.31200408935547;1673426481.2634716;-28.411569595336914;-8.203089714050293;-136.9200439453125
376;1673426481.3198771;47.1282652;7.2373549;85.71700286865234;1673426481.4707348;-28.351289749145508;-8.214739799499512;-136.91485595703125
377;1673426481.520826;47.1282553;7.2373413;86.12100219726562;1673426481.6695285;-28.39137077331543;-8.166057586669922;-136.91708374023438
378;1673426481.716411;47.1282454;7.2373277;86.52400207519531;1673426481.866788;-28.47528648376465;-8.210744857788086;-136.912353515625
379;1673426481.9089224;47.128235499999995;7.2373141;86.92300415039062;1673426482.0606322;-28.43288230895996;-8.179949760437012;-136.923828125
380;1673426482.1035805;47.1282256;7.2373005;87.31800079345703;1673426482.277689;-28.48212432861328;-8.148417472839355;-136.92816162109375
381;1673426482.317191;47.1282157;7.2372869;87.71500396728516;1673426482.469854;-28.466169357299805;-8.187270164489746;-136.92926025390625
382;1673426482.5158532;47.128205799999996;7.2372733;88.11000061035156;1673426482.6807656;-28.48135757446289;-8.24073314666748;-136.90867614746094
383;1673426482.726647;47.128195899999994;7.2372597;88.50800323486328;1673426482.8870351;-28.513107299804688;-8.137948036193848;-136.92202758789062
384;1673426482.9348614;47.128186;7.237246099999999;88.90800476074219;1673426483.0891032;-28.453210830688477;-8.240975379943848;-136.89979553222656
385;1673426483.1333632;47.128175999999996;7.237232499999999;89.30900573730469;1673426483.2756605;-28.436147689819336;-8.247190475463867;-136.90647888183594
386;1673426483.3205543;47.1281661;7.237218899999999;89.7040023803711;1673426483.47781;-28.490497589111328;-8.115960121154785;-136.91903686523438
387;1673426483.518802;47.1281561;7.237205299999999;90.10000610351562;1673426483.675617;-28.478788375854492;-8.170764923095703;-136.8994140625
388;1673426483.717754;47.128146199999996;7.2371918;90.49400329589844;1673426483.8735335;-28.43159294128418;-8.076577186584473;-136.90594482421875
389;1673426483.915675;47.1281363;7.2371782;90.88800811767578;1673426484.0621705;-28.332551956176758;-8.26143741607666;-136.90304565429688
390;1673426484.103734;47.1281263;7.2371646;91.28600311279297;1673426484.2712145;-28.427364349365234;-8.225106239318848;-136.89662170410156
391;1673426484.3161333;47.128116399999996;7.237151;91.68400573730469;1673426484.4626844;-28.303768157958984;-8.247696876525879;-136.88369750976562
392;1673426484.5056293;47.1281064;7.2371374;92.08500671386719;1673426484.6629918;-28.280595779418945;-8.14478588104248;-136.91720581054688
393;1673426484.7059329;47.1280965;7.237123899999999;92.48700714111328;1673426484.8555338;-28.363056182861328;-8.27029037475586;-136.85096740722656
394;1673426484.9072537;47.128086499999995;7.237110299999999;92.88500213623047;1673426485.066793;-28.5245304107666;-8.138132095336914;-136.89669799804688
395;1673426485.1079867;47.1280766;7.2370966999999995;93.28600311279297;1673426485.2709498;-28.32319450378418;-8.219555854797363;-136.87448120117188
396;1673426485.308082;47.1280666;7.2370832;93.68900299072266;1673426485.452055;-28.22568130493164;-8.145625114440918;-136.88748168945312
397;1673426485.4940212;47.128056699999995;7.2370696;94.09100341796875;1673426485.6512122;-28.403121948242188;-8.184368133544922;-136.88436889648438
398;1673426485.698321;47.1280468;7.237056;94.49000549316406;1673426485.8682053;-28.37682342529297;-8.025995254516602;-136.86566162109375
399;1673426485.9309509;47.1280368;7.237042499999999;94.89100646972656;1673426486.078218;-28.475421905517578;-8.095473289489746;-136.8545684814453
400;1673426486.1231182;47.128026899999995;7.237029;95.29000091552734;1673426486.2756915;-28.429773330688477;-7.946722984313965;-136.87255859375
401;1673426486.3482618;47.1280169;7.2370155;95.69000244140625;1673426486.570101;-28.500699996948242;-8.020528793334961;-136.844970703125
402;1673426486.6208382;47.128007;7.2370019;96.08900451660156;1673426486.7428498;-28.441627502441406;-8.08980941772461;-136.83811950683594
403;1673426486.7923508;47.127997099999995;7.2369882;96.48900604248047;1673426486.9242542;-28.34083366394043;-8.2808837890625;-136.84454345703125
404;1673426486.9625378;47.1279872;7.2369746;96.88800811767578;1673426487.1009536;-28.288694381713867;-8.195104598999023;-136.871826171875
405;1673426487.1430056;47.1279773;7.2369609;97.28900146484375;1673426487.29111;-28.305992126464844;-8.11985969543457;-136.87478637695312
406;1673426487.3312738;47.127967299999995;7.2369473;97.68700408935547;1673426487.4789462;-28.274078369140625;-8.136408805847168;-136.86053466796875
407;1673426487.5306604;47.1279573;7.2369337;98.08600616455078;1673426487.6874948;-28.124652862548828;-8.098793029785156;-136.8560791015625
408;1673426487.7275589;47.127947299999995;7.2369201;98.48700714111328;1673426487.884974;-27.99098014831543;-8.115221977233887;-136.8400115966797
409;1673426487.9318519;47.1279374;7.2369065;98.88600158691406;1673426488.0935843;-28.170860290527344;-8.244458198547363;-136.80966186523438
410;1673426488.1445007;47.1279275;7.2368928;99.28500366210938;1673426488.2916582;-28.26067543029785;-8.310990333557129;-136.85597229003906
411;1673426488.3317275;47.1279177;7.2368792;99.6820068359375;1673426488.477659;-28.296709060668945;-8.220928192138672;-136.83192443847656
412;1673426488.5215783;47.127907799999996;7.2368657;100.08100128173828;1673426488.7102816;-28.345918655395508;-8.21345329284668;-136.84356689453125
413;1673426488.756348;47.1278979;7.236852099999999;100.48100280761719;1673426488.9021914;-28.503353118896484;-8.18109130859375;-136.85369873046875
414;1673426488.948046;47.127888;7.2368386;100.87500762939453;1673426489.0961158;-28.46956443786621;-8.194790840148926;-136.8136444091797
415;1673426489.143255;47.1278781;7.236825;101.26900482177734;1673426489.2981865;-28.523269653320312;-8.225831031799316;-136.796142578125
416;1673426489.3413906;47.127868199999995;7.236811299999999;101.66500854492188;1673426489.4826713;-28.387861251831055;-8.255989074707031;-136.8449249267578
417;1673426489.526636;47.1278583;7.2367976999999994;102.06000518798828;1673426489.6889968;-28.523456573486328;-8.106915473937988;-136.8452606201172
418;1673426489.7331016;47.1278484;7.2367840999999995;102.46000671386719;1673426489.8756254;-28.339216232299805;-8.228267669677734;-136.81695556640625
419;1673426489.9276934;47.127838499999996;7.236770399999999;102.85600280761719;1673426490.110361;-28.26247787475586;-8.27737045288086;-136.82754516601562
