;pos_time;latitude;longitude;altitude;alt_time;pitch;roll;yaw
0;1673426892.0104938;47.1306423;7.2406197;-0.032999999821186066;1673426892.005635;-0.38517358899116516;-0.6701934337615967;91.14918518066406
1;1673426892.2135274;47.1306423;7.2406197;-0.03500000014901161;1673426892.2086482;-0.3613278269767761;-0.42036572098731995;91.12776947021484
2;1673426892.4071393;47.1306423;7.240619799999999;-0.039000000804662704;1673426892.4022598;-0.6896731853485107;-0.5220271944999695;91.32310485839844
3;1673426892.6248684;47.1306424;7.2406198999999996;-0.039000000804662704;1673426892.6209116;-0.81075119972229;-0.3651028573513031;91.17009735107422
4;1673426892.8212385;47.1306424;7.24062;-0.03800000250339508;1673426892.8173342;-0.7071154713630676;-0.5334263443946838;91.130126953125
5;1673426893.0210588;47.1306424;7.24062;-0.03700000047683716;1673426893.0161774;-0.5483150482177734;-0.6119778752326965;91.31346893310547
6;1673426893.228791;47.1306424;7.24062;-0.03700000047683716;1673426893.2258625;-0.5600137710571289;-0.5680192112922668;91.2731704711914
7;1673426893.417109;47.1306424;7.2406198999999996;-0.036000002175569534;1673426893.412249;-0.5738978385925293;-0.5058997869491577;91.09573364257812
8;1673426893.6289752;47.1306423;7.2406198999999996;-0.03700000047683716;1673426893.6250715;-0.4501440227031708;-0.599819540977478;91.25972747802734
9;1673426893.8377147;47.1306423;7.2406198999999996;-0.03500000014901161;1673426893.8318594;-0.7618505358695984;-0.5706382393836975;91.18852233886719
10;1673426894.0659626;47.1306424;7.24062;-0.030000001192092896;1673426894.0638478;-0.7651098370552063;-0.5907834768295288;91.21041870117188
11;1673426894.2552927;47.1306424;7.2406201;-0.026000000536441803;1673426894.2514143;-0.8373886942863464;-0.5747098326683044;91.12300109863281
12;1673426894.4414055;47.1306424;7.2406201;-0.02500000037252903;1673426894.4365501;-0.7655566334724426;-0.6510948538780212;91.33447265625
13;1673426894.6401613;47.1306424;7.24062;-0.03100000135600567;1673426894.6352794;-0.6239179372787476;-0.5281134247779846;91.1818618774414
14;1673426894.8472502;47.1306424;7.24062;-0.0010000000474974513;1673426894.8433523;-0.7370411157608032;-1.4056639671325684;91.39537048339844
15;1673426895.051254;47.1306424;7.24062;-0.003000000026077032;1673426895.0462499;-0.5503911972045898;-1.3483976125717163;91.29009246826172
16;1673426895.283069;47.1306425;7.2406201;-0.0010000000474974513;1673426895.2791772;-0.3308199942111969;-1.2120211124420166;91.0923843383789
17;1673426895.4816217;47.1306425;7.2406201999999995;0.0010000000474974513;1673426895.4776752;-0.5292457938194275;-1.3258929252624512;91.3902359008789
18;1673426895.6639926;47.1306425;7.2406201999999995;0.003000000026077032;1673426895.6591098;-0.46861252188682556;-1.2730062007904053;91.30518341064453
19;1673426895.862947;47.1306425;7.2406203;0.003000000026077032;1673426895.8590465;-0.7793529033660889;-1.566886305809021;91.25078582763672
20;1673426896.0825799;47.1306425;7.2406203;0.0010000000474974513;1673426896.0796697;-0.3237631022930145;-1.5465455055236816;91.17989349365234
21;1673426896.254738;47.1306425;7.2406204;-0.0020000000949949026;1673426896.249853;-0.5078809857368469;-1.6424235105514526;91.06222534179688
22;1673426896.4475996;47.1306425;7.2406204;-0.0010000000474974513;1673426896.443695;-0.504970371723175;-1.4278054237365723;91.16131591796875
23;1673426896.6804855;47.1306425;7.2406203;-0.0020000000949949026;1673426896.675589;-0.41328465938568115;-1.164317011833191;90.9090347290039
24;1673426896.8652108;47.1306425;7.2406201999999995;-0.007000000216066837;1673426896.8622842;-0.493978351354599;-0.6636126637458801;90.81974792480469
25;1673426897.0398293;47.1306425;7.2406201;-0.00800000037997961;1673426897.0369012;-0.2666171193122864;-1.346871256828308;90.43121337890625
26;1673426897.2313585;47.1306425;7.24062;-0.010000000707805157;1673426897.2264802;-0.23956993222236633;-1.4285764694213867;90.56163024902344
27;1673426897.4363465;47.130642599999995;7.24062;-0.010000000707805157;1673426897.4304926;-0.27295544743537903;-1.238860011100769;89.6032943725586
28;1673426897.6202488;47.1306428;7.2406198999999996;-0.014000000432133675;1673426897.6173184;0.06580802798271179;-1.4410947561264038;88.98540496826172
29;1673426897.823313;47.1306429;7.2406198999999996;-0.01600000075995922;1673426897.8194232;0.005481493193656206;-1.0916411876678467;86.85100555419922
30;1673426898.0185463;47.130643199999994;7.2406196;-0.013000000268220901;1673426898.0146408;-0.591924250125885;-0.5567337870597839;79.62419891357422
31;1673426898.2355857;47.1306436;7.240619199999999;-0.01100000087171793;1673426898.231682;-0.7628495097160339;0.8960052132606506;68.64484405517578
32;1673426898.42938;47.1306444;7.2406187;-0.00800000037997961;1673426898.4235246;-0.3966141939163208;3.318418264389038;56.52824020385742
33;1673426898.6438005;47.1306454;7.240617899999999;0.005000000353902578;1673426898.639807;0.8042100667953491;8.928430557250977;49.70917892456055
34;1673426898.8430758;47.1306466;7.240616999999999;0.021000001579523087;1673426898.8401613;2.1317224502563477;14.31799030303955;52.21530532836914
35;1673426899.061065;47.1306478;7.2406158;0.052000001072883606;1673426899.0571613;1.293927550315857;16.986648559570312;56.34965515136719
36;1673426899.239442;47.130649;7.240614399999999;0.09300000220537186;1673426899.2365139;-0.22582626342773438;18.570716857910156;59.69050979614258
37;1673426899.4353015;47.130649999999996;7.2406128999999995;0.1420000046491623;1673426899.4304204;-1.7019507884979248;20.355791091918945;62.27888488769531
38;1673426899.6382847;47.1306507;7.2406117;0.20000000298023224;1673426899.6324327;-3.3442959785461426;22.016345977783203;64.43033599853516
39;1673426899.825206;47.130651199999996;7.240610599999999;0.2710000276565552;1673426899.823253;-5.0177998542785645;23.607330322265625;66.21873474121094
40;1673426900.0312564;47.1306514;7.240609999999999;0.35200002789497375;1673426900.027354;-6.596675395965576;25.18464469909668;67.58485412597656
41;1673426900.2461407;47.1306513;7.2406098;0.4360000193119049;1673426900.240146;-7.9878435134887695;26.788795471191406;68.80262756347656
42;1673426900.488802;47.1306508;7.2406102;0.5320000052452087;1673426900.4848855;-9.386805534362793;28.459888458251953;69.84931182861328
43;1673426900.6628344;47.1306498;7.2406112;0.6410000324249268;1673426900.658936;-9.699859619140625;27.349559783935547;70.88232421875
44;1673426900.8429453;47.1306485;7.2406127;0.7590000629425049;1673426900.838064;-8.793817520141602;24.725683212280273;71.76537322998047
45;1673426901.032228;47.130646999999996;7.2406144999999995;0.8920000195503235;1673426901.0283287;-7.6060028076171875;21.671733856201172;72.51628875732422
46;1673426901.2196343;47.1306456;7.2406163999999995;1.040000081062317;1673426901.2147536;-6.322306156158447;17.75904083251953;73.12694549560547
47;1673426901.4208238;47.1306443;7.2406179999999996;1.2020000219345093;1673426901.4149516;-5.173005104064941;16.961074829101562;73.17517852783203
48;1673426901.6131742;47.130643199999994;7.2406194;1.3830000162124634;1673426901.6082916;-3.596879005432129;14.143916130065918;72.86431884765625
49;1673426901.818064;47.1306424;7.2406204;1.5780000686645508;1673426901.8131933;-3.2995643615722656;11.323454856872559;63.72573471069336
50;1673426902.0281308;47.130641999999995;7.240620799999999;1.777000069618225;1673426902.0242631;-3.308220863342285;13.130148887634277;63.73564529418945
51;1673426902.2319992;47.1306418;7.2406209;1.977000117301941;1673426902.2280984;-3.9523215293884277;16.497716903686523;63.20506286621094
52;1673426902.450903;47.1306418;7.2406207;2.1760001182556152;1673426902.4479654;-4.459063529968262;13.382059097290039;63.674320220947266
53;1673426902.6322145;47.130641999999995;7.2406204;2.378000020980835;1673426902.6273339;-5.796211242675781;16.000404357910156;63.69258117675781
54;1673426902.8219197;47.1306422;7.2406201;2.578000068664551;1673426902.8170397;-5.356161117553711;20.15910530090332;63.44941329956055
55;1673426903.0120912;47.1306424;7.240619799999999;2.7810001373291016;1673426903.0081463;-5.082205772399902;18.5899600982666;63.443336486816406
56;1673426903.223521;47.130642699999996;7.2406196;2.9900002479553223;1673426903.2196193;-5.46544885635376;17.948389053344727;63.58698654174805
57;1673426903.4442904;47.1306429;7.2406196;3.192000150680542;1673426903.4394243;-5.387317180633545;21.038888931274414;63.20967483520508
58;1673426903.633255;47.1306429;7.2406197;3.389000177383423;1673426903.62935;-4.804168701171875;20.804283142089844;63.36494445800781
59;1673426903.823994;47.1306428;7.240619799999999;3.5850002765655518;1673426903.820094;-5.037004470825195;16.960920333862305;63.50108337402344
60;1673426904.0418735;47.130642699999996;7.2406198999999996;3.7780001163482666;1673426904.0379696;-5.342393398284912;18.979110717773438;63.42091369628906
61;1673426904.2358716;47.1306425;7.2406198999999996;3.9710001945495605;1673426904.2309937;-4.91769552230835;19.242252349853516;63.185420989990234
62;1673426904.4332943;47.1306424;7.2406198999999996;4.1660003662109375;1673426904.428416;-4.954667568206787;17.676679611206055;63.50901412963867
63;1673426904.6378882;47.1306424;7.24062;4.368000030517578;1673426904.6330118;-5.4593048095703125;16.695791244506836;63.6142463684082
64;1673426904.862411;47.1306424;7.24062;4.573000431060791;1673426904.8575313;-4.985607624053955;19.530426025390625;63.277889251708984
65;1673426905.0904393;47.1306424;7.2406201;4.776000022888184;1673426905.085556;-4.0810956954956055;19.1169376373291;63.338096618652344
66;1673426905.2674234;47.1306424;7.2406201;4.9810004234313965;1673426905.26352;-4.627460956573486;15.799198150634766;63.436363220214844
67;1673426905.4569836;47.1306424;7.2406201;5.183000087738037;1673426905.4511404;-5.243220329284668;18.279874801635742;63.29063415527344
68;1673426905.6371648;47.1306423;7.2406201999999995;5.385000228881836;1673426905.6322865;-4.6798858642578125;19.49262809753418;63.150184631347656
69;1673426905.84335;47.1306424;7.2406201;5.584000110626221;1673426905.8394506;-4.731832504272461;18.191818237304688;63.29110336303711
70;1673426906.058439;47.1306425;7.24062;5.7820000648498535;1673426906.0545514;-5.054164409637451;17.073190689086914;63.55958557128906
71;1673426906.2486317;47.130642599999995;7.24062;5.9830002784729;1673426906.2450974;-4.727084159851074;20.277132034301758;63.21598434448242
72;1673426906.434103;47.130642599999995;7.2406198999999996;6.180000305175781;1673426906.42908;-4.466282367706299;19.351848602294922;63.47512435913086
73;1673426906.617741;47.130642599999995;7.2406198999999996;6.375000476837158;1673426906.6138003;-4.990509510040283;16.356536865234375;63.5026969909668
74;1673426906.8277895;47.130642599999995;7.24062;6.568000316619873;1673426906.8241725;-5.3299055099487305;19.920663833618164;63.22721481323242
75;1673426907.0440314;47.1306425;7.24062;6.765000343322754;1673426907.0381918;-4.405704975128174;19.159194946289062;63.18842697143555
76;1673426907.266984;47.1306425;7.24062;6.966000556945801;1673426907.263077;-4.67515230178833;16.78980827331543;63.502498626708984
77;1673426907.4585454;47.130642599999995;7.2406198999999996;7.1650004386901855;1673426907.455631;-5.196508884429932;17.99424934387207;63.414581298828125
78;1673426907.652898;47.130642599999995;7.2406198999999996;7.359000205993652;1673426907.648018;-4.755313873291016;20.75855827331543;63.221614837646484
79;1673426907.8355358;47.130642599999995;7.24062;7.553000450134277;1673426907.8306139;-4.652284145355225;17.712139129638672;63.603755950927734
80;1673426908.0407104;47.130642599999995;7.24062;7.747000217437744;1673426908.037773;-5.106784343719482;16.845458984375;63.544471740722656
81;1673426908.2245677;47.130642599999995;7.24062;7.945000171661377;1673426908.2206635;-5.100241184234619;20.047382354736328;63.29983901977539
82;1673426908.4209735;47.130642599999995;7.24062;8.145000457763672;1673426908.4177697;-4.4428863525390625;18.999786376953125;63.24098587036133
83;1673426908.6242511;47.130642599999995;7.24062;8.346000671386719;1673426908.6203306;-4.822337627410889;16.633907318115234;63.50204849243164
84;1673426908.8273826;47.130642699999996;7.2406198999999996;8.54699993133545;1673426908.8234878;-5.209174633026123;18.473613739013672;63.288414001464844
85;1673426909.0269225;47.130642699999996;7.2406198999999996;8.743000030517578;1673426909.0230057;-4.632769584655762;20.701587677001953;63.22506332397461
86;1673426909.233499;47.1306428;7.2406198999999996;8.938000679016113;1673426909.230586;-4.530328750610352;17.14940643310547;63.65534591674805
87;1673426909.4450312;47.1306429;7.2406198999999996;9.130000114440918;1673426909.439143;-5.1874589920043945;17.740182876586914;63.34251022338867
88;1673426909.6370983;47.1306428;7.24062;9.32300090789795;1673426909.6322198;-4.746212959289551;20.61783218383789;63.1829948425293
89;1673426909.8358881;47.1306428;7.24062;9.51400089263916;1673426909.8310003;-4.420474052429199;18.325477600097656;63.27006149291992
90;1673426910.032342;47.1306428;7.24062;9.709000587463379;1673426910.0284379;-4.914454936981201;16.834280014038086;63.57952880859375
91;1673426910.2257807;47.1306429;7.24062;9.906000137329102;1673426910.2218359;-4.900633335113525;19.652690887451172;63.21746826171875
92;1673426910.4085143;47.1306429;7.24062;10.10300064086914;1673426910.4045706;-4.1805291175842285;19.94321060180664;63.29674530029297
93;1673426910.6071982;47.1306428;7.2406201;10.363000869750977;1673426910.6023326;-4.0221943855285645;16.17683219909668;63.530269622802734
94;1673426910.821314;47.130642699999996;7.2406201999999995;10.725000381469727;1673426910.8164394;-4.835638523101807;18.942087173461914;63.43404006958008
95;1673426911.0164096;47.1306425;7.2406204999999995;11.105000495910645;1673426911.0117762;-4.710163116455078;21.292922973632812;63.332393646240234
96;1673426911.2197745;47.130642099999996;7.2406207;11.494000434875488;1673426911.2149055;-4.164992809295654;17.594482421875;63.322113037109375
97;1673426911.437093;47.1306418;7.2406209;11.893000602722168;1673426911.4322195;-4.766732215881348;15.462331771850586;63.56768035888672
98;1673426911.638696;47.1306416;7.240621099999999;12.293000221252441;1673426911.6338155;-4.760668754577637;17.74406623840332;63.33759689331055
99;1673426911.8430667;47.1306416;7.240621099999999;12.696001052856445;1673426911.839163;-3.8143792152404785;17.57807731628418;63.21465301513672
100;1673426912.0334163;47.1306416;7.240621099999999;13.105000495910645;1673426912.0295131;-4.5473856925964355;14.589466094970703;63.53178024291992
101;1673426912.2285745;47.1306416;7.240621099999999;13.511000633239746;1673426912.223122;-4.915701866149902;16.920955657958984;63.414554595947266
102;1673426912.4486725;47.1306417;7.240621099999999;13.91100025177002;1673426912.4428165;-4.268604278564453;19.23944854736328;63.31219482421875
103;1673426912.6522088;47.1306417;7.240621;14.303000450134277;1673426912.6463525;-4.045748710632324;16.21953010559082;63.38279342651367
104;1673426912.8785913;47.1306418;7.2406209;14.688000679016113;1673426912.8746874;-4.840737342834473;16.417638778686523;63.411895751953125
105;1673426913.0752506;47.130641999999995;7.240620799999999;15.076001167297363;1673426913.072359;-4.752506256103516;19.567363739013672;63.23332214355469
106;1673426913.263878;47.130642099999996;7.2406207;15.462000846862793;1673426913.259008;-4.053071022033691;18.897743225097656;63.333282470703125
107;1673426913.4560602;47.1306422;7.2406206;15.852001190185547;1673426913.4521575;-4.633477210998535;16.682336807250977;63.536808013916016
108;1673426913.6521413;47.1306422;7.2406204999999995;16.24100112915039;1673426913.6482444;-4.713375091552734;18.742250442504883;63.292606353759766
109;1673426913.8467357;47.1306422;7.2406206;16.635000228881836;1673426913.841856;-4.388400554656982;20.076353073120117;63.34037780761719
110;1673426914.0258346;47.130642099999996;7.2406206;17.0310001373291;1673426914.0219457;-4.272934913635254;16.64605140686035;63.393775939941406
111;1673426914.2325451;47.130642099999996;7.2406206;17.42500114440918;1673426914.2286088;-4.900386810302734;16.835418701171875;63.385196685791016
112;1673426914.478826;47.130641999999995;7.2406206;17.814001083374023;1673426914.4749386;-4.510962963104248;19.411958694458008;63.20790481567383
113;1673426914.679328;47.130641999999995;7.2406206;18.20600128173828;1673426914.675313;-4.184164047241211;17.734291076660156;63.280948638916016
114;1673426914.9587867;47.130641999999995;7.2406206;18.60300064086914;1673426914.921436;-4.765069007873535;15.8251953125;63.61276626586914
115;1673426915.1331363;47.130642099999996;7.2406204999999995;18.9950008392334;1673426915.1287014;-4.898820400238037;18.452821731567383;63.337284088134766
116;1673426915.2996426;47.130642099999996;7.2406204999999995;19.380001068115234;1673426915.2947745;-3.925215244293213;19.02544403076172;63.292510986328125
117;1673426915.4890895;47.130642099999996;7.2406204999999995;19.769001007080078;1673426915.4861612;-4.450990200042725;16.174827575683594;63.377159118652344
118;1673426915.680182;47.130642099999996;7.2406204999999995;20.159000396728516;1673426915.676279;-4.898896217346191;17.594423294067383;63.419776916503906
119;1673426915.869845;47.130642099999996;7.2406204;20.546001434326172;1673426915.8668926;-4.326791286468506;19.179973602294922;63.12226867675781
120;1673426916.0583482;47.130642099999996;7.2406203;20.937000274658203;1673426916.0544446;-4.168409824371338;17.644657135009766;63.39299011230469
121;1673426916.2556114;47.1306422;7.2406201999999995;21.33300018310547;1673426916.252541;-4.883035659790039;15.977311134338379;63.62623596191406
122;1673426916.5049083;47.1306423;7.2406201;21.72800064086914;1673426916.500046;-4.780135154724121;19.500614166259766;63.246986389160156
123;1673426916.695115;47.1306424;7.24062;22.124000549316406;1673426916.6912105;-4.279423236846924;19.358381271362305;63.340118408203125
124;1673426916.9242675;47.1306423;7.24062;22.519001007080078;1673426916.9211833;-4.973016262054443;15.968647003173828;63.54506301879883
125;1673426917.1239767;47.1306423;7.2406201;22.911001205444336;1673426917.1210778;-5.15589714050293;18.017498016357422;63.46153259277344
126;1673426917.3266304;47.1306423;7.2406201;23.308000564575195;1673426917.323702;-3.9352402687072754;19.133676528930664;63.243045806884766
127;1673426917.5280826;47.1306423;7.2406201;23.709001541137695;1673426917.5241513;-4.060402870178223;16.861013412475586;63.494937896728516
128;1673426917.7114012;47.1306423;7.2406201;24.11400032043457;1673426917.7094493;-4.868445873260498;16.408166885375977;63.41179275512695
129;1673426917.8991053;47.1306424;7.24062;24.519001007080078;1673426917.8952036;-4.431747913360596;19.653146743774414;63.119441986083984
130;1673426918.0696192;47.1306425;7.24062;24.922000885009766;1673426918.0657222;-3.932529926300049;19.353010177612305;63.309810638427734
131;1673426918.2454598;47.1306425;7.2406201;25.32400131225586;1673426918.240589;-4.319035053253174;16.21630859375;63.40279006958008
132;1673426918.4409058;47.1306424;7.2406201;25.720001220703125;1673426918.433992;-4.743313312530518;18.6324405670166;63.351905822753906
133;1673426918.652879;47.1306424;7.2406201;26.121000289916992;1673426918.648;-4.16711950302124;19.349313735961914;63.21272659301758
134;1673426918.8520963;47.1306424;7.24062;26.5260009765625;1673426918.8491685;-4.465672969818115;16.902393341064453;63.45794677734375
135;1673426919.0561588;47.1306425;7.2406198999999996;26.934001922607422;1673426919.0532422;-4.907492637634277;17.108230590820312;63.469093322753906
136;1673426919.265885;47.1306425;7.2406198999999996;27.33700180053711;1673426919.2627945;-4.523766994476318;20.17774772644043;63.22947692871094
137;1673426919.467076;47.1306425;7.2406198999999996;27.737001419067383;1673426919.4631903;-3.9953513145446777;17.626256942749023;63.48507308959961
138;1673426919.6635199;47.1306424;7.2406198999999996;28.131000518798828;1673426919.659615;-4.806827545166016;16.267295837402344;63.48808670043945
139;1673426919.8599122;47.1306424;7.24062;28.529001235961914;1673426919.856837;-5.001536846160889;19.136205673217773;63.308746337890625
140;1673426920.0839705;47.1306423;7.24062;28.930002212524414;1673426920.0810432;-3.984015941619873;18.805078506469727;63.216552734375
141;1673426920.280026;47.1306423;7.2406198999999996;29.330001831054688;1673426920.2761257;-4.6237053871154785;16.662630081176758;63.453697204589844
142;1673426920.4671657;47.1306424;7.2406198999999996;29.72800064086914;1673426920.4642198;-4.830482006072998;17.236738204956055;63.42766189575195
143;1673426920.6643636;47.1306424;7.24062;30.12700080871582;1673426920.6594818;-4.403397083282471;20.15159034729004;63.1533203125
144;1673426920.866777;47.1306424;7.24062;30.525001525878906;1673426920.8638816;-4.1069769859313965;17.542387008666992;63.442413330078125
145;1673426921.0726519;47.1306424;7.24062;30.921001434326172;1673426921.0677822;-4.851290702819824;16.44423484802246;63.50674057006836
146;1673426921.2597752;47.1306424;7.2406201;31.322002410888672;1673426921.2568393;-4.515995025634766;19.731239318847656;63.25479507446289
147;1673426921.4504344;47.1306424;7.2406201;31.72500228881836;1673426921.446531;-3.9499518871307373;18.172529220581055;63.21660232543945
148;1673426921.6554286;47.1306424;7.24062;32.12700271606445;1673426921.6505482;-4.617734909057617;16.337825775146484;63.54668426513672
149;1673426921.8665106;47.1306425;7.2406198999999996;32.53300094604492;1673426921.8626204;-5.0529022216796875;18.3642635345459;63.29633712768555
150;1673426922.0610406;47.1306425;7.2406198999999996;32.9370002746582;1673426922.0569627;-4.284699440002441;19.842201232910156;63.216087341308594
151;1673426922.2596784;47.130642599999995;7.2406198999999996;33.3380012512207;1673426922.2567503;-4.3374457359313965;17.062658309936523;63.57937240600586
152;1673426922.4593582;47.130642599999995;7.2406198999999996;33.7400016784668;1673426922.4564304;-4.744297027587891;17.304847717285156;63.38555145263672
153;1673426922.664429;47.130642599999995;7.2406198999999996;34.14200210571289;1673426922.6615067;-4.399989604949951;20.25748634338379;63.25974655151367
154;1673426922.8924263;47.130642599999995;7.2406198999999996;34.54100036621094;1673426922.8894997;-4.264237403869629;18.147077560424805;63.39045715332031
155;1673426923.0845845;47.130642599999995;7.2406198999999996;34.94300079345703;1673426923.080683;-4.681341171264648;16.160852432250977;63.57084274291992
156;1673426923.3022153;47.130642699999996;7.2406198999999996;35.34300231933594;1673426923.2983115;-4.789825916290283;19.048194885253906;63.25373458862305
157;1673426923.4842136;47.130642699999996;7.2406198999999996;35.742000579833984;1673426923.4793186;-4.236659049987793;20.210359573364258;63.179012298583984
158;1673426923.6562216;47.1306428;7.2406198999999996;36.13600158691406;1673426923.6523068;-4.250976085662842;16.7310733795166;63.507205963134766
159;1673426923.8676624;47.1306428;7.2406198999999996;36.53300094604492;1673426923.8637578;-4.801226615905762;17.85403823852539;63.35551834106445
160;1673426924.0810223;47.130642699999996;7.2406198999999996;36.93100357055664;1673426924.0750217;-4.357904434204102;20.375167846679688;63.27190399169922
161;1673426924.2603781;47.130642699999996;7.2406198999999996;37.3280029296875;1673426924.2564728;-4.2258172035217285;17.694353103637695;63.40835952758789
162;1673426924.469928;47.130642599999995;7.2406198999999996;37.72500228881836;1673426924.467022;-4.897611618041992;16.398099899291992;63.48125076293945
163;1673426924.6728864;47.130642599999995;7.2406198999999996;38.12000274658203;1673426924.6699555;-4.6989850997924805;19.035057067871094;63.20119857788086
164;1673426924.872289;47.130642599999995;7.2406198999999996;38.509002685546875;1673426924.868385;-4.1969122886657715;19.480010986328125;63.25385284423828
165;1673426925.0634472;47.130642699999996;7.2406198999999996;38.90400314331055;1673426925.0585678;-4.379142761230469;16.140104293823242;63.654632568359375
166;1673426925.2500749;47.130642699999996;7.2406198999999996;39.30000305175781;1673426925.2471466;-4.808469295501709;18.121902465820312;63.43404006958008
167;1673426925.4477232;47.130642699999996;7.24062;39.69300079345703;1673426925.4423115;-4.190682411193848;20.122236251831055;63.273311614990234
168;1673426925.6647682;47.130642599999995;7.24062;40.08700180053711;1673426925.659884;-4.180599689483643;17.82670783996582;63.3572883605957
169;1673426925.8632665;47.130642599999995;7.24062;40.48400115966797;1673426925.8603482;-4.860130786895752;16.68369483947754;63.472679138183594
170;1673426926.059822;47.130642599999995;7.24062;40.88200378417969;1673426926.055905;-4.560500621795654;19.237205505371094;63.22319030761719
171;1673426926.2556531;47.130642599999995;7.24062;41.275001525878906;1673426926.2525444;-3.9521539211273193;19.082860946655273;63.28893280029297
172;1673426926.4727848;47.130642599999995;7.2406198999999996;41.67500305175781;1673426926.466799;-4.355295658111572;16.374319076538086;63.55375289916992
173;1673426926.673866;47.130642599999995;7.2406198999999996;42.070003509521484;1673426926.6689856;-4.832380771636963;18.340166091918945;63.24050521850586
174;1673426926.8844287;47.130642599999995;7.2406198999999996;42.4630012512207;1673426926.881544;-4.093841075897217;20.345014572143555;63.303009033203125
175;1673426927.0800674;47.1306425;7.2406198999999996;42.85400390625;1673426927.0761747;-4.368530750274658;16.745088577270508;63.487300872802734
176;1673426927.2882133;47.1306425;7.240619799999999;43.246002197265625;1673426927.2833161;-5.091922283172607;16.740211486816406;63.50504684448242
177;1673426927.477418;47.1306424;7.240619799999999;43.63600158691406;1673426927.473556;-4.819614410400391;19.181119918823242;63.25019073486328
178;1673426927.6721947;47.1306424;7.240619799999999;44.03300094604492;1673426927.6653683;-4.132150173187256;18.49198341369629;63.21157455444336
179;1673426927.8847284;47.1306424;7.240619799999999;44.435001373291016;1673426927.8808107;-4.657063961029053;16.38052749633789;63.51171112060547
180;1673426928.0760503;47.1306424;7.2406197;44.836002349853516;1673426928.0731204;-4.905858516693115;18.240209579467773;63.352420806884766
181;1673426928.280085;47.1306424;7.2406197;45.237003326416016;1673426928.2752068;-4.332655429840088;20.06409454345703;63.274208068847656
182;1673426928.4596932;47.1306424;7.240619799999999;45.6400032043457;1673426928.4567628;-4.430344104766846;16.522645950317383;63.40009307861328
183;1673426928.657145;47.1306424;7.240619799999999;46.04100036621094;1673426928.6522624;-5.093559741973877;17.298200607299805;63.41853332519531
184;1673426928.872381;47.1306424;7.240619799999999;46.435001373291016;1673426928.865566;-4.514847755432129;19.87036895751953;63.26911926269531
185;1673426929.0835683;47.1306424;7.240619799999999;46.83400344848633;1673426929.080639;-4.10080623626709;17.72574234008789;63.31466293334961
186;1673426929.2966135;47.1306424;7.240619799999999;47.23200225830078;1673426929.2907813;-4.7827301025390625;16.502580642700195;63.59992980957031
187;1673426929.4978828;47.1306425;7.240619799999999;47.62800216674805;1673426929.4929893;-4.693978309631348;18.769758224487305;63.27083969116211
188;1673426929.702177;47.1306425;7.240619799999999;48.02300262451172;1673426929.6972988;-3.921800374984741;19.73262596130371;63.25763702392578
189;1673426929.923974;47.1306425;7.240619799999999;48.371002197265625;1673426929.9197507;-4.858631134033203;17.330673217773438;63.55043411254883
190;1673426930.113217;47.1306425;7.240619799999999;48.66800308227539;1673426930.1102877;-4.908498287200928;18.376955032348633;63.61276626586914
191;1673426930.3039174;47.130642599999995;7.2406197;48.927001953125;1673426930.3000162;-4.153228282928467;19.58302116394043;63.40943145751953
192;1673426930.5251546;47.130642699999996;7.2406194;49.147003173828125;1673426930.5211954;-4.786981582641602;16.596036911010742;63.47698974609375
193;1673426930.712899;47.130643;7.240619199999999;49.33100128173828;1673426930.706077;-5.005717754364014;18.18220329284668;63.361392974853516
194;1673426930.9047227;47.1306431;7.2406188;49.487003326416016;1673426930.8998258;13.410537719726562;26.910432815551758;69.2609634399414
195;1673426931.0948858;47.1306424;7.2406169;49.62600326538086;1673426931.0909705;30.76078987121582;37.06069564819336;81.9415283203125
196;1673426931.2837553;47.13064;7.2406121;49.74100112915039;1673426931.2788944;38.79341125488281;44.73264694213867;91.18421936035156
197;1673426931.488159;47.1306355;7.2406030999999995;49.81700134277344;1673426931.4832833;36.36764144897461;49.966758728027344;97.93106842041016
198;1673426931.6755526;47.1306294;7.2405905;49.83400344848633;1673426931.6726139;20.105676651000977;47.30719757080078;106.98017120361328
199;1673426931.8817425;47.1306223;7.240575199999999;49.83700180053711;1673426931.8778381;6.827731609344482;50.1678581237793;117.9761962890625
200;1673426932.0822449;47.1306142;7.240557399999999;49.8390007019043;1673426932.0783417;-8.49079704284668;50.420108795166016;127.64990234375
201;1673426932.2938156;47.1306051;7.2405379;49.84100341796875;1673426932.2889426;-22.9269962310791;46.53413772583008;137.9302978515625
202;1673426932.4779978;47.1305948;7.240516899999999;49.84100341796875;1673426932.473117;-37.165306091308594;44.19108200073242;149.3997802734375
203;1673426932.674699;47.1305833;7.240494699999999;49.8380012512207;1673426932.6717882;-47.174713134765625;39.99186325073242;162.83526611328125
204;1673426932.8682456;47.1305706;7.2404709;49.807003021240234;1673426932.8633695;-48.025474548339844;28.04420280456543;175.15841674804688
205;1673426933.0646155;47.1305574;7.2404459999999995;49.743003845214844;1673426933.0597317;-44.19886016845703;20.34442901611328;-179.6253662109375
206;1673426933.2756157;47.1305437;7.2404208;49.65400314331055;1673426933.2697482;-38.843421936035156;12.952493667602539;-179.8896484375
207;1673426933.475293;47.1305303;7.2403963;49.52900314331055;1673426933.471388;-21.0667724609375;5.38004732131958;169.11302185058594
208;1673426933.6814115;47.1305178;7.2403732;49.38100051879883;1673426933.6774445;-16.495637893676758;5.231644153594971;156.0299530029297
209;1673426933.9002688;47.130506499999996;7.2403521;49.2650032043457;1673426933.8973343;-15.841512680053711;9.802400588989258;137.60983276367188
210;1673426934.1386566;47.1304964;7.2403333;49.27400207519531;1673426934.1337748;-25.781661987304688;29.426799774169922;122.50260162353516
211;1673426934.3180106;47.1304859;7.240316099999999;49.33100128173828;1673426934.3150828;-27.499610900878906;41.04825210571289;122.15238189697266
212;1673426934.5169458;47.130474299999996;7.2402997;49.423004150390625;1673426934.5120764;-30.24275016784668;43.30449295043945;128.394287109375
213;1673426934.705362;47.130461399999994;7.240283499999999;49.52400207519531;1673426934.7014668;-39.27384567260742;45.56611251831055;131.951904296875
214;1673426934.8931563;47.1304471;7.2402674;49.60600280761719;1673426934.889252;-42.159263610839844;41.95980453491211;136.85540771484375
215;1673426935.0817368;47.1304318;7.2402514;49.65800094604492;1673426935.075883;-41.34720230102539;32.328880310058594;138.86337280273438
216;1673426935.2830381;47.130415799999994;7.2402365;49.68600082397461;1673426935.2791364;-42.39712142944336;19.775819778442383;137.69830322265625
217;1673426935.4901574;47.1303998;7.2402237;49.704002380371094;1673426935.4872289;-44.40019226074219;-9.863868713378906;136.7916717529297
218;1673426935.6880825;47.1303852;7.2402152;49.71000289916992;1673426935.683204;-37.99851989746094;-26.4892635345459;129.31808471679688
219;1673426935.9047463;47.1303729;7.2402098;49.660003662109375;1673426935.8998477;-16.954004287719727;-14.851041793823242;124.7502670288086
220;1673426936.0932126;47.1303633;7.2402064;49.650001525878906;1673426936.0893135;-3.8342254161834717;-27.1107177734375;149.5453643798828
221;1673426936.3009682;47.130356899999995;7.2402052999999995;49.72300338745117;1673426936.2970622;6.488783836364746;-35.00978088378906;163.4673309326172
222;1673426936.4866474;47.130353299999996;7.2402061;49.80000305175781;1673426936.4837346;0.7076045274734497;-13.516032218933105;174.0746612548828
223;1673426936.7235076;47.1303512;7.2402067;49.880001068115234;1673426936.7196043;-32.332969665527344;27.30692481994629;176.3501739501953
224;1673426936.8882957;47.1303486;7.2402035;49.94300079345703;1673426936.8843923;-55.559024810791016;34.899044036865234;-175.01348876953125
225;1673426937.0844212;47.130344799999996;7.2401956;49.9530029296875;1673426937.0815136;-44.238765716552734;19.70268440246582;-156.34344482421875
226;1673426937.301089;47.130340399999994;7.2401838;49.96900177001953;1673426937.2960482;-44.9472541809082;13.285240173339844;-152.5148162841797
227;1673426937.5038383;47.130335099999996;7.240168799999999;49.999000549316406;1673426937.4989574;-52.23014450073242;4.571349620819092;-144.3138885498047
228;1673426937.7079208;47.1303286;7.2401509;50.0420036315918;1673426937.7030416;-55.55669403076172;-7.9514546394348145;-135.82501220703125
229;1673426937.9055324;47.1303202;7.2401307;50.0890007019043;1673426937.9026058;-57.41674041748047;-17.340545654296875;-133.2969512939453
230;1673426938.098144;47.1303099;7.2401092;50.108001708984375;1673426938.095217;-57.46623611450195;-18.94269371032715;-136.01602172851562
231;1673426938.301041;47.130297899999995;7.240087099999999;50.105003356933594;1673426938.2980866;-53.77238082885742;-16.39866828918457;-139.63230895996094
232;1673426938.4950855;47.130284499999995;7.2400648;50.08500289916992;1673426938.4901974;-51.26515197753906;-12.230252265930176;-149.27452087402344
233;1673426938.6882224;47.1302701;7.240043;50.047000885009766;1673426938.6852942;-49.223941802978516;-5.823122501373291;-159.42588806152344
234;1673426938.8929;47.1302551;7.240022;50.00300216674805;1673426938.8889906;-45.89577865600586;1.0554825067520142;-168.87229919433594
235;1673426939.0998657;47.1302397;7.2400017;49.96200180053711;1673426939.0949857;-44.72755432128906;7.82591438293457;-177.68893432617188
236;1673426939.2935395;47.130224299999995;7.2399822;49.932003021240234;1673426939.28865;-41.437984466552734;14.012650489807129;173.28125
237;1673426939.495924;47.1302088;7.2399632;49.897003173828125;1673426939.4920208;-38.40184783935547;19.322261810302734;164.27696228027344
238;1673426939.6882827;47.130193399999996;7.239944599999999;49.85300064086914;1673426939.6843712;-33.30062484741211;22.928438186645508;154.61524963378906
239;1673426939.8846707;47.1301783;7.2399267;49.81300354003906;1673426939.8798041;-28.23902702331543;24.50469207763672;144.73837280273438
240;1673426940.0940826;47.1301634;7.2399097;49.801002502441406;1673426940.0872512;-28.258899688720703;28.004831314086914;134.68959045410156
241;1673426940.2986019;47.1301486;7.2398937;49.81200408935547;1673426940.293723;-29.529699325561523;37.62220764160156;131.55972290039062
242;1673426940.4927354;47.130133699999995;7.2398783;49.820003509521484;1673426940.4888473;-29.36009979248047;32.341312408447266;148.2291259765625
243;1673426940.6930387;47.1301187;7.2398622999999995;49.85100173950195;1673426940.6871953;-42.31377029418945;27.42947769165039;168.56561279296875
244;1673426940.8889751;47.130103399999996;7.239845099999999;49.88800048828125;1673426940.885081;-53.94491195678711;19.60474395751953;-177.07623291015625
245;1673426941.0930128;47.1300874;7.2398264999999995;49.91200256347656;1673426941.087164;-52.88666915893555;15.371685028076172;-169.13345336914062
246;1673426941.3025055;47.130071099999995;7.239806499999999;49.91200256347656;1673426941.2985861;-48.1756706237793;14.029303550720215;-162.63319396972656
247;1673426941.5075665;47.1300551;7.239785299999999;49.89200210571289;1673426941.5036623;-42.16452407836914;11.458477973937988;-154.05014038085938
248;1673426941.6960711;47.1300397;7.239763;49.862003326416016;1673426941.6911907;-38.507240295410156;6.659158706665039;-144.29855346679688
249;1673426941.9312432;47.1300253;7.2397398;49.84300231933594;1673426941.9273398;-40.79607391357422;-0.6703140735626221;-136.4534912109375
250;1673426942.1157935;47.1300114;7.2397158;49.85400390625;1673426942.1128309;-44.734371185302734;-9.083028793334961;-132.5535430908203
251;1673426942.3156574;47.129997499999995;7.2396911;49.88800048828125;1673426942.3105547;-51.712100982666016;-15.190013885498047;-135.21588134765625
252;1673426942.5046144;47.1299828;7.239666199999999;49.91400146484375;1673426942.4977846;-52.217689514160156;-16.4227352142334;-138.9073944091797
253;1673426942.696743;47.1299674;7.2396416;49.926002502441406;1673426942.6928356;-48.25466537475586;-15.767485618591309;-140.64572143554688
254;1673426942.910368;47.1299515;7.2396176;49.935001373291016;1673426942.9064658;-46.794517517089844;-15.049158096313477;-141.3060302734375
255;1673426943.164294;47.1299353;7.239594299999999;49.945003509521484;1673426943.160263;-48.43428421020508;-10.074262619018555;-142.4274444580078
256;1673426943.3337777;47.1299189;7.239571;49.94400405883789;1673426943.3297162;-47.65091323852539;-13.887239456176758;-142.80166625976562
257;1673426943.532322;47.1299022;7.2395482;49.928001403808594;1673426943.5284245;-45.339447021484375;-9.686894416809082;-153.9629669189453
258;1673426943.7368772;47.1298855;7.2395263;49.910003662109375;1673426943.7329736;-43.050838470458984;-3.8955576419830322;-164.07083129882812
259;1673426943.9331334;47.1298688;7.2395055;49.89600372314453;1673426943.9302027;-44.34398651123047;5.53985595703125;-168.6910858154297
260;1673426944.1284046;47.129852199999995;7.2394848;49.87800216674805;1673426944.1254656;-42.85919189453125;4.335850238800049;-155.4399871826172
261;1673426944.3605149;47.1298362;7.239463799999999;49.85900115966797;1673426944.356611;-40.59933853149414;-1.8477555513381958;-141.4583282470703
262;1673426944.5253463;47.129820699999996;7.239442299999999;49.85700225830078;1673426944.5204768;-43.90633010864258;-7.774986743927002;-135.1480712890625
263;1673426944.730675;47.129805399999995;7.23942;49.884002685546875;1673426944.7267692;-48.55464553833008;-10.417608261108398;-137.5320281982422
264;1673426944.931574;47.12979;7.2393972;49.91400146484375;1673426944.9276702;-51.12141036987305;-10.356639862060547;-140.3922882080078
265;1673426945.1433659;47.1297742;7.2393738999999995;49.927001953125;1673426945.1403327;-49.40596389770508;-10.016847610473633;-140.76043701171875
266;1673426945.3352828;47.1297582;7.2393505;49.93700408935547;1673426945.3304033;-46.949398040771484;-11.393712997436523;-140.86912536621094
267;1673426945.5383894;47.1297419;7.239327299999999;49.94300079345703;1673426945.533507;-47.161434173583984;-13.573814392089844;-147.0513916015625
268;1673426945.7270103;47.1297254;7.239305099999999;49.939002990722656;1673426945.7231054;-45.06627655029297;-6.196274757385254;-159.0608367919922
269;1673426945.9202118;47.1297089;7.239283599999999;49.93400192260742;1673426945.9163077;-43.92486572265625;1.367856740951538;-168.52064514160156
270;1673426946.1359637;47.129692399999996;7.2392628;49.932003021240234;1673426946.132061;-44.358970642089844;11.17669677734375;-176.09893798828125
271;1673426946.4104567;47.129675899999995;7.2392422;49.932003021240234;1673426946.4085047;-45.00069046020508;14.759920120239258;-166.36746215820312
272;1673426946.5685668;47.1296597;7.2392208;49.93000411987305;1673426946.5646422;-44.08820343017578;8.508296966552734;-151.42881774902344
273;1673426946.7496557;47.1296441;7.239198399999999;49.92400360107422;1673426946.7477028;-43.45961380004883;2.1045081615448;-141.5146942138672
274;1673426946.9361525;47.129629099999995;7.2391751;49.92500305175781;1673426946.932248;-43.06068420410156;-6.516962051391602;-134.7774658203125
275;1673426947.1313386;47.1296144;7.239151199999999;49.94900131225586;1673426947.1274478;-50.156856536865234;-13.347753524780273;-136.68020629882812
276;1673426947.3290257;47.1295991;7.2391271999999995;49.967002868652344;1673426947.3259957;-50.622310638427734;-14.51047134399414;-148.3897705078125
277;1673426947.531389;47.1295832;7.239103999999999;49.965003967285156;1673426947.5284522;-46.2097282409668;-7.977802276611328;-160.76327514648438
278;1673426947.747856;47.129567099999996;7.239082;49.948001861572266;1673426947.7410235;-42.018341064453125;-2.1643354892730713;-169.59820556640625
279;1673426947.956639;47.1295511;7.2390614;49.92900085449219;1673426947.9527366;-39.2819709777832;3.5066184997558594;-178.46485900878906
280;1673426948.1386175;47.1295353;7.2390421;49.91800308227539;1673426948.13569;-39.873863220214844;9.289037704467773;172.71969604492188
281;1673426948.384306;47.129519699999996;7.2390241;49.9170036315918;1673426948.3803635;-38.55592346191406;16.620223999023438;162.56834411621094
282;1673426948.5586;47.1295042;7.2390067;49.927001953125;1673426948.556642;-39.00421142578125;27.785175323486328;154.64308166503906
283;1673426948.7463808;47.1294884;7.2389893;49.94000244140625;1673426948.7434342;-40.82466506958008;36.41275405883789;165.21444702148438
284;1673426948.9462502;47.1294726;7.2389705;49.94300079345703;1673426948.9393122;-42.02313995361328;25.972862243652344;-173.11753845214844
285;1673426949.1774015;47.1294573;7.2389499;49.94400405883789;1673426949.1754518;-42.36888885498047;25.65065574645996;-165.54763793945312
286;1673426949.421916;47.1294427;7.2389274;49.935001373291016;1673426949.4209404;-41.782684326171875;18.52143096923828;-156.38949584960938
287;1673426949.5728917;47.1294289;7.238903499999999;49.932003021240234;1673426949.5699687;-41.75617980957031;7.655992031097412;-147.62950134277344
288;1673426949.7377527;47.129415599999994;7.2388787;49.948001861572266;1673426949.7338486;-47.37679672241211;-3.075716733932495;-139.74403381347656
289;1673426949.9075706;47.129402;7.2388531;49.97600173950195;1673426949.9046595;-50.56503677368164;-17.800189971923828;-138.97872924804688
290;1673426950.100248;47.129387799999996;7.2388281999999995;49.980003356933594;1673426950.096334;-46.80504608154297;-13.505657196044922;-156.4272003173828
291;1673426950.2945998;47.129373;7.2388050999999995;49.96600341796875;1673426950.2897193;-41.888084411621094;-10.822267532348633;-167.71127319335938
292;1673426950.5368745;47.1293582;7.238784099999999;49.94200134277344;1673426950.5319946;-39.22523498535156;-8.63636302947998;-176.7984619140625
293;1673426950.8047926;47.1293435;7.2387657;49.919002532958984;1673426950.8038006;-39.229095458984375;-8.728368759155273;174.88453674316406
294;1673426951.0573866;47.1293291;7.2387502999999995;49.90500259399414;1673426951.0564077;-38.34278106689453;-10.293072700500488;165.20477294921875
295;1673426951.22215;47.129315299999995;7.238737899999999;49.89800262451172;1673426951.2192292;-42.72963333129883;-11.741073608398438;157.90525817871094
296;1673426951.391126;47.129301999999996;7.2387292;49.90300369262695;1673426951.3881972;-42.47166061401367;-10.440088272094727;147.18881225585938
297;1673426951.5654025;47.129289299999996;7.2387239;49.913002014160156;1673426951.5624754;-45.644046783447266;0.18597665429115295;143.96824645996094
298;1673426951.7453074;47.1292769;7.238721399999999;49.94400405883789;1673426951.7443306;-46.98981475830078;-8.412846565246582;158.33657836914062
299;1673426951.9395661;47.129264299999996;7.238721399999999;50.005001068115234;1673426951.9346821;-42.788291931152344;-19.80908203125;171.7919921875
300;1673426952.139746;47.129252;7.238723299999999;50.066001892089844;1673426952.1358035;-21.744850158691406;-21.8818416595459;-178.9020538330078
301;1673426952.3358269;47.1292408;7.2387258999999995;50.10000228881836;1673426952.3309505;-1.8233513832092285;-8.348880767822266;-168.74241638183594
302;1673426952.5472503;47.1292317;7.2387277999999995;50.10300064086914;1673426952.5443223;6.874261856079102;24.006418228149414;-158.19537353515625
303;1673426952.780776;47.129225299999995;7.2387274999999995;50.02100372314453;1673426952.7768598;-1.639485239982605;30.94222640991211;-149.27029418945312
304;1673426953.0340703;47.129221699999995;7.2387239999999995;49.927001953125;1673426953.029197;-16.027416229248047;27.004451751708984;-143.36317443847656
305;1673426953.2088673;47.129219899999995;7.238717599999999;49.85300064086914;1673426953.2030115;-23.416011810302734;22.989307403564453;-132.8246612548828
306;1673426953.384478;47.1292196;7.238708399999999;49.79300308227539;1673426953.3815522;-26.378084182739258;14.803522109985352;-122.24789428710938
307;1673426953.572555;47.1292204;7.2386968;49.75100326538086;1673426953.5696635;-22.25452995300293;6.337821960449219;-118.9694595336914
308;1673426953.7668254;47.1292219;7.2386833;49.74700164794922;1673426953.7629197;-26.298280715942383;6.100305557250977;-126.15814971923828
309;1673426953.9482124;47.129223599999996;7.2386678;49.79500198364258;1673426953.944307;-40.12181091308594;6.293368339538574;-133.3131103515625
310;1673426954.1283314;47.1292245;7.238649799999999;49.84800338745117;1673426954.1254041;-43.84962844848633;2.0917611122131348;-137.5199737548828
311;1673426954.3376672;47.129224099999995;7.2386301;49.89600372314453;1673426954.3337634;-45.5207633972168;-2.2157247066497803;-143.8386993408203
312;1673426954.5496492;47.1292219;7.2386095;49.95600128173828;1673426954.5467243;-48.10553741455078;-7.7762579917907715;-152.37071228027344
313;1673426954.7543712;47.1292177;7.2385895;50.022003173828125;1673426954.7504647;-40.842655181884766;-17.27092742919922;-165.07774353027344
314;1673426954.9407785;47.1292121;7.2385722999999995;50.07100296020508;1673426954.936875;-32.16110610961914;-39.36151123046875;-173.3806610107422
315;1673426955.1278956;47.129205999999996;7.23856;50.090003967285156;1673426955.1239688;-32.215179443359375;-48.178321838378906;176.2242889404297
316;1673426955.3183913;47.1292003;7.2385528;50.06100082397461;1673426955.3144927;-24.313804626464844;-30.63616371154785;162.64344787597656
317;1673426955.5286822;47.129195499999994;7.2385497999999995;50.05000305175781;1673426955.5227273;-30.735733032226562;-32.59840393066406;160.06317138671875
318;1673426955.720107;47.129191399999996;7.2385506;50.05500411987305;1673426955.7161882;-43.87882995605469;-28.05675506591797;148.963623046875
319;1673426955.9167554;47.129187699999996;7.2385554;50.08700180053711;1673426955.9128788;-44.93008041381836;-13.840410232543945;137.61805725097656
320;1673426956.1285057;47.129184099999996;7.2385630999999995;50.12300109863281;1673426956.1246178;-39.48493194580078;-4.378142833709717;129.6857452392578
321;1673426956.3299758;47.1291807;7.2385722999999995;50.15200424194336;1673426956.3250616;-34.48461151123047;3.461364984512329;127.81134033203125
322;1673426956.5221274;47.1291775;7.2385817999999995;50.1670036315918;1673426956.5191984;-29.553659439086914;3.1452255249023438;141.99127197265625
323;1673426956.727332;47.1291742;7.238590899999999;50.17400360107422;1673426956.7234297;-24.0894832611084;7.489778518676758;156.01974487304688
324;1673426956.939846;47.1291709;7.2385983;50.176002502441406;1673426956.9339721;-19.5766658782959;22.265670776367188;166.05242919921875
325;1673426957.1382089;47.129167599999995;7.2386025;50.17000198364258;1673426957.1333282;-20.57038688659668;35.81686782836914;175.31842041015625
326;1673426957.4288342;47.1291644;7.2386025;50.156002044677734;1673426957.4268723;-25.662649154663086;26.068191528320312;-174.4166717529297
327;1673426957.5790775;47.1291611;7.2385985999999995;50.15200424194336;1673426957.5761485;-29.91412353515625;16.05327606201172;-165.77639770507812
328;1673426957.763529;47.1291577;7.238592499999999;50.15700149536133;1673426957.7606008;-21.60645294189453;-2.918710708618164;-155.38169860839844
329;1673426957.964032;47.129154299999996;7.2385858;50.1670036315918;1673426957.9611223;-8.677084922790527;-13.964773178100586;-147.97242736816406
330;1673426958.1533427;47.1291513;7.2385793;50.18400192260742;1673426958.149431;-9.917709350585938;-15.133780479431152;-138.91943359375
331;1673426958.3560266;47.1291483;7.2385728;50.27300262451172;1673426958.352121;-29.122804641723633;-15.937864303588867;-131.10797119140625
332;1673426958.5418196;47.1291444;7.2385649;50.44000244140625;1673426958.5379205;-42.48466873168945;-21.684953689575195;-130.23316955566406
333;1673426958.7297056;47.1291389;7.238555099999999;50.67100143432617;1673426958.7277415;-33.00138854980469;-10.625508308410645;-137.64027404785156
334;1673426958.9404056;47.129132999999996;7.238544399999999;50.983001708984375;1673426958.9355423;-19.70238494873047;-4.714008331298828;-137.90623474121094
335;1673426959.1330383;47.129126899999996;7.238532999999999;51.35700225830078;1673426959.130096;-36.62431716918945;-22.94415855407715;-135.74830627441406
336;1673426959.343862;47.129119499999995;7.2385212999999995;51.75400161743164;1673426959.3399568;-44.29001998901367;-22.554519653320312;-137.9012451171875
337;1673426959.5533614;47.1291106;7.238509199999999;52.13600158691406;1673426959.5494587;-39.179420471191406;-20.843616485595703;-138.84646606445312
338;1673426959.7534099;47.129100699999995;7.2384968;52.52000427246094;1673426959.7484891;-37.073116302490234;-18.175662994384766;-138.7796173095703
339;1673426959.9532194;47.1290901;7.2384843;52.89800262451172;1673426959.9473624;-34.10775375366211;-16.30860137939453;-138.0536346435547
340;1673426960.1614947;47.1290793;7.2384714;53.27400207519531;1673426960.1584694;-32.59951400756836;-14.713298797607422;-137.42025756835938
341;1673426960.3531094;47.1290684;7.2384583;53.656002044677734;1673426960.3501809;-30.41496467590332;-13.596962928771973;-137.0045623779297
342;1673426960.562198;47.1290577;7.238444899999999;54.0410041809082;1673426960.5425394;-29.03127098083496;-12.971579551696777;-136.7469024658203
343;1673426960.7557116;47.1290471;7.2384314;54.428001403808594;1673426960.7518253;-28.151052474975586;-12.832819938659668;-136.6460723876953
344;1673426960.955962;47.129036899999996;7.2384178;54.81700134277344;1673426960.9530337;-27.814998626708984;-13.132682800292969;-136.62745666503906
345;1673426961.1509695;47.1290269;7.2384040999999995;55.20600128173828;1673426961.1460788;-27.928321838378906;-13.763015747070312;-136.63710021972656
346;1673426961.3532615;47.1290173;7.2383904999999995;55.592002868652344;1673426961.3474066;-28.754241943359375;-14.46153450012207;-136.62307739257812
347;1673426961.552134;47.129007699999995;7.2383769;55.98200225830078;1673426961.5462818;-29.038482666015625;-15.020242691040039;-136.70050048828125
348;1673426961.761302;47.1289981;7.2383633;56.375003814697266;1673426961.7564366;-29.627893447875977;-15.503270149230957;-136.7286376953125
349;1673426961.9850183;47.1289886;7.2383497;56.772003173828125;1673426961.9809263;-30.166156768798828;-15.79214096069336;-136.7910919189453
350;1673426962.2250128;47.128979;7.2383362;57.17000198364258;1673426962.2230597;-30.52165412902832;-15.857099533081055;-136.86370849609375
351;1673426962.4023623;47.128969399999995;7.238322699999999;57.56900405883789;1673426962.3994355;-30.803653717041016;-15.877806663513184;-136.91392517089844
352;1673426962.567086;47.128959699999996;7.2383090999999995;57.970001220703125;1673426962.5622072;-30.87754249572754;-15.803006172180176;-136.94290161132812
353;1673426962.7434025;47.128949999999996;7.2382957;58.368003845214844;1673426962.7394996;-31.058801651000977;-15.414628028869629;-136.9722442626953
354;1673426962.9452999;47.1289401;7.238282099999999;58.77000427246094;1673426962.9413962;-30.816753387451172;-15.559989929199219;-136.97158813476562
355;1673426963.1405146;47.1289303;7.238268499999999;59.16800308227539;1673426963.135633;-30.54401969909668;-15.422110557556152;-137.00758361816406
356;1673426963.3400059;47.1289204;7.2382548;59.566001892089844;1673426963.3339202;-30.3847599029541;-15.467592239379883;-136.9282989501953
357;1673426963.5570738;47.128910499999996;7.2382412;59.9630012512207;1673426963.553169;-30.360376358032227;-15.392353057861328;-136.9659881591797
358;1673426963.74359;47.128900599999994;7.2382276;60.358001708984375;1673426963.739687;-30.1637020111084;-15.509072303771973;-136.9327850341797
359;1673426963.9380224;47.1288908;7.2382140999999995;60.75300216674805;1673426963.9341238;-30.38298225402832;-15.25590991973877;-136.93817138671875
360;1673426964.1430647;47.128881;7.2382005;61.15400314331055;1673426964.1380055;-30.334457397460938;-15.366659164428711;-136.94143676757812
361;1673426964.3814428;47.1288711;7.238187;61.55600357055664;1673426964.3775406;-30.2587947845459;-15.360428810119629;-136.9114532470703
362;1673426964.5736103;47.1288613;7.2381734;61.95500183105469;1673426964.5705898;-30.40880012512207;-15.575983047485352;-136.89646911621094
363;1673426964.7592967;47.128851499999996;7.2381598;62.35200119018555;1673426964.7544382;-30.386051177978516;-15.568283081054688;-136.94711303710938
364;1673426964.952737;47.128841699999995;7.2381462;62.74900436401367;1673426964.9498065;-30.4193172454834;-15.67221450805664;-136.91586303710938
365;1673426965.137128;47.128831899999994;7.2381326999999995;63.1410026550293;1673426965.1322536;-30.350339889526367;-15.606093406677246;-136.97061157226562
366;1673426965.3426409;47.1288221;7.2381192;63.526004791259766;1673426965.339713;-30.528907775878906;-15.386581420898438;-136.94923400878906
367;1673426965.549608;47.1288122;7.238105699999999;63.913002014160156;1673426965.5457182;-30.589731216430664;-15.518771171569824;-136.93695068359375
368;1673426965.75194;47.1288024;7.2380922;64.30000305175781;1673426965.747059;-30.443025588989258;-15.510552406311035;-136.9609375
369;1673426965.9502635;47.128792499999996;7.2380786;64.68800354003906;1673426965.9463613;-30.443893432617188;-15.522918701171875;-136.97544860839844
370;1673426966.1343415;47.1287826;7.2380651;65.07400512695312;1673426966.1314144;-30.478931427001953;-15.4913330078125;-136.95419311523438
371;1673426966.3279002;47.1287728;7.2380515999999995;65.46400451660156;1673426966.3239803;-30.473413467407227;-15.580049514770508;-136.9374542236328
372;1673426966.5840993;47.1287629;7.2380381;65.85400390625;1673426966.5801973;-30.513534545898438;-15.324039459228516;-136.9685821533203
373;1673426966.7776706;47.128752999999996;7.238024599999999;66.24600219726562;1673426966.7727926;-30.567062377929688;-15.448319435119629;-136.9145965576172
374;1673426967.009831;47.1287431;7.238010999999999;66.63800048828125;1673426967.005929;-30.41313362121582;-15.34001350402832;-136.96273803710938
375;1673426967.191974;47.1287332;7.2379975;67.0300064086914;1673426967.189046;-30.437711715698242;-15.402764320373535;-136.93313598632812
376;1673426967.3681087;47.1287234;7.237984;67.42200469970703;1673426967.3632283;-30.548709869384766;-15.50448226928711;-136.9224395751953
377;1673426967.557963;47.128713499999996;7.2379704;67.81900024414062;1673426967.5521078;-30.551889419555664;-15.479735374450684;-136.931640625
378;1673426967.7486284;47.128703599999994;7.2379568;68.21200561523438;1673426967.7447252;-30.480266571044922;-15.465967178344727;-136.94212341308594
379;1673426967.9548702;47.1286937;7.2379432999999995;68.6050033569336;1673426967.9509783;-30.468799591064453;-15.321443557739258;-136.94967651367188
380;1673426968.157394;47.1286838;7.2379298;68.9990005493164;1673426968.150574;-30.442861557006836;-15.376187324523926;-136.92083740234375
381;1673426968.359137;47.1286738;7.2379162;69.39100646972656;1673426968.3542707;-30.57779884338379;-15.340849876403809;-136.952880859375
382;1673426968.5663848;47.1286639;7.2379026;69.78400421142578;1673426968.562482;-30.551584243774414;-15.38703441619873;-136.92868041992188
383;1673426968.7594924;47.128653899999996;7.237889;70.1780014038086;1673426968.7555888;-30.4307861328125;-15.424337387084961;-136.9174346923828
384;1673426968.963826;47.128644;7.2378754999999995;70.57400512695312;1673426968.957971;-30.517324447631836;-15.400053977966309;-136.94253540039062
385;1673426969.1464117;47.1286341;7.237862;70.96800231933594;1673426969.142356;-30.59039306640625;-15.391342163085938;-136.93226623535156
386;1673426969.325151;47.1286242;7.2378484;71.36100006103516;1673426969.3212447;-30.580286026000977;-15.376124382019043;-136.93238830566406
387;1673426969.5459368;47.128614299999995;7.2378348;71.75100708007812;1673426969.541059;-30.556974411010742;-15.378783226013184;-136.9258270263672
388;1673426969.7460625;47.1286043;7.237821299999999;72.14200592041016;1673426969.742166;-30.56366729736328;-15.377524375915527;-136.8924560546875
389;1673426969.9535582;47.128594299999996;7.237807699999999;72.53600311279297;1673426969.9494643;-30.49965476989746;-15.349023818969727;-136.9495391845703
390;1673426970.1503737;47.1285844;7.2377942;72.93000030517578;1673426970.145504;-30.52225685119629;-15.298397064208984;-136.9351043701172
391;1673426970.3436553;47.1285744;7.2377806;73.32300567626953;1673426970.3387847;-30.479738235473633;-15.366434097290039;-136.90965270996094
392;1673426970.5414808;47.128564499999996;7.237767099999999;73.71800231933594;1673426970.5376027;-30.606956481933594;-15.206945419311523;-136.9236602783203
393;1673426970.7519352;47.1285545;7.237753499999999;74.11300659179688;1673426970.7470567;-30.536195755004883;-15.428641319274902;-136.8802490234375
394;1673426970.9345107;47.1285445;7.237739899999999;74.51000213623047;1673426970.9316285;-30.40226936340332;-15.297552108764648;-136.9000244140625
395;1673426971.1309178;47.1285345;7.2377264;74.90800476074219;1673426971.1278753;-30.56271743774414;-15.304376602172852;-136.89804077148438
396;1673426971.3551874;47.1285246;7.2377128;75.3030014038086;1673426971.352261;-30.45304298400879;-15.218348503112793;-136.8822479248047
397;1673426971.5487292;47.128514599999995;7.2376992;75.69900512695312;1673426971.5428727;-30.490863800048828;-15.19516372680664;-136.89288330078125
398;1673426971.7563465;47.1285046;7.2376856;76.09800720214844;1673426971.7524645;-30.46521759033203;-15.337057113647461;-136.85992431640625
399;1673426971.9510093;47.1284947;7.237672;76.49500274658203;1673426971.9471068;-30.428422927856445;-15.240668296813965;-136.90213012695312
400;1673426972.1570644;47.1284847;7.237658499999999;76.89000701904297;1673426972.1521864;-30.376277923583984;-15.168825149536133;-136.8763427734375
401;1673426972.360783;47.1284747;7.2376448;77.28500366210938;1673426972.354927;-30.370756149291992;-15.208443641662598;-136.8744659423828
402;1673426972.5526738;47.128464699999995;7.2376312;77.6820068359375;1673426972.5487697;-30.313251495361328;-15.093334197998047;-136.89199829101562
403;1673426972.7571285;47.1284548;7.2376176999999995;78.08100128173828;1673426972.7532248;-30.413482666015625;-15.177205085754395;-136.86749267578125
404;1673426972.959025;47.1284448;7.2376040999999995;78.4800033569336;1673426972.9541469;-30.367149353027344;-15.148890495300293;-136.8779754638672
405;1673426973.192366;47.128434899999995;7.237590399999999;78.88200378417969;1673426973.1874883;-30.519790649414062;-15.339263916015625;-136.82057189941406
406;1673426973.3998523;47.128425;7.237576799999999;79.28500366210938;1673426973.3900928;-30.468345642089844;-15.289052963256836;-136.87042236328125
407;1673426973.60752;47.1284151;7.2375633;79.68600463867188;1673426973.604433;-30.462026596069336;-15.15000057220459;-136.87814331054688
408;1673426973.7840698;47.128405099999995;7.2375495999999995;80.08500671386719;1673426973.7792046;-30.354677200317383;-15.15412425994873;-136.8675994873047
409;1673426973.9729702;47.1283951;7.2375361;80.48200225830078;1673426973.971016;-30.416282653808594;-15.132686614990234;-136.85415649414062
410;1673426974.1586123;47.1283852;7.2375224;80.8800048828125;1673426974.1537485;-30.393875122070312;-15.16572093963623;-136.85252380371094
411;1673426974.3512514;47.128375299999995;7.2375088;81.2800064086914;1673426974.3453934;-30.476028442382812;-15.2490816116333;-136.83657836914062
412;1673426974.5452905;47.1283654;7.237495099999999;81.6780014038086;1673426974.5404115;-30.491527557373047;-15.349952697753906;-136.83912658691406
413;1673426974.7430272;47.1283555;7.2374814;82.07400512695312;1673426974.7401052;-30.442411422729492;-15.27889633178711;-136.87509155273438
414;1673426974.9463704;47.128345499999995;7.237467799999999;82.46800231933594;1673426974.9424665;-30.412063598632812;-15.273616790771484;-136.8672637939453
415;1673426975.1596007;47.1283355;7.2374541;82.86400604248047;1673426975.154721;-30.31528091430664;-15.205082893371582;-136.86636352539062
416;1673426975.357086;47.1283256;7.2374404;83.25800323486328;1673426975.3522062;-30.282474517822266;-15.259200096130371;-136.84939575195312
