;pos_time;latitude;longitude;altitude;alt_time;pitch;roll;yaw
0;1673305082.0611274;47.1306413;7.2406188;-0.023000001907348633;1673305082.2124796;0.6716222763061523;13.900792121887207;93.44951629638672
1;1673305082.249042;47.1306412;7.2406188;-0.030000001192092896;1673305082.4177482;0.7042959928512573;14.096632957458496;93.55131530761719
2;1673305082.4542155;47.1306412;7.2406188;-0.039000000804662704;1673305082.6253;0.9380996227264404;13.680066108703613;93.65808868408203
3;1673305082.6602354;47.1306412;7.2406187;-0.04800000041723251;1673305082.8131626;0.6746986508369446;13.983489990234375;93.38487243652344
4;1673305082.8551672;47.1306412;7.2406187;-0.058000002056360245;1673305083.1051793;0.790012776851654;13.651877403259277;93.62638854980469
5;1673305083.141301;47.1306412;7.2406187;-0.06599999964237213;1673305083.3032203;0.8699578642845154;13.868797302246094;93.33563995361328
6;1673305083.3402073;47.130641;7.2406187;-0.07300000637769699;1673305083.4922676;0.9228082299232483;13.709360122680664;93.37677764892578
7;1673305083.52627;47.130641;7.2406185;-0.08300000429153442;1673305083.6950204;0.97926926612854;13.295233726501465;93.06071472167969
8;1673305083.7364004;47.1306411;7.2406185;-0.0820000022649765;1673305083.9224238;0.9633999466896057;13.115129470825195;93.01901245117188
9;1673305083.9629786;47.1306411;7.2406184;-0.08300000429153442;1673305084.1451325;0.5792862772941589;13.390519142150879;92.85235595703125
10;1673305084.1912518;47.1306412;7.2406185;-0.08300000429153442;1673305084.342124;0.8572202324867249;13.362837791442871;92.7846908569336
11;1673305084.3879228;47.1306413;7.2406185999999995;-0.08400000631809235;1673305084.6147344;0.7669771313667297;13.243950843811035;92.66451263427734
12;1673305084.6960475;47.130641399999995;7.2406187;-0.08300000429153442;1673305084.8167527;0.47545745968818665;12.667837142944336;92.93755340576172
13;1673305084.844056;47.1306413;7.2406187;-0.08300000429153442;1673305084.965048;0.6914752125740051;12.198044776916504;92.59403228759766
14;1673305084.9939857;47.1306413;7.2406187;0.0;1673305085.1380792;0.7868342995643616;11.865163803100586;92.43546295166016
15;1673305085.1690278;47.1306413;7.2406185999999995;0.0;1673305085.3743112;0.653019905090332;11.761773109436035;92.4149398803711
16;1673305085.4163642;47.130641399999995;7.2406185999999995;0.0020000000949949026;1673305085.6069443;0.8427484631538391;11.607930183410645;91.93836975097656
17;1673305085.6563225;47.1306416;7.2406187;0.006000000052154064;1673305085.7922463;0.7165964245796204;11.921992301940918;91.934326171875
18;1673305085.8230255;47.1306417;7.2406187;0.012000000104308128;1673305085.9890046;0.4684178829193115;11.385074615478516;91.41422271728516
19;1673305086.023297;47.1306418;7.2406187;0.015000000596046448;1673305086.2146633;0.439916729927063;10.462411880493164;91.06548309326172
20;1673305086.2382061;47.1306419;7.240618899999999;0.014000000432133675;1673305086.36734;0.20205874741077423;9.222640037536621;90.64159393310547
21;1673305086.4019215;47.130641999999995;7.240619;0.017000000923871994;1673305086.545787;-0.39991337060928345;7.670947551727295;89.68141174316406
22;1673305086.5841203;47.1306422;7.2406191;0.021000001579523087;1673305086.746946;-0.5072138905525208;5.299509525299072;89.40249633789062
23;1673305086.7810414;47.1306425;7.240619199999999;0.02800000086426735;1673305086.9460173;-1.3032453060150146;1.8631056547164917;89.44694519042969
24;1673305086.9850266;47.1306429;7.2406193;0.03800000250339508;1673305087.1475286;-0.26163506507873535;-0.3847412168979645;92.79331970214844
25;1673305087.1829772;47.130643199999994;7.2406196;0.06100000441074371;1673305087.3259184;2.9444925785064697;1.8117101192474365;92.8158950805664
26;1673305087.3602211;47.1306441;7.2406203;0.11600000411272049;1673305087.513098;3.617258071899414;3.3921937942504883;92.1186752319336
27;1673305087.5499089;47.1306444;7.2406212;0.2110000103712082;1673305087.72891;5.064307689666748;4.706223964691162;91.40492248535156
28;1673305087.7660887;47.1306443;7.2406222;0.34200000762939453;1673305087.9259517;5.974152088165283;5.939985275268555;90.95240783691406
29;1673305087.9577878;47.1306438;7.240623299999999;0.5080000162124634;1673305088.1205459;6.954042911529541;6.008175849914551;90.56473541259766
30;1673305088.1629405;47.1306428;7.2406242;0.7120000123977661;1673305088.3240535;8.043827056884766;5.353163719177246;90.28311157226562
31;1673305088.3637607;47.1306416;7.240624899999999;0.9530000686645508;1673305088.5210195;8.604443550109863;5.724804878234863;90.04088592529297
32;1673305088.561099;47.1306412;7.2406253;1.2350000143051147;1673305088.725865;8.376620292663574;6.595057964324951;89.81829071044922
33;1673305088.7628653;47.130639699999996;7.2406253;1.5520000457763672;1673305088.9369256;10.024380683898926;3.7799196243286133;88.40550231933594
34;1673305088.9722588;47.130637799999995;7.240624899999999;1.912000060081482;1673305089.1297915;10.837068557739258;0.601401686668396;87.23133850097656
35;1673305089.165871;47.1306357;7.2406239;2.3030002117156982;1673305089.321859;6.8059821128845215;-4.320376396179199;85.5004653930664
36;1673305089.3580344;47.130633599999996;7.2406226;2.704000234603882;1673305089.5239744;3.6988861560821533;-7.635436534881592;84.03553009033203
37;1673305089.5678546;47.1306319;7.2406212;3.123000144958496;1673305089.7429702;1.398010492324829;-6.471752643585205;82.8564224243164
38;1673305089.779843;47.1306307;7.24062;3.5480000972747803;1673305089.9564018;0.8611770868301392;-5.317814350128174;84.06462097167969
39;1673305089.9968286;47.1306309;7.2406191;3.9640002250671387;1673305090.1497457;2.593482732772827;-1.4318337440490723;91.13465118408203
40;1673305090.1829772;47.130631199999996;7.2406187;4.394999980926514;1673305090.3437905;3.0571446418762207;-2.9785590171813965;94.14779663085938
41;1673305090.3810165;47.1306316;7.2406188;4.822000026702881;1673305090.558822;4.246159553527832;-2.20351505279541;93.6745376586914
42;1673305090.592866;47.1306322;7.240619199999999;5.244000434875488;1673305090.7528582;4.8834028244018555;-2.216353416442871;92.8862075805664
43;1673305090.7887788;47.130632999999996;7.2406197;5.6650004386901855;1673305090.9750853;4.886534690856934;-0.6997982263565063;92.78257751464844
44;1673305091.0609245;47.130634;7.2406201;6.081000328063965;1673305091.2019782;4.901027679443359;2.9037232398986816;92.75132751464844
45;1673305091.2356873;47.130635399999996;7.2406201999999995;6.487000465393066;1673305091.3656988;4.694674968719482;5.4900383949279785;92.37284088134766
46;1673305091.3996682;47.1306363;7.2406201;6.891000270843506;1673305091.5557287;4.6876091957092285;5.842252731323242;92.15692901611328
47;1673305091.5957375;47.1306371;7.240619799999999;7.2920002937316895;1673305091.7457948;4.8047895431518555;5.457765579223633;92.42110443115234
48;1673305091.7840776;47.1306377;7.2406193;7.693000316619873;1673305091.9408197;4.078593730926514;5.062149524688721;92.77169799804688
49;1673305091.979609;47.1306382;7.2406188;8.0910005569458;1673305092.1419175;3.1456403732299805;4.0002522468566895;92.76829528808594
50;1673305092.1967115;47.1306387;7.2406182999999995;8.48900032043457;1673305092.3451796;2.2884886264801025;2.741941213607788;92.81153869628906
51;1673305092.3809829;47.130639099999996;7.2406179999999996;8.88800048828125;1673305092.528647;2.2564148902893066;2.920597791671753;92.95777130126953
52;1673305092.5617754;47.130639599999995;7.2406178;9.284000396728516;1673305092.7119024;2.3042173385620117;2.6426851749420166;93.13487243652344
53;1673305092.7471535;47.130639599999995;7.240617599999999;9.682000160217285;1673305092.9108891;1.9875191450119019;1.0940457582473755;92.99129486083984
54;1673305092.948895;47.1306394;7.240617299999999;10.083000183105469;1673305093.1136951;2.233664035797119;0.7771853804588318;92.92317199707031
55;1673305093.151737;47.130638999999995;7.240616999999999;10.483000755310059;1673305093.3146925;2.7309813499450684;0.9706382155418396;93.06334686279297
56;1673305093.3537676;47.1306386;7.2406168;10.883000373840332;1673305093.5287418;2.8213717937469482;1.3482874631881714;93.09233093261719
57;1673305093.571862;47.1306381;7.2406166999999995;11.28600025177002;1673305093.7365923;3.504279851913452;2.0687060356140137;92.95565032958984
58;1673305093.7787013;47.1306383;7.2406168;11.6850004196167;1673305093.9375708;3.5644052028656006;3.9986085891723633;93.4183349609375
59;1673305093.9737403;47.130638;7.2406166999999995;12.09000015258789;1673305094.1459186;3.4353103637695312;3.2746927738189697;93.35777282714844
60;1673305094.183702;47.1306376;7.2406165;12.50100040435791;1673305094.3489158;3.0683271884918213;1.8392897844314575;92.85722351074219
61;1673305094.3885496;47.1306371;7.2406163;12.920001029968262;1673305094.5410602;3.0491151809692383;0.7894556522369385;92.87185668945312
62;1673305094.5791435;47.1306365;7.240615999999999;13.340001106262207;1673305094.754956;2.840665340423584;-0.7473013401031494;92.83112335205078
63;1673305094.8281696;47.130635899999994;7.240615699999999;13.759000778198242;1673305094.9856174;2.9571311473846436;-1.708624005317688;92.77963256835938
64;1673305095.0228176;47.1306355;7.240615399999999;14.178000450134277;1673305095.1589577;3.5857560634613037;-0.8979597091674805;92.87317657470703
65;1673305095.186285;47.130635899999994;7.2406155;14.5910005569458;1673305095.3460426;3.8253331184387207;-0.4990066587924957;92.66972351074219
66;1673305095.3930447;47.1306355;7.2406153;15.015000343322754;1673305095.5652153;3.400919198989868;-1.779435157775879;92.5322036743164
67;1673305095.6023023;47.130634699999995;7.2406147999999995;15.442000389099121;1673305095.757078;2.9310765266418457;-2.5091803073883057;92.39092254638672
68;1673305095.7941632;47.1306338;7.2406143;15.86500072479248;1673305095.9422016;2.363825559616089;-2.863985538482666;92.60587310791016
69;1673305095.979553;47.130632899999995;7.240613799999999;16.290000915527344;1673305096.145474;2.156740427017212;-2.861854076385498;92.8796157836914
70;1673305096.1886396;47.130632;7.2406133;16.7189998626709;1673305096.3699071;2.658106803894043;-0.7636591196060181;92.66405487060547
71;1673305096.4032426;47.130632399999996;7.2406136;17.13800048828125;1673305096.5621765;2.9789540767669678;1.069321632385254;92.89752197265625
72;1673305096.594105;47.1306319;7.2406133;17.569000244140625;1673305096.7777123;2.3806183338165283;0.16318610310554504;93.0669937133789
73;1673305096.808942;47.1306308;7.2406127;18.0;1673305096.9671428;2.8065402507781982;1.8557740449905396;92.80079650878906
74;1673305097.0042288;47.1306313;7.2406128999999995;18.440000534057617;1673305097.1625953;4.249124050140381;5.964747905731201;92.84368133544922
75;1673305097.2038276;47.1306326;7.2406136;18.889001846313477;1673305097.3594785;3.449983596801758;2.060973882675171;93.28679656982422
76;1673305097.3926601;47.130627499999996;7.2406109999999995;19.303001403808594;1673305097.5516798;8.159560203552246;5.901745319366455;90.81819915771484
77;1673305097.5926778;47.1306283;7.2406114;19.757001876831055;1673305097.763564;7.999731540679932;18.23373794555664;91.69683074951172
78;1673305097.8065398;47.1306295;7.240612;20.185001373291016;1673305097.946176;7.769530773162842;13.421844482421875;92.5378646850586
79;1673305097.9861887;47.130629899999995;7.2406123;20.602001190185547;1673305098.1493702;7.847884178161621;15.560990333557129;92.61634826660156
80;1673305098.1806993;47.1306297;7.240612199999999;21.005001068115234;1673305098.3247926;7.522511959075928;13.467905044555664;92.71820831298828
81;1673305098.3614624;47.1306289;7.240611899999999;21.3960018157959;1673305098.5201142;7.243226528167725;11.05408763885498;92.76251983642578
82;1673305098.5627928;47.130627399999995;7.2406112;21.77800178527832;1673305098.728657;6.9244208335876465;8.389716148376465;92.804443359375
83;1673305098.7648802;47.130625599999995;7.240610299999999;22.1510009765625;1673305098.9324439;6.682833194732666;6.901915550231934;92.81988525390625
84;1673305098.9642575;47.130624999999995;7.240609999999999;22.512001037597656;1673305099.1401389;6.571392059326172;5.568728446960449;92.9297103881836
85;1673305099.1753676;47.1306229;7.2406089;22.860000610351562;1673305099.387842;5.186736106872559;1.315767765045166;93.03793334960938
86;1673305099.4230707;47.1306199;7.2406073;23.189001083374023;1673305099.5688684;4.047886848449707;-2.6486284732818604;93.10671997070312
87;1673305099.6020498;47.1306164;7.240605599999999;23.498001098632812;1673305099.7731135;2.8920345306396484;-7.837615966796875;93.18144989013672
88;1673305099.8083272;47.1306124;7.2406036;23.782001495361328;1673305099.9569938;1.873685359954834;-13.552373886108398;93.16949462890625
89;1673305099.9902782;47.1306082;7.2406016;24.034000396728516;1673305100.1613493;1.83158540725708;-16.995203018188477;92.99150085449219
90;1673305100.1981802;47.130604299999995;7.240599899999999;24.259000778198242;1673305100.3485782;2.690819501876831;-16.416231155395508;92.5627670288086
91;1673305100.3794;47.1306041;7.2406;24.42500114440918;1673305100.5412397;3.904162883758545;-15.014421463012695;93.06434631347656
92;1673305100.5740237;47.130601399999996;7.240598899999999;24.597002029418945;1673305100.7272413;2.070464849472046;-19.816884994506836;93.01323699951172
93;1673305100.762012;47.130597699999996;7.2405971;24.764001846313477;1673305100.9286544;-0.6514014601707458;-23.50931167602539;93.64555358886719
94;1673305100.9674532;47.130593999999995;7.2405952;24.907001495361328;1673305101.1299026;-1.9116191864013672;-25.21805191040039;93.53363800048828
95;1673305101.1702447;47.1305912;7.240593499999999;25.027000427246094;1673305101.3300064;-7.07614278793335;-28.965496063232422;94.18215942382812
96;1673305101.3661833;47.1305836;7.2405862999999995;25.16200065612793;1673305101.5244334;-15.954805374145508;-37.22706985473633;92.6667251586914
97;1673305101.5664344;47.130581299999996;7.2405829;25.23200035095215;1673305101.7213998;-15.391549110412598;-32.70607376098633;90.10741424560547
98;1673305101.754156;47.1305802;7.2405786;25.288002014160156;1673305101.9118693;-19.318090438842773;-30.377981185913086;90.83460235595703
99;1673305101.9461231;47.1305822;7.2405767;25.32900047302246;1673305102.1027775;-17.469646453857422;-24.952884674072266;90.25924682617188
100;1673305102.1428323;47.130586799999996;7.2405773;25.350000381469727;1673305102.315861;-14.563437461853027;-13.883065223693848;91.18280029296875
101;1673305102.3594236;47.130592899999996;7.240579899999999;25.32600212097168;1673305102.5199902;-8.404882431030273;-4.802507400512695;91.84009552001953
102;1673305102.5586355;47.1305998;7.2405842;25.29400062561035;1673305102.7272809;-5.397189617156982;7.283292293548584;92.50603485107422
103;1673305102.7669613;47.1306066;7.240589399999999;25.248001098632812;1673305102.9280908;3.1921844482421875;16.865406036376953;92.9128646850586
104;1673305102.9673405;47.1306131;7.240595099999999;25.183000564575195;1673305103.1326625;9.330656051635742;21.312625885009766;92.95201110839844
105;1673305103.173689;47.1306179;7.2406003;25.112001419067383;1673305103.3484867;13.477459907531738;18.291723251342773;92.63861083984375
106;1673305103.3870907;47.130621;7.2406051;25.042001724243164;1673305103.5537782;15.963491439819336;15.714563369750977;91.97860717773438
107;1673305103.5923812;47.130622599999995;7.2406090999999995;24.97800064086914;1673305103.7477665;17.6439266204834;13.189986228942871;91.68060302734375
108;1673305103.780973;47.1306229;7.2406123;24.9320011138916;1673305103.9281857;19.163284301757812;7.476801872253418;90.8510513305664
109;1673305103.9684017;47.1306221;7.2406143;24.917001724243164;1673305104.1274247;18.23623275756836;2.4110331535339355;90.9781723022461
110;1673305104.162188;47.1306217;7.2406147999999995;24.965002059936523;1673305104.3187532;13.28232192993164;-3.1182332038879395;91.13733673095703
111;1673305104.3529856;47.130620099999994;7.240614399999999;25.064001083374023;1673305104.5132968;8.151416778564453;-10.351211547851562;92.47026824951172
112;1673305104.5486546;47.1306181;7.2406134;25.187000274658203;1673305104.7139533;2.6711833477020264;-11.176603317260742;93.72195434570312
113;1673305104.7500727;47.130616599999996;7.2406118;25.32000160217285;1673305104.9250803;-0.207429438829422;-12.05633544921875;93.88793182373047
114;1673305104.9608054;47.1306157;7.240610299999999;25.45100212097168;1673305105.1382968;-1.578843355178833;-12.274630546569824;93.76407623291016
115;1673305105.176981;47.1306157;7.240609;25.577001571655273;1673305105.346643;-1.0601370334625244;-10.867432594299316;93.25716400146484
116;1673305105.3838832;47.1306164;7.2406083;25.692001342773438;1673305105.5516512;0.18949581682682037;-5.904257297515869;93.13617706298828
117;1673305105.5960104;47.1306185;7.240608399999999;25.806001663208008;1673305105.743251;2.3895959854125977;-0.8101466298103333;92.85057067871094
118;1673305105.776522;47.1306203;7.2406089;25.921001434326172;1673305105.938249;2.4078755378723145;0.9922633767127991;92.8336181640625
119;1673305105.975912;47.1306217;7.2406096;26.038002014160156;1673305106.1238751;3.3488380908966064;2.539336681365967;92.78974914550781
120;1673305106.1576657;47.1306229;7.2406105;26.16900062561035;1673305106.3292336;3.581160306930542;3.4813640117645264;92.91294860839844
121;1673305106.3719614;47.1306236;7.240611299999999;26.308000564575195;1673305106.5400531;3.9154224395751953;3.46966290473938;93.03851318359375
122;1673305106.5742872;47.1306241;7.240612;26.463001251220703;1673305106.7245023;4.445363521575928;4.173533916473389;92.79731750488281
123;1673305106.7577126;47.130625099999996;7.2406127;26.63800048828125;1673305106.9353518;5.5038228034973145;3.134744167327881;92.68941497802734
124;1673305106.9744277;47.1306253;7.2406128999999995;26.82400131225586;1673305107.1381638;6.107486724853516;0.6600509285926819;92.88047790527344
125;1673305107.1769316;47.130624999999995;7.2406128;27.0210018157959;1673305107.3463275;6.823505401611328;-1.0874282121658325;92.90621185302734
126;1673305107.3889642;47.130624399999995;7.240612499999999;27.23600196838379;1673305107.5447478;6.491761684417725;-1.5523260831832886;93.0097427368164
127;1673305107.583104;47.130623899999996;7.240612199999999;27.46000099182129;1673305107.7540934;5.37697172164917;-1.9725463390350342;93.1082534790039
128;1673305107.7913687;47.1306234;7.240611899999999;27.689001083374023;1673305107.9804876;4.039599895477295;-2.937028169631958;93.3470458984375
129;1673305108.0126936;47.130623;7.2406118;27.918001174926758;1673305108.1731515;2.9806950092315674;-1.6230721473693848;93.3572769165039
130;1673305108.2073092;47.130623799999995;7.240612;28.145000457763672;1673305108.3496234;2.2095413208007812;-0.23593159019947052;93.04793548583984
131;1673305108.3823724;47.1306241;7.240612199999999;28.3700008392334;1673305108.5524864;2.306778907775879;-0.5186797976493835;93.16666412353516
132;1673305108.5902402;47.1306241;7.2406124;28.597002029418945;1673305108.7481654;2.610060930252075;-0.24919342994689941;93.15168762207031
133;1673305108.7830482;47.130624;7.2406125999999995;28.82400131225586;1673305108.9466949;3.482523202896118;-0.5192288160324097;93.04421997070312
134;1673305108.9835107;47.130623799999995;7.2406127;29.054000854492188;1673305109.1553147;4.793676853179932;-0.8475803732872009;92.91690826416016
135;1673305109.190567;47.1306236;7.2406128;29.282001495361328;1673305109.3531485;5.717803478240967;0.49689313769340515;92.8730239868164
136;1673305109.389898;47.130624399999995;7.240613;29.50200080871582;1673305109.5372267;7.185190200805664;1.5624516010284424;92.62858581542969
137;1673305109.5848832;47.130624499999996;7.240613199999999;29.724000930786133;1673305109.7453108;7.510886192321777;0.0989411473274231;92.70084381103516
138;1673305109.7780554;47.1306242;7.240613199999999;29.95100212097168;1673305109.936044;6.909404277801514;-0.7085521221160889;92.77760314941406
139;1673305109.9736867;47.1306236;7.240613199999999;30.171001434326172;1673305110.1240408;6.093362331390381;-1.6780143976211548;92.93589782714844
140;1673305110.169108;47.130623;7.2406131;30.393001556396484;1673305110.3488085;4.7336931228637695;-2.1014678478240967;92.98704528808594
141;1673305110.3849878;47.130622599999995;7.240613;30.608001708984375;1673305110.5437882;3.756800651550293;-2.2217354774475098;93.09051513671875
142;1673305110.5795972;47.1306223;7.2406128999999995;30.81800079345703;1673305110.7423623;2.9334092140197754;-0.8913220167160034;92.9884262084961
143;1673305110.7819414;47.130623199999995;7.240613;31.011001586914062;1673305110.9414313;3.0272045135498047;0.2229834496974945;92.74031829833984
144;1673305110.9810097;47.1306235;7.2406128999999995;31.214000701904297;1673305111.1494622;2.7408883571624756;-1.1598864793777466;92.94540405273438
145;1673305111.1899252;47.130623299999996;7.2406127;31.411001205444336;1673305111.348881;3.384831666946411;-1.2555961608886719;93.11431884765625
146;1673305111.3874924;47.1306231;7.240612499999999;31.60500144958496;1673305111.5466228;4.218445301055908;-1.3815230131149292;93.02096557617188
147;1673305111.5828178;47.1306228;7.2406124;31.796001434326172;1673305111.7386885;5.054222583770752;-1.7219760417938232;92.96139526367188
148;1673305111.7753332;47.130622599999995;7.2406123;31.981000900268555;1673305111.9369884;5.861568450927734;-0.13398903608322144;92.88994598388672
149;1673305111.9727;47.1306237;7.240612499999999;32.14900207519531;1673305112.1413944;6.419299125671387;1.1330360174179077;92.61802673339844
150;1673305112.1756837;47.130623899999996;7.2406128;32.323001861572266;1673305112.348451;6.405327320098877;-0.18172061443328857;92.73512268066406
151;1673305112.3837452;47.130623799999995;7.2406131;32.5;1673305112.5458362;5.262758731842041;-0.31292521953582764;92.84574890136719
152;1673305112.5800602;47.1306235;7.2406133;32.68000030517578;1673305112.7457793;4.464962482452393;-1.012311577796936;92.82093811035156
153;1673305112.7844257;47.130623199999995;7.2406134;32.86300277709961;1673305112.9500415;3.952568769454956;-1.4640741348266602;92.99820709228516
154;1673305112.9848764;47.130623;7.2406136;33.03900146484375;1673305113.1476045;3.7914958000183105;-1.7370100021362305;93.05036926269531
155;1673305113.1850872;47.130623;7.2406136;33.21500015258789;1673305113.3476248;4.879761695861816;-0.707877516746521;92.87152862548828
156;1673305113.3863661;47.130624;7.240613799999999;33.375;1673305113.5551064;6.089562892913818;0.700366199016571;92.43003845214844
157;1673305113.592779;47.130624499999996;7.2406137;33.540000915527344;1673305113.7541738;6.519299507141113;0.1858820617198944;92.57427215576172
158;1673305113.7871282;47.1306247;7.2406134;33.7140007019043;1673305113.9462814;5.896768569946289;0.2748413383960724;92.75860595703125
159;1673305113.9845412;47.1306247;7.240613;33.88600158691406;1673305114.1433384;5.247011661529541;-0.041525036096572876;92.85533142089844
160;1673305114.1874814;47.1306247;7.2406128;34.060001373291016;1673305114.3491569;4.241847515106201;-0.028854412958025932;92.7809829711914
161;1673305114.391672;47.1306247;7.2406127;34.23500061035156;1673305114.5788684;3.865760087966919;1.0963001251220703;92.70465850830078
162;1673305114.6131935;47.1306258;7.240613;34.4010009765625;1673305114.759702;3.195293426513672;1.961579442024231;92.54556274414062
163;1673305114.7964718;47.130626299999996;7.2406131;34.58100128173828;1673305114.9516633;2.792815685272217;1.4977561235427856;92.68437957763672
164;1673305114.9919903;47.1306264;7.240613199999999;34.763999938964844;1673305115.1479826;2.7552456855773926;1.364281415939331;92.83169555664062
165;1673305115.1856663;47.1306265;7.240613199999999;34.954002380371094;1673305115.341547;3.3084940910339355;0.6391619443893433;92.74192810058594
166;1673305115.3801932;47.1306265;7.2406133;35.14900207519531;1673305115.5404592;4.260794162750244;0.32196611166000366;92.69609832763672
167;1673305115.574274;47.1306266;7.2406133;35.35000228881836;1673305115.739425;5.061530590057373;0.25578737258911133;92.64311218261719
168;1673305115.772774;47.1306267;7.2406134;35.55800247192383;1673305115.9284225;6.035226821899414;1.1652954816818237;92.63469696044922
169;1673305115.9626222;47.1306277;7.2406136;35.75699996948242;1673305116.1347504;7.230718612670898;2.371464490890503;92.41315460205078
170;1673305116.1724524;47.1306282;7.240613799999999;35.9640007019043;1673305116.343887;7.066709518432617;2.102400302886963;92.43645477294922
171;1673305116.38345;47.1306285;7.2406139;36.177001953125;1673305116.5442233;6.550163269042969;2.0973737239837646;92.5384521484375
172;1673305116.5769792;47.130628699999995;7.2406139;36.395999908447266;1673305116.7660527;5.2611494064331055;1.8406058549880981;92.56319427490234
173;1673305116.8017907;47.1306289;7.240614;36.62000274658203;1673305116.9625516;4.207303047180176;1.855840802192688;92.62030029296875
174;1673305117.0074472;47.1306291;7.240614099999999;36.854000091552734;1673305117.1536202;3.430013656616211;2.4675827026367188;92.67404174804688
175;1673305117.1883748;47.130629899999995;7.2406143;37.08100128173828;1673305117.3392131;3.0920803546905518;3.135817527770996;92.44193267822266
176;1673305117.37049;47.1306304;7.2406143;37.31700134277344;1673305117.5296855;2.731793165206909;2.38358211517334;92.63224029541016
177;1673305117.569853;47.130630599999996;7.2406142;37.564002990722656;1673305117.755063;3.0521159172058105;2.3168060779571533;92.65103149414062
178;1673305117.7931113;47.1306307;7.240614;37.81700134277344;1673305117.944945;3.8173046112060547;2.2298855781555176;92.65522766113281
179;1673305117.9762313;47.1306309;7.2406139;38.07600021362305;1673305118.1357565;4.597391128540039;2.3697102069854736;92.58506774902344
180;1673305118.1699746;47.130631199999996;7.2406139;38.3380012512207;1673305118.3400025;5.708761215209961;2.405881881713867;92.5860366821289
181;1673305118.3761168;47.1306315;7.240614;38.60200119018555;1673305118.532369;5.937727928161621;3.150881767272949;92.60106658935547
182;1673305118.5684938;47.1306322;7.2406142;38.862003326416016;1673305118.7381258;6.019769668579102;3.8364226818084717;92.53509521484375
183;1673305118.7792697;47.1306327;7.2406146;39.13199996948242;1673305118.951172;5.528910160064697;3.639561653137207;92.42908477783203
184;1673305118.9907637;47.130632999999996;7.2406149;39.406002044677734;1673305119.1545358;4.5238752365112305;3.7524399757385254;92.51407623291016
185;1673305119.1913197;47.1306332;7.2406153;39.68800354003906;1673305119.340377;3.8328936100006104;3.8473761081695557;92.46296691894531
186;1673305119.3755796;47.1306334;7.2406155;39.979000091552734;1673305119.546827;3.9280009269714355;3.0950117111206055;92.46963500976562
187;1673305119.5800385;47.130633599999996;7.2406158;40.281002044677734;1673305119.7557673;4.654901504516602;3.0203981399536133;92.7047348022461
188;1673305119.7985876;47.130634099999995;7.240615999999999;40.579002380371094;1673305119.959462;5.653983116149902;3.7373759746551514;92.75265502929688
189;1673305120.0000525;47.1306344;7.240615999999999;40.88900375366211;1673305120.1519623;6.355390548706055;3.6689276695251465;92.62930297851562
190;1673305120.189356;47.1306346;7.240615999999999;41.20600128173828;1673305120.3356028;6.4181742668151855;3.5081088542938232;92.51614379882812
191;1673305120.3726902;47.130634699999995;7.2406159;41.5260009765625;1673305120.5385675;5.8309431076049805;3.448521137237549;92.64688873291016
192;1673305120.5730903;47.1306349;7.2406159;41.84600067138672;1673305120.7369251;5.282959461212158;3.645582914352417;92.63525390625
193;1673305120.7760344;47.1306351;7.2406159;42.1670036315918;1673305120.9484138;4.093563079833984;3.7336621284484863;92.54492950439453
194;1673305120.9891884;47.130635299999994;7.2406159;42.49400329589844;1673305121.1403348;3.357484817504883;3.9251677989959717;92.57705688476562
195;1673305121.1802912;47.1306358;7.2406160999999996;42.816001892089844;1673305121.3654587;3.0426549911499023;4.20861291885376;92.38060760498047
196;1673305121.3967514;47.1306361;7.2406162;43.14400100708008;1673305121.5409813;2.951392412185669;4.295947074890137;92.36770629882812
197;1673305121.5741863;47.1306364;7.2406162;43.47300338745117;1673305121.7392588;2.6937856674194336;4.238885402679443;92.4845962524414
198;1673305121.772169;47.130636599999995;7.2406162;43.80900192260742;1673305121.945729;3.1009390354156494;4.067107200622559;92.48524475097656
199;1673305121.9808724;47.1306368;7.2406163;44.14800262451172;1673305122.1420982;4.092709541320801;3.822277069091797;92.62903594970703
200;1673305122.1866534;47.1306369;7.2406163999999995;44.48800277709961;1673305122.338861;5.282229900360107;4.298838138580322;92.61861419677734
201;1673305122.3828545;47.1306373;7.2406166;44.82500076293945;1673305122.5387561;6.1914777755737305;4.550857067108154;92.57263946533203
202;1673305122.5778375;47.1306375;7.2406168;45.16400146484375;1673305122.7421877;6.8429460525512695;4.392302513122559;92.50873565673828
203;1673305122.7822;47.1306377;7.240616999999999;45.51100158691406;1673305122.9415116;6.873897075653076;4.227306842803955;92.48493957519531
204;1673305122.9846575;47.130637799999995;7.2406171;45.85900115966797;1673305123.1438577;6.308462142944336;4.268275260925293;92.63280487060547
205;1673305123.1746721;47.130637899999996;7.2406172;46.21200180053711;1673305123.340304;4.864397048950195;4.246013641357422;92.72105407714844
206;1673305123.3815432;47.130638;7.240617299999999;46.56900405883789;1673305123.5436792;4.000695705413818;4.046622276306152;92.68205261230469
207;1673305123.5808842;47.1306382;7.2406174;46.93000411987305;1673305123.74112;3.2730278968811035;4.542734622955322;92.56060028076172
208;1673305123.7772114;47.130638499999996;7.2406175;47.28600311279297;1673305123.9415905;3.161266326904297;4.788147926330566;92.39750671386719
209;1673305123.9835804;47.1306387;7.2406175;47.64400100708008;1673305124.1517339;3.088179588317871;4.405467987060547;92.43804168701172
210;1673305124.1952698;47.1306389;7.2406174;48.00600051879883;1673305124.3707836;3.3497390747070312;4.27960205078125;92.60002136230469
211;1673305124.4035501;47.130638999999995;7.240617299999999;48.345001220703125;1673305124.5561225;3.8749282360076904;5.183993339538574;92.73690032958984
212;1673305124.5901732;47.130639099999996;7.2406172;48.637001037597656;1673305124.7537773;5.014211177825928;5.006632328033447;92.53962707519531
213;1673305124.790081;47.1306392;7.240617299999999;48.88500213623047;1673305124.949413;5.706116676330566;4.630403995513916;92.37286376953125
214;1673305124.9886162;47.1306394;7.2406175;49.086002349853516;1673305125.1641383;6.004153251647949;4.992276668548584;92.60960388183594
215;1673305125.207124;47.130639599999995;7.240617899999999;49.25800323486328;1673305125.3738387;12.651177406311035;6.516274452209473;91.98966979980469
216;1673305125.4086244;47.130639699999996;7.2406182999999995;49.39900207519531;1673305125.5620189;18.819433212280273;15.133089065551758;85.8315200805664
217;1673305125.6030662;47.1306395;7.2406182999999995;49.4530029296875;1673305125.768253;10.137304306030273;5.437719821929932;72.2347640991211
218;1673305125.8009973;47.130638999999995;7.2406178;49.4640007019043;1673305125.9500887;9.361140251159668;0.6071596145629883;63.80887985229492
219;1673305125.987242;47.1306382;7.2406172;49.4900016784668;1673305126.1550162;10.685117721557617;-0.7578073143959045;54.59535217285156
220;1673305126.1893265;47.1306375;7.2406163;49.5150032043457;1673305126.3432648;8.959396362304688;-3.5791876316070557;45.50617218017578
221;1673305126.383356;47.1306368;7.2406152;49.53200149536133;1673305126.5505612;8.862518310546875;-5.052778720855713;36.2025032043457
222;1673305126.58828;47.130635999999996;7.2406139;49.55000305175781;1673305126.7473989;7.3920512199401855;-6.1049652099609375;27.054563522338867
223;1673305126.7854779;47.130635399999996;7.240612499999999;49.56700134277344;1673305126.9534523;5.739871501922607;-6.607885837554932;17.9285831451416
224;1673305126.997146;47.1306349;7.2406109999999995;49.58100128173828;1673305127.1582663;3.8088629245758057;-6.504855632781982;8.815479278564453
225;1673305127.1915379;47.130634699999995;7.2406095;49.59700393676758;1673305127.3952832;1.8252838850021362;-5.9835591316223145;-0.4456557631492615
226;1673305127.4284358;47.130634699999995;7.240608099999999;49.61000061035156;1673305127.577266;0.5101036429405212;-6.5993757247924805;-9.54490852355957
227;1673305127.639385;47.130634699999995;7.2406073;49.617000579833984;1673305127.7942727;-0.45403969287872314;-7.556143760681152;-18.671554565429688
228;1673305127.8300583;47.130634799999996;7.2406063;49.62600326538086;1673305127.9924178;-0.6214889287948608;-7.565915584564209;-27.703704833984375
229;1673305128.0266826;47.1306349;7.2406052;49.62900161743164;1673305128.1875412;-0.6861732006072998;-8.016897201538086;-36.9322395324707
230;1673305128.2228687;47.1306351;7.2406041;49.630001068115234;1673305128.3843298;-0.40497785806655884;-8.33024787902832;-46.27332305908203
231;1673305128.4445953;47.1306352;7.2406032;49.63100051879883;1673305128.6090806;-0.8211591839790344;-8.378655433654785;-52.95594787597656
232;1673305128.6462271;47.130635399999996;7.240602399999999;49.63500213623047;1673305128.8118203;-0.552156925201416;-8.820301055908203;-52.31662368774414
233;1673305128.8523827;47.1306355;7.2406017;49.63500213623047;1673305128.996622;-0.5171622633934021;-9.154374122619629;-48.89690017700195
234;1673305129.0268965;47.1306355;7.2406017;49.63200378417969;1673305129.1710725;-1.189399242401123;-8.958199501037598;-47.141700744628906
235;1673305129.20328;47.1306357;7.240601;49.62900161743164;1673305129.361077;-0.7946667075157166;-8.599491119384766;-46.39397048950195
236;1673305129.4040172;47.130635899999994;7.2406;49.62300109863281;1673305129.5654173;-1.2920879125595093;-8.158896446228027;-45.97339630126953
237;1673305129.6073816;47.130635999999996;7.240599;49.61600112915039;1673305129.7684703;-1.3809443712234497;-7.9203596115112305;-45.84809112548828
238;1673305129.8030062;47.1306361;7.2405981;49.60600280761719;1673305129.9433222;-0.1238137036561966;-7.4751787185668945;-45.73306655883789
239;1673305129.974552;47.1306361;7.2405973999999995;49.59700393676758;1673305130.140572;1.095599889755249;-7.693798065185547;-45.74119567871094
240;1673305130.1813262;47.130635899999994;7.2405979;49.59100341796875;1673305130.3518581;1.0288829803466797;-8.65239143371582;-45.85116195678711
241;1673305130.3889227;47.1306358;7.2405982;49.582000732421875;1673305130.5571153;-16.769437789916992;-8.541583061218262;-46.104591369628906
242;1673305130.595176;47.130635899999994;7.2405981;49.579002380371094;1673305130.756409;-42.7677001953125;-5.249400615692139;-46.92354202270508
243;1673305130.7973616;47.1306369;7.240596399999999;49.58700180053711;1673305130.9618864;-58.45564651489258;-3.528560161590576;-46.74040985107422
244;1673305130.997919;47.1306401;7.2405918;49.60300064086914;1673305131.1651416;-60.14647674560547;-3.413320779800415;-47.66904067993164
245;1673305131.2033098;47.1306461;7.2405827;49.612003326416016;1673305131.363075;-60.76028823852539;-1.5523910522460938;-49.539772033691406
246;1673305131.3984349;47.1306546;7.2405694;49.61900329589844;1673305131.5469213;-60.301025390625;-1.1543949842453003;-49.4570426940918
247;1673305131.5779562;47.1306654;7.2405532;49.62600326538086;1673305131.7538974;-57.85319519042969;-0.7146176099777222;-50.181697845458984
248;1673305131.7898493;47.1306775;7.2405336;49.617000579833984;1673305131.9637818;-55.42814254760742;-0.2922833263874054;-48.95335006713867
249;1673305132.0058298;47.130691;7.2405116;49.60300064086914;1673305132.1719093;-56.03937911987305;-0.9648952484130859;-48.04715347290039
250;1673305132.2089365;47.1307055;7.2404882;49.5780029296875;1673305132.3680918;-55.65558624267578;-1.5109723806381226;-47.785823822021484
251;1673305132.397876;47.130721199999996;7.2404638;49.53200149536133;1673305132.545984;-53.25059127807617;-2.2490410804748535;-47.489524841308594
252;1673305132.5967805;47.1307378;7.2404388;49.47900390625;1673305132.7977014;-51.15614700317383;-3.5708394050598145;-47.14537811279297
253;1673305132.8317986;47.130755199999996;7.2404138;49.452003479003906;1673305132.9813666;-50.19977951049805;-5.516167163848877;-46.99334716796875
254;1673305133.011662;47.1307729;7.2403882;49.4160041809082;1673305133.1608307;-50.061214447021484;-4.601865768432617;-47.49386215209961
255;1673305133.192935;47.130790999999995;7.2403622;49.380001068115234;1673305133.359828;-49.80989456176758;-4.945040702819824;-47.47484588623047
256;1673305133.3980212;47.130809199999995;7.240336;49.349002838134766;1673305133.5560322;-49.762535095214844;-6.163198947906494;-47.718589782714844
257;1673305133.587328;47.130827599999996;7.2403096;49.323001861572266;1673305133.7469583;-50.03044128417969;-6.525477886199951;-48.1201286315918
258;1673305133.7830567;47.130846;7.2402828999999995;49.301002502441406;1673305133.968835;-49.97467803955078;-8.485167503356934;-47.93075942993164
259;1673305134.0080202;47.1308644;7.240255899999999;49.27700424194336;1673305134.1705384;-49.59505081176758;-12.95521068572998;-47.14927291870117
260;1673305134.207046;47.1308826;7.2402286;49.27700424194336;1673305134.3741343;-43.031734466552734;-11.059499740600586;-50.47207260131836
261;1673305134.4137928;47.130900499999996;7.2402007;49.26400375366211;1673305134.5847623;-10.389960289001465;-13.063492774963379;-49.26364517211914
262;1673305134.6196866;47.1309174;7.2401734;49.24400329589844;1673305134.7664351;30.1689510345459;-9.475798606872559;-49.75954055786133
263;1673305134.7966347;47.1309325;7.240149;49.16400146484375;1673305134.957462;22.083759307861328;-2.440582513809204;-49.8792724609375
264;1673305134.9980748;47.1309458;7.240128299999999;48.871002197265625;1673305135.1680815;15.806791305541992;-1.720380425453186;-47.585655212402344
265;1673305135.2025032;47.1309569;7.2401121999999996;48.52800369262695;1673305135.3727405;14.648776054382324;-2.093500852584839;-47.55714797973633
266;1673305135.406643;47.1309658;7.240100699999999;48.30500411987305;1673305135.570424;13.957475662231445;-3.088689088821411;-47.563636779785156
267;1673305135.6046495;47.130972899999996;7.2400929;48.23400115966797;1673305135.780096;45.45478820800781;-9.214430809020996;-47.2451286315918
268;1673305135.8146207;47.130977699999995;7.2400889;48.3380012512207;1673305135.9596212;51.00401306152344;-8.517865180969238;-42.98149108886719
269;1673305135.9913476;47.1309793;7.2400895;48.47200393676758;1673305136.1296659;52.27073287963867;-11.679473876953125;-43.13003158569336
270;1673305136.1668577;47.1309774;7.2400942;48.621002197265625;1673305136.321266;46.20331954956055;-15.199507713317871;-44.15175247192383
271;1673305136.3593276;47.130972799999995;7.2401018;48.75300216674805;1673305136.5263455;33.553287506103516;-16.73174285888672;-44.289188385009766
272;1673305136.5634208;47.130966199999996;7.240111;48.85200119018555;1673305136.753029;14.635394096374512;-17.869918823242188;-44.97236633300781
273;1673305136.7910933;47.1309587;7.2401203999999995;48.93800354003906;1673305136.9590786;-5.1738691329956055;-15.502775192260742;-46.20331954956055
274;1673305137.0035415;47.1309511;7.2401291;48.98800277709961;1673305137.1835701;-18.8537654876709;-10.290386199951172;-47.46293640136719
275;1673305137.2187479;47.130944299999996;7.2401363;49.022003173828125;1673305137.3649738;-20.59392738342285;-6.354061126708984;-48.346046447753906
276;1673305137.3981588;47.1309389;7.2401417;49.0420036315918;1673305137.5464635;-2.965195417404175;-2.108323574066162;-48.76708221435547
277;1673305137.582258;47.1309348;7.2401459;49.05600357055664;1673305137.7364225;14.542716979980469;-2.1494522094726562;-48.81698226928711
278;1673305137.771557;47.130931399999994;7.2401501999999995;49.07200241088867;1673305137.9387817;14.401848793029785;-1.5661309957504272;-48.894466400146484
279;1673305137.975868;47.1309282;7.240155199999999;49.09800338745117;1673305138.1490114;11.945199012756348;-1.2509557008743286;-48.57733154296875
280;1673305138.1916654;47.1309255;7.2401607;49.121002197265625;1673305138.3551075;8.946605682373047;-9.561361312866211;-48.44288635253906
281;1673305138.396104;47.130922999999996;7.2401664;49.12900161743164;1673305138.5631382;27.56047821044922;-12.659369468688965;-49.56597900390625
282;1673305138.5973043;47.130920599999996;7.2401722;48.85000228881836;1673305138.7690759;40.352012634277344;-11.583243370056152;-49.94647979736328
283;1673305138.806728;47.1309183;7.2401782;48.2030029296875;1673305138.958381;45.2812385559082;-4.679503917694092;-48.05160903930664
284;1673305138.9957013;47.1309161;7.2401841;47.18600082397461;1673305139.1652598;39.62532424926758;6.6088032722473145;-45.607269287109375
285;1673305139.2056668;47.1309141;7.240189999999999;45.79800033569336;1673305139.3698666;21.882282257080078;17.759498596191406;-47.57563018798828
286;1673305139.4074986;47.130912099999996;7.2401957999999995;44.018001556396484;1673305139.556602;-3.191404342651367;26.67267608642578;-55.437965393066406
287;1673305139.5976112;47.130910199999995;7.240201399999999;41.862003326416016;1673305139.7607677;-28.627765655517578;34.28955841064453;-68.0672607421875
288;1673305139.7921224;47.1309082;7.2402069;39.323001861572266;1673305139.9542954;-44.94614791870117;35.54795837402344;-79.34980010986328
289;1673305139.9884558;47.1309062;7.240212499999999;36.41600036621094;1673305140.1508188;-46.45752716064453;20.55235481262207;-78.00379943847656
290;1673305140.1850355;47.130904;7.2402182999999996;33.15299987792969;1673305140.3457744;-28.100284576416016;-1.1395974159240723;-71.01312255859375
291;1673305140.3857884;47.130901699999995;7.2402244;29.529001235961914;1673305140.5482197;2.838517904281616;-12.274405479431152;-71.8430404663086
292;1673305140.5853167;47.130899299999996;7.240231;25.509000778198242;1673305140.7542174;28.077529907226562;-10.960808753967285;-74.4638442993164
293;1673305140.792317;47.1308973;7.2402375;21.101001739501953;1673305140.9612927;32.216697692871094;3.716801404953003;-72.50830078125
294;1673305140.998374;47.1308955;7.2402435;16.321001052856445;1673305141.1734378;12.026168823242188;18.71105194091797;-74.3941421508789
295;1673305141.2086217;47.1308939;7.2402489999999995;11.171000480651855;1673305141.377572;-17.397165298461914;23.83599853515625;-83.16712951660156
296;1673305141.4122803;47.1308922;7.240254299999999;5.642000198364258;1673305141.5907106;-34.21040344238281;14.569541931152344;-87.21705627441406
297;1673305141.62445;47.1308905;7.240260699999999;0.41100001335144043;1673305141.7890046;-3.7630958557128906;5.304324150085449;-73.5888671875
298;1673305141.8243463;47.130899199999995;7.2402524999999995;0.6860000491142273;1673305142.0350595;-6.322659492492676;2.4848649501800537;-73.47742462158203
299;1673305142.069229;47.1309087;7.2402409;0.8660000562667847;1673305142.2645447;-8.516582489013672;3.9268863201141357;-73.759521484375
300;1673305142.2967527;47.130917499999995;7.240232;0.7690000534057617;1673305142.445285;-12.161372184753418;3.0982725620269775;-74.19551086425781
301;1673305142.4746838;47.1309256;7.2402222;0.8460000157356262;1673305142.6319156;-10.476229667663574;3.3053293228149414;-74.12860107421875
302;1673305142.6611936;47.1309326;7.2402131999999995;0.878000020980835;1673305142.7974765;-10.204590797424316;3.1550118923187256;-74.19729614257812
303;1673305142.8332498;47.1309386;7.240205;0.8880000710487366;1673305142.9900763;-9.892746925354004;3.0722548961639404;-74.28272247314453
304;1673305143.0297847;47.1309433;7.2401978;0.8860000371932983;1673305143.1905565;-9.744040489196777;3.098116874694824;-74.3512191772461
305;1673305143.2269676;47.1309495;7.2401886;0.9260000586509705;1673305143.3880012;-9.723647117614746;3.175394058227539;-74.43936920166016
306;1673305143.4233327;47.1309573;7.2401772;0.9340000152587891;1673305143.5847008;-9.6627836227417;3.2308385372161865;-74.52811431884766
307;1673305143.6214328;47.130966099999995;7.2401643;0.9200000166893005;1673305143.7789516;-9.607789039611816;3.2765698432922363;-74.59461975097656
308;1673305143.823436;47.1309756;7.2401503;0.8990000486373901;1673305143.9707475;-9.573365211486816;3.35097599029541;-74.67486572265625
309;1673305144.010058;47.1309855;7.2401354;0.8730000257492065;1673305144.156738;-9.499225616455078;3.3865253925323486;-74.73933410644531
310;1673305144.196757;47.1309958;7.240119699999999;0.8440000414848328;1673305144.3716831;-9.451746940612793;3.4498355388641357;-74.81424713134766
311;1673305144.4027507;47.1310064;7.2401032;0.815000057220459;1673305144.585664;-9.400115966796875;3.4499144554138184;-74.89363861083984
312;1673305144.6268036;47.131017199999995;7.2400861;0.8100000619888306;1673305144.792678;-9.315844535827637;3.473423719406128;-74.97227478027344
313;1673305144.825706;47.131028199999996;7.240068399999999;0.7910000085830688;1673305144.9818077;-9.281261444091797;3.469022035598755;-75.02568054199219
314;1673305145.015771;47.1310395;7.2400499;0.7680000066757202;1673305145.1688175;-9.185210227966309;3.4781875610351562;-75.11589813232422
315;1673305145.2107358;47.131051;7.2400307999999995;0.7440000176429749;1673305145.3799105;-9.177978515625;3.495183229446411;-75.18108367919922
316;1673305145.4142272;47.1310627;7.240011099999999;0.7170000076293945;1673305145.5765905;-9.091038703918457;3.4671332836151123;-75.28350067138672
317;1673305145.6188018;47.1310746;7.2399907;0.6890000104904175;1673305145.7736676;-9.041475296020508;3.464980125427246;-75.35262298583984
318;1673305145.8058329;47.1310867;7.2399698;0.6680000424385071;1673305145.9692817;-8.94335651397705;3.4517388343811035;-75.4219741821289
319;1673305146.0008855;47.131099;7.2399483;0.6440000534057617;1673305146.1741934;-8.864155769348145;3.42718243598938;-75.5006103515625
320;1673305146.209663;47.131111399999995;7.2399261;0.6130000352859497;1673305146.3923316;-8.840935707092285;3.4077255725860596;-75.5595474243164
321;1673305146.4343798;47.1311241;7.2399033;0.578000009059906;1673305146.5936496;-8.747063636779785;3.398129940032959;-75.62271881103516
322;1673305146.625783;47.131136999999995;7.2398799;0.5400000214576721;1673305146.8079555;-8.781108856201172;3.374183416366577;-75.68800354003906
323;1673305146.8436937;47.13115;7.239856;0.5020000338554382;1673305146.9924812;-8.739845275878906;3.4082741737365723;-75.76164245605469
324;1673305147.0296993;47.131163099999995;7.2398316;0.4660000205039978;1673305147.1903455;-8.651107788085938;3.366062641143799;-75.84823608398438
325;1673305147.224527;47.1311763;7.2398067;0.4300000071525574;1673305147.3807957;-8.616997718811035;3.30816388130188;-75.94685363769531
326;1673305147.4176936;47.1311897;7.2397811999999995;0.39400002360343933;1673305147.5598288;-8.48160457611084;3.2687554359436035;-76.040283203125
327;1673305147.5934215;47.131203299999996;7.2397553;0.36000001430511475;1673305147.754731;-8.415556907653809;3.209946632385254;-76.1219253540039
328;1673305147.802578;47.1312169;7.2397288;0.32500001788139343;1673305147.979795;-8.268747329711914;3.1412737369537354;-76.19439697265625
329;1673305148.016585;47.131219699999995;7.239723499999999;0.29500001668930054;1673305148.1716747;-8.229792594909668;3.0693488121032715;-76.2699966430664
330;;;;;1673305148.3567624;-8.171881675720215;2.972806692123413;-76.37183380126953
331;;;;;1673305148.5544963;-8.095175743103027;2.631415843963623;-76.42371368408203
332;;;;;1673305148.7626555;-8.037238121032715;2.4799907207489014;-76.5295181274414
