;pos_time;latitude;longitude;altitude;alt_time;pitch;roll;yaw
0;1673367733.9209454;47.1306424;7.2406196;0.02500000037252903;1673367734.0986724;0.0029584572184830904;-0.021359380334615707;90.1716079711914
1;1673367734.1152642;47.1306424;7.2406196;0.023000001907348633;1673367734.3176017;-0.059207331389188766;-0.15843966603279114;90.1650390625
2;1673367734.338095;47.1306424;7.2406196;0.023000001907348633;1673367734.5276957;-0.11338359862565994;-0.16196446120738983;90.07583618164062
3;1673367734.547216;47.1306424;7.2406197;0.024000000208616257;1673367734.71328;-0.17240317165851593;-0.34938666224479675;90.18663787841797
4;1673367734.7298355;47.1306424;7.2406197;0.024000000208616257;1673367734.9115853;-0.1068485826253891;-0.18121127784252167;90.19731140136719
5;1673367734.9291196;47.1306424;7.2406197;0.027000000700354576;1673367735.1195402;-0.13330550491809845;-0.19732579588890076;90.2708740234375
6;1673367735.1380832;47.1306424;7.2406197;0.030000001192092896;1673367735.3258867;-0.16506247222423553;-0.3657631278038025;90.26708221435547
7;1673367735.3473341;47.1306424;7.2406196;0.029000001028180122;1673367735.529078;-0.23616066575050354;-0.15621180832386017;90.12725067138672
8;1673367735.545697;47.1306424;7.2406197;0.027000000700354576;1673367735.705959;-0.22724004089832306;-0.38806816935539246;90.163330078125
9;1673367735.7205987;47.1306424;7.2406197;0.02800000086426735;1673367735.8973966;0.047856565564870834;-0.23918573558330536;90.15612030029297
10;1673367735.9159145;47.1306424;7.2406197;0.0;1673367736.1181295;-0.2358497828245163;-0.3130934536457062;90.05536651611328
11;1673367736.1366963;47.1306423;7.2406197;-0.004000000189989805;1673367736.31269;-0.27143558859825134;-0.2385043501853943;90.20520782470703
12;1673367736.3302882;47.1306423;7.2406197;-0.009000000543892384;1673367736.5072613;-0.33778923749923706;-0.2587358057498932;90.28357696533203
13;1673367736.524817;47.1306423;7.2406197;-0.013000000268220901;1673367736.707539;-0.2060679793357849;-0.15561489760875702;90.39811706542969
14;1673367736.72511;47.1306423;7.2406197;-0.017000000923871994;1673367736.904079;-0.16044658422470093;-0.20906320214271545;90.31376647949219
15;1673367736.9198627;47.1306422;7.240619799999999;-0.020000001415610313;1673367737.105099;-0.3459397554397583;-0.18336860835552216;90.23139190673828
16;1673367737.123197;47.1306422;7.240619799999999;-0.02200000174343586;1673367737.3229818;-0.16663230955600739;0.2760751247406006;90.1470718383789
17;1673367737.3405616;47.1306422;7.240619799999999;0.0;1673367737.532913;-0.4638010263442993;-0.1772128939628601;90.27021789550781
18;1673367737.5501564;47.1306423;7.240619799999999;0.0010000000474974513;1673367737.7240422;-0.45182207226753235;-0.5158770680427551;90.333740234375
19;1673367737.740305;47.1306423;7.240619799999999;0.003000000026077032;1673367737.9081407;-0.6005720496177673;-0.11871066689491272;90.38420867919922
20;1673367737.922843;47.1306423;7.240619799999999;0.0020000000949949026;1673367738.1080809;-0.5131176710128784;-0.11671609431505203;90.43913269042969
21;1673367738.1249187;47.1306423;7.240619799999999;0.0;1673367738.298961;-0.7976834177970886;-0.30709508061408997;90.2649154663086
22;1673367738.315608;47.1306423;7.240619799999999;-0.0010000000474974513;1673367738.5139766;-0.7635418772697449;-0.09512751549482346;90.25466918945312
23;1673367738.5329797;47.1306423;7.2406198999999996;0.0;1673367738.7248573;-0.6328955292701721;-0.061770301312208176;90.29624938964844
24;1673367738.7432177;47.1306423;7.2406198999999996;0.004000000189989805;1673367738.9360163;-0.768522322177887;-0.027990203350782394;90.15486907958984
25;1673367738.9519637;47.1306423;7.2406198999999996;0.004000000189989805;1673367739.116948;-1.2527403831481934;-0.04272216185927391;90.02203369140625
26;1673367739.132957;47.1306423;7.2406198999999996;0.005000000353902578;1673367739.2930694;-0.44310837984085083;-0.12490715831518173;89.53961181640625
27;1673367739.3080103;47.1306423;7.2406201;0.004000000189989805;1673367739.4949608;2.8940322399139404;0.10943354666233063;88.53358459472656
28;1673367739.5136685;47.1306423;7.2406207;0.009000000543892384;1673367739.7048202;9.855963706970215;-1.8972392082214355;89.90852355957031
29;1673367739.7232075;47.1306423;7.2406217999999996;0.026000000536441803;1673367739.9079745;15.027617454528809;0.9677972197532654;89.89132690429688
30;1673367739.9268374;47.1306424;7.2406234;0.04700000211596489;1673367740.1272852;15.724358558654785;1.7352758646011353;90.23394012451172
31;1673367740.144044;47.1306424;7.2406251;0.0820000022649765;1673367740.3297982;17.086990356445312;-1.5910842418670654;89.79737091064453
32;1673367740.346009;47.1306425;7.240627;0.13199999928474426;1673367740.5848057;18.79547119140625;-0.04855014756321907;89.97994232177734
33;1673367740.599378;47.130642599999995;7.2406289;0.19600000977516174;1673367740.755157;20.636205673217773;2.525073528289795;90.37457275390625
34;1673367740.7738237;47.130642699999996;7.2406305;0.2760000228881836;1673367740.9328692;22.629718780517578;-0.36131832003593445;90.01876068115234
35;1673367740.9465327;47.1306429;7.2406317;0.3720000088214874;1673367741.1136663;24.766681671142578;-0.790569007396698;89.91584777832031
36;1673367741.1302912;47.1306429;7.240632499999999;0.4830000102519989;1673367741.321986;26.831342697143555;2.5984582901000977;90.54165649414062
37;1673367741.3383498;47.1306428;7.2406326;0.6080000400543213;1673367741.5570564;28.25857925415039;0.37322354316711426;90.4029312133789
38;1673367741.5702953;47.130642699999996;7.2406318999999995;0.7460000514984131;1673367741.7972558;26.273927688598633;-1.6006443500518799;90.02210998535156
39;1673367741.8089676;47.130642599999995;7.2406304;0.8960000276565552;1673367742.0082471;24.009185791015625;1.6055316925048828;90.83316802978516
40;1673367742.0160437;47.1306425;7.2406283;1.059000015258789;1673367742.2019544;21.227670669555664;0.20580941438674927;90.5596694946289
41;1673367742.2156157;47.1306425;7.240626;1.2330000400543213;1673367742.3745525;18.52201271057129;-1.8185778856277466;89.9083023071289
42;1673367742.391137;47.130642599999995;7.2406238;1.4140000343322754;1673367742.573064;16.4141845703125;1.7481169700622559;98.60687255859375
43;1673367742.5857518;47.1306425;7.2406217999999996;1.596000075340271;1673367742.7446146;14.999885559082031;0.6096324324607849;96.61813354492188
44;1673367742.7582734;47.1306425;7.2406203;1.7780001163482666;1673367742.935861;14.703024864196777;-2.5896475315093994;94.49667358398438
45;1673367742.95636;47.1306425;7.2406193;1.9590001106262207;1673367743.1434126;15.173977851867676;1.0191888809204102;93.82514953613281
46;1673367743.1570666;47.1306425;7.2406188;2.1430001258850098;1673367743.3454409;15.802390098571777;1.4462854862213135;93.03182983398438
47;1673367743.368441;47.130642599999995;7.2406187;2.3310000896453857;1673367743.5526924;16.890743255615234;-1.696170449256897;91.96236419677734
48;1673367743.5688543;47.130642699999996;7.240618899999999;2.5220000743865967;1673367743.7363963;17.763404846191406;1.5845626592636108;91.9161148071289
49;1673367743.7549636;47.130642699999996;7.240619199999999;2.7130000591278076;1673367743.933054;18.825239181518555;1.7416725158691406;91.88418579101562
50;1673367743.9478557;47.130642699999996;7.2406196;2.9040000438690186;1673367744.1254046;19.322927474975586;-1.531767725944519;91.3595199584961
51;1673367744.1421409;47.130642699999996;7.2406198999999996;3.0940001010894775;1673367744.3155668;19.642398834228516;0.5231040716171265;91.58521270751953
52;1673367744.3528366;47.130642699999996;7.2406201999999995;3.2860002517700195;1673367744.5228972;19.9990177154541;3.1098783016204834;91.89124298095703
53;1673367744.544505;47.130642599999995;7.2406204;3.4840002059936523;1673367744.6985822;19.822412490844727;-1.1084423065185547;91.40777587890625
54;1673367744.7112699;47.1306425;7.2406206;3.683000087738037;1673367744.899937;19.80852699279785;-0.6341381072998047;91.56917572021484
55;1673367744.9184864;47.1306422;7.2406206;3.877000093460083;1673367745.112417;19.58504867553711;1.6349866390228271;92.0594482421875
56;1673367745.1270459;47.1306419;7.2406206;4.067000389099121;1673367745.305719;19.6968994140625;-2.0203857421875;91.62540435791016
57;1673367745.325239;47.1306418;7.2406206;4.260000228881836;1673367745.5049756;19.501670837402344;-1.606680989265442;91.6087646484375
58;1673367745.5206203;47.1306418;7.2406204999999995;4.452000141143799;1673367745.7014294;19.170406341552734;2.1341705322265625;92.23802185058594
59;1673367745.720946;47.1306418;7.2406204;4.64300012588501;1673367745.9457407;18.930086135864258;0.11891722679138184;91.86473083496094
60;1673367745.9643111;47.1306419;7.2406201999999995;4.833000183105469;1673367746.1644385;18.897293090820312;-1.672627329826355;91.4126205444336
61;1673367746.1801398;47.1306418;7.2406201;5.026000022888184;1673367746.3688793;18.70944595336914;1.8753111362457275;92.05182647705078
62;1673367746.3869944;47.1306417;7.24062;5.219000339508057;1673367746.5604694;18.64739227294922;-0.007195994723588228;91.99186706542969
63;1673367746.5762727;47.1306416;7.24062;5.413000106811523;1673367746.7594619;18.743852615356445;-1.718753695487976;91.72727966308594
64;1673367746.772696;47.1306417;7.2406198999999996;5.6050004959106445;1673367746.9265802;18.771699905395508;1.944677710533142;91.99598693847656
65;1673367746.942196;47.1306418;7.2406198999999996;5.802000045776367;1673367747.1191132;18.762014389038086;1.4062269926071167;91.92082214355469
66;1673367747.1386337;47.1306419;7.2406198999999996;6.000000476837158;1673367747.3224177;18.874576568603516;-1.469034194946289;91.45702362060547
67;1673367747.340258;47.1306419;7.24062;6.197000503540039;1673367747.5245914;18.90720558166504;1.4130384922027588;92.00269317626953
68;1673367747.5412872;47.1306418;7.24062;6.39400053024292;1673367747.7321134;18.928829193115234;1.9587669372558594;91.9813461303711
69;1673367747.747717;47.1306417;7.24062;6.591000080108643;1673367747.93334;19.156997680664062;-1.8637713193893433;91.47173309326172
70;1673367747.9518929;47.1306417;7.2406201;6.7860002517700195;1673367748.1511552;19.078292846679688;0.43745678663253784;91.69796752929688
71;1673367748.1658025;47.1306418;7.2406201;6.9800004959106445;1673367748.3852468;19.204437255859375;2.625011682510376;92.11967468261719
72;1673367748.4018385;47.1306418;7.2406201999999995;7.173000335693359;1673367748.559535;19.112899780273438;-1.326465129852295;91.51483917236328
73;1673367748.5722232;47.1306418;7.2406201999999995;7.365000247955322;1673367748.7370875;19.06689453125;-0.1587129831314087;91.68338775634766
74;1673367748.7576215;47.1306417;7.2406201999999995;7.559000492095947;1673367748.9335117;19.14887809753418;2.322326183319092;92.16879272460938
75;1673367748.9562855;47.1306416;7.2406201999999995;7.753000259399414;1673367749.141648;18.91326141357422;-1.286225438117981;91.68025970458984
76;1673367749.1601856;47.1306417;7.2406201999999995;7.947000503540039;1673367749.3447213;18.94605827331543;-0.870159387588501;91.57723236083984
77;1673367749.3625154;47.1306418;7.2406201999999995;8.141000747680664;1673367749.5485697;18.9342098236084;2.7540125846862793;92.09180450439453
78;1673367749.564341;47.1306418;7.2406201999999995;8.334000587463379;1673367749.733365;18.912267684936523;0.46580836176872253;91.8873291015625
79;1673367749.7499585;47.1306419;7.2406203;8.526000022888184;1673367749.9268913;19.072193145751953;-1.0358730554580688;91.68487548828125
80;1673367749.9454863;47.1306419;7.2406203;8.722000122070312;1673367750.1469743;19.16745948791504;2.3709826469421387;92.1628189086914
81;1673367750.1625924;47.1306418;7.2406204;8.917000770568848;1673367750.3261056;19.38919448852539;0.6084547638893127;92.02806854248047
82;1673367750.3417413;47.1306418;7.2406204;9.112000465393066;1673367750.5145102;19.25031280517578;-1.5764133930206299;91.5774917602539
83;1673367750.5320935;47.1306419;7.2406204999999995;9.312000274658203;1673367750.7131345;19.04831314086914;1.5463840961456299;91.83160400390625
84;1673367750.7297282;47.1306419;7.2406204;9.511000633239746;1673367750.9023294;19.0087947845459;1.6379271745681763;92.04792022705078
85;1673367750.9200528;47.1306418;7.2406204;9.706000328063965;1673367751.0949898;18.951160430908203;-1.9246541261672974;91.51909637451172
86;1673367751.1115644;47.1306418;7.2406204;9.903000831604004;1673367751.2943196;19.053457260131836;0.9538668394088745;91.92861938476562
87;1673367751.3109171;47.1306417;7.2406204;10.10200023651123;1673367751.515904;19.129810333251953;1.243138074874878;92.05252075195312
88;1673367751.534549;47.1306417;7.2406204;10.343000411987305;1673367751.7256827;20.54842185974121;-1.1648410558700562;91.79295349121094
89;1673367751.7433963;47.1306418;7.2406201;10.692000389099121;1673367751.924712;19.999849319458008;0.2666015028953552;91.98902893066406
90;1673367751.939351;47.1306419;7.2406196;11.074000358581543;1673367752.136768;18.045188903808594;2.9659550189971924;92.3585205078125
91;1673367752.1533632;47.1306419;7.240619;11.464000701904297;1673367752.375504;17.228805541992188;-0.32444533705711365;91.74331665039062
92;1673367752.3887086;47.1306419;7.2406185;11.859000205993652;1673367752.5581498;16.76976203918457;-0.5390077233314514;91.7679214477539
93;1673367752.5728045;47.1306419;7.2406182999999995;12.259000778198242;1673367752.7417312;16.763389587402344;2.2772514820098877;92.23187255859375
94;1673367752.759299;47.1306418;7.2406182;12.66200065612793;1673367752.943859;16.891620635986328;-0.28402307629585266;91.84771728515625
95;1673367752.962403;47.1306419;7.2406182999999995;13.068000793457031;1673367753.1412904;17.231544494628906;-1.0940653085708618;91.63658905029297
96;1673367753.1578834;47.1306419;7.2406185;13.472001075744629;1673367753.3376465;17.862045288085938;2.478350877761841;92.19994354248047
97;1673367753.3581412;47.1306419;7.2406187;13.87700080871582;1673367753.5667205;18.192581176757812;0.7706156969070435;92.01304626464844
98;1673367753.5914168;47.130641999999995;7.240619;14.281001091003418;1673367753.753042;18.594131469726562;-1.06791090965271;91.67103576660156
99;1673367753.7657359;47.130641999999995;7.240619199999999;14.6850004196167;1673367754.0235596;18.68014144897461;2.121493339538574;92.16720581054688
100;1673367754.040259;47.1306419;7.240619499999999;15.092000961303711;1673367754.1940084;19.025453567504883;0.8265222907066345;91.9207534790039
101;1673367754.2072349;47.130641999999995;7.2406196;15.50300121307373;1673367754.3654487;18.88028907775879;-1.1811304092407227;91.55890655517578
102;1673367754.3791573;47.130641999999995;7.2406197;15.915000915527344;1673367754.5472898;18.762969970703125;2.081273078918457;92.01798248291016
103;1673367754.5638733;47.130641999999995;7.2406197;16.326000213623047;1673367754.7252975;18.522018432617188;1.2296063899993896;92.01874542236328
104;1673367754.7428563;47.130641999999995;7.2406197;16.733001708984375;1673367754.959321;18.542415618896484;-1.5191128253936768;91.56263732910156
105;1673367754.9759007;47.130641999999995;7.2406196;17.141000747680664;1673367755.1841903;18.52950668334961;1.5619697570800781;92.0969009399414
106;1673367755.2029781;47.130641999999995;7.2406196;17.54800033569336;1673367755.4027445;18.21452522277832;1.2639747858047485;92.02152252197266
107;1673367755.4222655;47.130641999999995;7.2406196;17.954999923706055;1673367755.5815005;18.33580207824707;-1.141053318977356;91.5316390991211
108;1673367755.5981247;47.130642099999996;7.2406196;18.362001419067383;1673367755.7785025;18.34769058227539;1.6580644845962524;91.98230743408203
109;1673367755.7975907;47.130642099999996;7.2406196;18.768001556396484;1673367755.9923542;18.44574737548828;1.9821293354034424;92.1336898803711
110;1673367756.0050402;47.130642099999996;7.2406196;19.167001724243164;1673367756.1659446;18.264463424682617;-1.6064972877502441;91.61038208007812
111;1673367756.1805875;47.130642099999996;7.2406196;19.567001342773438;1673367756.3497827;18.469226837158203;0.9663175940513611;91.99092864990234
112;1673367756.3683264;47.130642099999996;7.2406197;19.972000122070312;1673367756.537372;18.50141143798828;1.9977161884307861;92.09619903564453
113;1673367756.5529864;47.1306422;7.2406197;20.381000518798828;1673367756.7475398;18.611434936523438;-1.1500920057296753;91.5990982055664
114;1673367756.7665153;47.1306423;7.2406197;20.78900146484375;1673367756.951998;18.390810012817383;1.2286632061004639;91.85163116455078
115;1673367756.9695652;47.1306424;7.2406197;21.196001052856445;1673367757.149319;18.59752655029297;2.122701406478882;92.03028106689453
116;1673367757.1678827;47.1306424;7.2406197;21.59800148010254;1673367757.3192976;18.472270965576172;-0.5846039652824402;91.67713165283203
117;1673367757.3329475;47.1306424;7.2406197;22.001001358032227;1673367757.514811;18.51080894470215;0.4418632686138153;91.7964096069336
118;1673367757.533354;47.1306424;7.2406197;22.402000427246094;1673367757.7199795;18.414552688598633;2.6906063556671143;92.1760482788086
119;1673367757.7375593;47.1306424;7.2406197;22.802001953125;1673367757.94129;18.616069793701172;-0.46758660674095154;91.64242553710938
120;1673367757.9578805;47.1306425;7.2406197;23.20400047302246;1673367758.1467884;18.469532012939453;0.5677972435951233;91.83989715576172
121;1673367758.1717234;47.130642599999995;7.2406196;23.60700035095215;1673367758.3661318;18.547725677490234;2.7701141834259033;92.24174499511719
122;1673367758.380772;47.130642599999995;7.2406196;24.010000228881836;1673367758.6061165;18.273300170898438;-0.5362207889556885;91.73296356201172
123;1673367758.6276264;47.130642599999995;7.240619499999999;24.408000946044922;1673367758.7847834;18.317737579345703;-0.24301454424858093;91.68455505371094
124;1673367758.80043;47.130642599999995;7.240619499999999;24.810001373291016;1673367758.9887197;18.422534942626953;2.8255364894866943;92.19871520996094
125;1673367759.00434;47.130642599999995;7.240619499999999;25.216001510620117;1673367759.1524262;18.1920166015625;0.1320803165435791;91.73625183105469
126;1673367759.1681185;47.130642699999996;7.2406194;25.621000289916992;1673367759.345738;18.31324577331543;-0.34865209460258484;91.5750961303711
127;1673367759.3613555;47.130642699999996;7.2406194;26.027000427246094;1673367759.5413036;18.40595245361328;3.136270523071289;92.29414367675781
128;1673367759.5559728;47.130642699999996;7.2406194;26.429000854492188;1673367759.738692;18.575220108032227;0.171378031373024;91.85530853271484
129;1673367759.7603188;47.130642599999995;7.240619499999999;26.825000762939453;1673367759.9620547;18.5214786529541;-0.9120977520942688;91.66873168945312
130;1673367759.976695;47.130642599999995;7.240619499999999;27.22300148010254;1673367760.1330485;18.444259643554688;2.5265426635742188;92.15196990966797
131;1673367760.1486504;47.130642599999995;7.240619499999999;27.62700080871582;1673367760.322442;18.559734344482422;0.9578269124031067;91.93482971191406
132;1673367760.3361187;47.130642699999996;7.240619499999999;28.032001495361328;1673367760.5278158;18.55221939086914;-0.5103459358215332;91.64458465576172
133;1673367760.5434167;47.130642699999996;7.240619499999999;28.434001922607422;1673367760.7222645;18.53304672241211;2.9035139083862305;92.19974517822266
134;1673367760.7389858;47.130642699999996;7.240619499999999;28.83700180053711;1673367760.9274118;18.443023681640625;1.4779661893844604;92.0844955444336
135;1673367760.9431844;47.130642699999996;7.240619499999999;29.244001388549805;1673367761.131285;18.446531295776367;-0.5744941234588623;91.57206726074219
136;1673367761.1479232;47.130642699999996;7.240619499999999;29.6460018157959;1673367761.3346193;18.488370895385742;2.3806357383728027;91.91423797607422
137;1673367761.35528;47.130642699999996;7.240619499999999;30.045001983642578;1673367761.539885;18.437538146972656;1.8729398250579834;92.02619934082031
138;1673367761.556534;47.130642699999996;7.2406196;30.44500160217285;1673367761.7467895;18.665653228759766;-0.842965304851532;91.64146423339844
139;1673367761.7624202;47.130642599999995;7.2406196;30.84600067138672;1673367761.9236562;18.544191360473633;1.5324018001556396;91.94196319580078
140;1673367761.939268;47.1306425;7.2406196;31.246002197265625;1673367762.1181784;18.547636032104492;2.1469624042510986;92.11854553222656
141;1673367762.1406503;47.1306424;7.2406196;31.6460018157959;1673367762.3387556;18.501548767089844;-0.8950827121734619;91.659912109375
142;1673367762.3583386;47.1306424;7.2406196;32.04300308227539;1673367762.546805;18.535564422607422;0.9073457717895508;91.82734680175781
143;1673367762.5624208;47.1306424;7.2406196;32.4370002746582;1673367762.7343493;18.642532348632812;2.6727325916290283;92.15660858154297
144;1673367762.7509425;47.1306424;7.2406197;32.8390007019043;1673367762.938672;18.47901153564453;-0.5273129343986511;91.70349884033203
145;1673367762.9533246;47.1306424;7.2406197;33.2400016784668;1673367763.119613;18.594417572021484;0.8992417454719543;91.82501220703125
146;1673367763.135229;47.1306424;7.240619799999999;33.643001556396484;1673367763.3044286;18.558887481689453;2.6367576122283936;92.220458984375
147;1673367763.327043;47.1306423;7.240619799999999;34.047000885009766;1673367763.5137658;18.64006996154785;-0.6216442584991455;91.7275161743164
148;1673367763.5353189;47.1306423;7.240619799999999;34.44600296020508;1673367763.7200575;18.610132217407227;0.1511387974023819;91.74313354492188
149;1673367763.7346914;47.1306423;7.240619799999999;34.84300231933594;1673367763.9134524;18.5435791015625;2.8743579387664795;92.17945861816406
150;1673367763.9310083;47.1306423;7.2406197;35.24500274658203;1673367764.1243997;18.44207191467285;-0.2830590605735779;91.74386596679688
151;1673367764.1400886;47.1306424;7.2406197;35.647003173828125;1673367764.3276992;18.568025588989258;0.13268567621707916;91.71862030029297
152;1673367764.3443868;47.1306423;7.2406197;36.051002502441406;1673367764.5308552;18.541160583496094;2.6117730140686035;92.25077819824219
153;1673367764.5484228;47.1306423;7.2406197;36.457000732421875;1673367764.7380798;18.522062301635742;-0.025756336748600006;91.86238861083984
154;1673367764.75272;47.1306423;7.2406197;36.8640022277832;1673367765.000806;18.567564010620117;-0.10200899094343185;91.7218017578125
155;1673367765.017529;47.1306424;7.2406197;37.26300048828125;1673367765.202286;18.44785499572754;3.2537143230438232;92.24329376220703
156;1673367765.2169895;47.1306425;7.2406197;37.66200256347656;1673367765.3805087;18.550268173217773;0.4600698947906494;91.84159088134766
157;1673367765.3971095;47.130642599999995;7.2406197;38.066001892089844;1673367765.599632;18.588245391845703;-0.1942814439535141;91.64922332763672
158;1673367765.611502;47.130642599999995;7.2406197;38.47300338745117;1673367765.8206205;18.470077514648438;3.096837043762207;92.19912719726562
159;1673367765.8323307;47.1306425;7.2406197;38.87800216674805;1673367766.0446393;18.463163375854492;1.0032696723937988;91.89337921142578
160;1673367766.0565145;47.1306425;7.240619799999999;39.28300094604492;1673367766.2010443;18.481765747070312;-0.5282612442970276;91.64291381835938
161;1673367766.2133045;47.130642599999995;7.240619799999999;39.68100357055664;1673367766.3519735;18.54022979736328;3.0431454181671143;92.12763214111328
162;1673367766.36856;47.130642599999995;7.240619799999999;40.0780029296875;1673367766.5396278;18.472610473632812;1.5106691122055054;91.99034881591797
163;1673367766.554426;47.130642599999995;7.240619799999999;40.47700119018555;1673367766.7437568;18.592409133911133;-0.9168553948402405;91.65156555175781
164;1673367766.7632778;47.1306425;7.240619799999999;40.87700271606445;1673367766.9314222;18.650728225708008;2.188601016998291;92.053955078125
165;1673367766.9489787;47.1306425;7.240619799999999;41.27900314331055;1673367767.132724;18.46569061279297;1.9539594650268555;92.04498291015625
166;1673367767.1522534;47.1306425;7.240619799999999;41.68000030517578;1673367767.3393333;18.602264404296875;-0.8028874397277832;91.51714324951172
167;1673367767.3569028;47.130642599999995;7.240619799999999;42.08100128173828;1673367767.5374725;18.644689559936523;2.146177291870117;91.92211151123047
168;1673367767.5550447;47.130642599999995;7.240619799999999;42.47700119018555;1673367767.7294774;18.633214950561523;2.3596994876861572;92.11278533935547
169;1673367767.7461114;47.1306425;7.240619799999999;42.874000549316406;1673367767.9523106;18.50208854675293;-0.6312714219093323;91.68070220947266
170;1673367767.9728074;47.1306425;7.2406197;43.2760009765625;1673367768.1506488;18.498811721801758;1.3979860544204712;91.99710083007812
171;1673367768.1672404;47.1306425;7.2406197;43.682003021240234;1673367768.3647947;18.488037109375;2.6172356605529785;92.1647720336914
172;1673367768.380408;47.1306425;7.2406197;44.090003967285156;1673367768.5479777;18.4196720123291;-0.6119555234909058;91.6637954711914
173;1673367768.562616;47.1306425;7.2406197;44.496002197265625;1673367768.7426481;18.56819725036621;1.260448694229126;91.8290023803711
174;1673367768.7602146;47.1306425;7.2406197;44.89600372314453;1673367768.9423034;18.546222686767578;2.8812379837036133;92.22344207763672
175;1673367768.9610665;47.1306425;7.2406197;45.2920036315918;1673367769.139598;18.615041732788086;-0.4922288656234741;91.71590423583984
176;1673367769.154237;47.1306425;7.2406197;45.695003509521484;1673367769.3273752;18.590049743652344;0.9391559958457947;91.89892578125
177;1673367769.3439665;47.1306425;7.2406197;46.09800338745117;1673367769.540905;18.552005767822266;2.9203948974609375;92.24085235595703
178;1673367769.5526521;47.1306425;7.2406197;46.500003814697266;1673367769.751756;18.45531463623047;-0.5298746824264526;91.71971130371094
179;1673367769.7661247;47.1306425;7.2406196;46.9010009765625;1673367769.9417193;18.524181365966797;0.9354182481765747;91.84165954589844
180;1673367769.9583108;47.1306425;7.2406196;47.301002502441406;1673367770.1421735;18.53607749938965;3.0154364109039307;92.2081069946289
181;1673367770.1628318;47.1306425;7.2406196;47.69600296020508;1673367770.3949733;18.51790428161621;0.08400299400091171;91.8831787109375
182;1673367770.4121058;47.1306425;7.2406196;48.090003967285156;1673367770.5817406;18.492067337036133;0.5163730978965759;91.72512817382812
183;1673367770.597358;47.1306425;7.2406197;48.452003479003906;1673367770.7838006;18.407270431518555;2.9140427112579346;92.14382934570312
184;1673367770.7994173;47.1306425;7.240619799999999;48.7660026550293;1673367770.9647355;18.69626235961914;0.0012113956036046147;91.58235931396484
185;1673367770.978075;47.130642599999995;7.2406201;49.03200149536133;1673367771.148996;19.05722999572754;0.29728424549102783;91.62722778320312
186;1673367771.1636233;47.130642599999995;7.2406204999999995;49.25300216674805;1673367771.3485782;23.603952407836914;1.210235834121704;91.00765991210938
187;1673367771.362224;47.130642599999995;7.240620799999999;49.43000411987305;1673367771.5459323;27.816055297851562;7.378378868103027;84.10986328125
188;1673367771.5635047;47.1306425;7.240620799999999;49.55500411987305;1673367771.7327604;30.169607162475586;6.9962310791015625;70.5500259399414
189;1673367771.749352;47.130642099999996;7.2406204;49.612003326416016;1673367771.9322534;18.83621597290039;-9.69084644317627;60.30385208129883
190;1673367771.9502685;47.130641;7.2406197;49.66800308227539;1673367772.1531115;21.425682067871094;-10.761711120605469;52.55104064941406
191;1673367772.1685836;47.1306399;7.240618899999999;49.724002838134766;1673367772.3592656;17.432262420654297;-14.036627769470215;44.898555755615234
192;1673367772.376097;47.1306387;7.240617899999999;49.77400207519531;1673367772.539374;13.095430374145508;-17.718616485595703;35.834781646728516
193;1673367772.5560377;47.1306374;7.240616999999999;49.816001892089844;1673367772.724798;9.17906665802002;-17.80038070678711;26.00222396850586
194;1673367772.740507;47.1306363;7.2406160999999996;49.845001220703125;1673367772.9248297;4.720273017883301;-16.887861251831055;16.100194931030273
195;1673367772.9439957;47.130635299999994;7.2406153;49.87000274658203;1673367773.1339622;-0.25141534209251404;-16.06485939025879;6.709198474884033
196;1673367773.1512978;47.130634699999995;7.2406147;49.89600372314453;1673367773.3792548;-4.908449649810791;-16.826000213623047;-2.728060007095337
197;1673367773.3930306;47.130634199999996;7.2406143;49.92000198364258;1673367773.5561817;-7.362992286682129;-18.066686630249023;-12.444755554199219
198;1673367773.5802417;47.130634099999995;7.2406142;49.94200134277344;1673367773.7681086;-8.493706703186035;-19.697643280029297;-21.748538970947266
199;1673367773.7808652;47.130634099999995;7.2406142;49.96000289916992;1673367773.9592235;-9.500865936279297;-20.52190399169922;-30.21747589111328
200;1673367773.9769328;47.130634199999996;7.240614099999999;49.96800231933594;1673367774.1737134;-11.820027351379395;-19.34273910522461;-38.764122009277344
201;1673367774.1937954;47.1306343;7.2406139;49.97200393676758;1673367774.3833172;-14.741703987121582;-16.543590545654297;-47.56941604614258
202;1673367774.400922;47.1306343;7.2406137;49.983001708984375;1673367774.6140182;-17.16803741455078;-13.093708038330078;-51.88283157348633
203;1673367774.627682;47.130634199999996;7.240613199999999;49.996002197265625;1673367774.7946928;-15.940135955810547;-11.310430526733398;-49.371341705322266
204;1673367774.8103094;47.130634099999995;7.2406127;50.00700378417969;1673367774.9789035;-14.63499927520752;-12.756418228149414;-46.214359283447266
205;1673367774.997982;47.130634;7.2406121;50.012001037597656;1673367775.1717474;-13.393548965454102;-15.319140434265137;-44.94805145263672
206;1673367775.1859882;47.130634;7.2406117;50.018001556396484;1673367775.3503442;-11.988186836242676;-17.70218849182129;-44.241249084472656
207;1673367775.367911;47.130634;7.2406112;50.018001556396484;1673367775.5563605;-11.511052131652832;-17.221473693847656;-44.120243072509766
208;1673367775.5719774;47.1306339;7.2406108;50.01300048828125;1673367775.7614095;-12.066018104553223;-16.179582595825195;-44.0263671875
209;1673367775.7780056;47.1306338;7.2406105;50.012001037597656;1673367775.9477522;-13.382847785949707;-13.363059043884277;-44.541770935058594
210;1673367775.9653165;47.130633599999996;7.240610299999999;50.01300048828125;1673367776.142171;-14.147193908691406;-12.40847110748291;-44.64493179321289
211;1673367776.1567945;47.1306334;7.2406102;50.01300048828125;1673367776.327059;-14.174821853637695;-11.981998443603516;-44.80305099487305
212;1673367776.343657;47.1306332;7.2406101;50.01400375366211;1673367776.519602;-22.209941864013672;-14.47150707244873;-44.15653610229492
213;1673367776.5422003;47.1306331;7.2406099;50.00800323486328;1673367776.7353384;-41.611324310302734;-12.716291427612305;-45.375099182128906
214;1673367776.751927;47.130633599999996;7.240609;50.0150032043457;1673367776.9487314;-54.364986419677734;-9.622015953063965;-47.52516555786133
215;1673367776.9670286;47.1306355;7.2406063;50.031002044677734;1673367777.144852;-59.218910217285156;-5.986370086669922;-49.62094497680664
216;1673367777.1618729;47.1306394;7.240601;50.03900146484375;1673367777.3298059;-56.329612731933594;-4.170999526977539;-51.54524230957031
217;1673367777.354919;47.1306455;7.2405927;50.03900146484375;1673367777.545419;-54.910640716552734;-3.5722272396087646;-51.44173049926758
218;1673367777.5659068;47.1306532;7.240582;50.03900146484375;1673367777.7459254;-56.32145309448242;-4.612997531890869;-50.45977783203125
219;1673367777.7597766;47.1306624;7.2405694;50.03200149536133;1673367777.9432092;-53.66659164428711;-5.4973530769348145;-49.611995697021484
220;1673367777.9630089;47.1306728;7.2405551;50.0150032043457;1673367778.1509306;-52.84564971923828;-5.688434600830078;-49.15816116333008
221;1673367778.1678908;47.130684099999996;7.240539399999999;49.996002197265625;1673367778.355118;-52.34425354003906;-5.356961727142334;-48.77533721923828
222;1673367778.370824;47.1306963;7.2405228;49.98100280761719;1673367778.5500164;-50.407249450683594;-5.833488464355469;-48.570003509521484
223;1673367778.5668976;47.1307092;7.2405054;49.967002868652344;1673367778.7408888;-49.7935905456543;-6.555777549743652;-48.470516204833984
224;1673367778.7579439;47.1307225;7.240487399999999;49.94900131225586;1673367778.92624;-48.47904586791992;-6.879932880401611;-48.49322509765625
225;1673367778.9409673;47.1307361;7.2404689;49.935001373291016;1673367779.1268747;-48.01042556762695;-7.528764247894287;-48.46571350097656
226;1673367779.147858;47.1307498;7.2404503;49.92100143432617;1673367779.330774;-48.504051208496094;-8.133098602294922;-48.44852066040039
227;1673367779.3475082;47.130763699999996;7.2404313;49.913002014160156;1673367779.5378392;-47.608741760253906;-9.021717071533203;-49.1479606628418
228;1673367779.5534549;47.130777599999995;7.240412;49.913002014160156;1673367779.7256389;-48.12077713012695;-7.236825942993164;-50.570953369140625
229;1673367779.7412555;47.1307915;7.240392399999999;49.915000915527344;1673367779.9183774;-48.3848762512207;-7.592444896697998;-50.253631591796875
230;1673367779.9362648;47.1308054;7.2403726;49.919002532958984;1673367780.1343505;-47.57904052734375;-9.252604484558105;-49.86359405517578
231;1673367780.15195;47.1308193;7.2403526;49.93000411987305;1673367780.3744323;-48.05460739135742;-10.968371391296387;-49.85514831542969
232;1673367780.3957362;47.130832999999996;7.2403324;49.94000244140625;1673367780.596377;-48.16923904418945;-13.219405174255371;-49.889129638671875
233;1673367780.6145895;47.1308465;7.2403118;49.94300079345703;1673367780.798402;-47.532527923583984;-10.036101341247559;-51.5014762878418
234;1673367780.8136082;47.1308596;7.2402909;49.94600296020508;1673367780.9815044;-46.937129974365234;-14.896771430969238;-49.92121887207031
235;1673367780.995251;47.1308726;7.2402695999999995;49.954002380371094;1673367781.1643224;-27.338008880615234;-24.422277450561523;-53.219669342041016
236;1673367781.185583;47.1308849;7.2402481;49.983001708984375;1673367781.3653271;22.230934143066406;-26.26261329650879;-59.70126724243164
237;1673367781.3809738;47.1308955;7.2402282;49.987003326416016;1673367781.5725179;24.2393798828125;-7.559452533721924;-64.48065185546875
238;1673367781.5875177;47.1309044;7.2402118;49.80500411987305;1673367781.7521152;16.024757385253906;-4.48050594329834;-51.21010208129883
239;1673367781.7693434;47.1309117;7.2401998;49.458003997802734;1673367781.9643595;14.021347045898438;-3.2323970794677734;-47.31325912475586
240;1673367781.9864614;47.1309172;7.2401922;49.105003356933594;1673367782.204308;12.766270637512207;-4.427888870239258;-47.16230773925781
241;1673367782.237318;47.130921199999996;7.2401884999999995;48.85000228881836;1673367782.4063656;11.013288497924805;-6.809738636016846;-47.03903579711914
242;1673367782.426948;47.130923599999996;7.2401881999999995;48.74100112915039;1673367782.5939882;12.057958602905273;-9.610304832458496;-46.424190521240234
243;1673367782.6066742;47.130924799999995;7.2401903999999995;48.78600311279297;1673367782.7722661;32.96918869018555;-29.838363647460938;-46.576988220214844
244;1673367782.7894099;47.130924199999995;7.240194799999999;48.95000076293945;1673367782.9575927;28.003015518188477;-34.18711471557617;-41.882816314697266
245;1673367782.9702811;47.130921099999995;7.240200499999999;49.13600158691406;1673367783.1439645;13.831185340881348;-36.18806076049805;-43.01725769042969
246;1673367783.15959;47.130915699999996;7.240206499999999;49.31100082397461;1673367783.3570583;-2.8075242042541504;-33.071598052978516;-45.27347946166992
247;1673367783.3785322;47.130908899999994;7.240212;49.45100402832031;1673367783.5701149;-16.928937911987305;-24.171470642089844;-47.23249435424805
248;1673367783.588437;47.1309018;7.2402163999999996;49.56200408935547;1673367783.7667665;-24.535202026367188;-13.699440956115723;-48.85757827758789
249;1673367783.782923;47.1308952;7.2402196;49.650001525878906;1673367783.9795063;-15.969304084777832;-16.073772430419922;-49.73237228393555
250;1673367783.9969945;47.130889599999996;7.2402219;49.7130012512207;1673367784.153514;2.1881141662597656;-21.42133140563965;-49.878177642822266
251;1673367784.1701179;47.1308842;7.2402237;49.768001556396484;1673367784.3610134;22.325347900390625;-17.71131134033203;-49.100460052490234
252;1673367784.3795753;47.130878499999994;7.240226;49.81800079345703;1673367784.5707772;35.032928466796875;16.88140296936035;-44.283687591552734
253;1673367784.5860837;47.1308727;7.2402291;49.6670036315918;1673367784.7488413;41.58073043823242;64.82433319091797;-32.354393005371094
254;1673367784.7665722;47.130867099999996;7.2402321999999995;49.130001068115234;1673367784.954938;39.801246643066406;109.60942077636719;-23.98238182067871
255;1673367784.977538;47.130861499999995;7.2402352;48.211002349853516;1673367785.1548107;39.37251281738281;137.0399169921875;-25.810894012451172
256;1673367785.1684747;47.1308559;7.240238199999999;46.926002502441406;1673367785.336723;48.689937591552734;147.3367462158203;-33.62726593017578
257;1673367785.3513663;47.1308504;7.2402413999999995;45.275001525878906;1673367785.5373101;66.99324798583984;127.8644027709961;-60.19150924682617
258;1673367785.5539038;47.130845;7.240244799999999;43.26100158691406;1673367785.7413027;56.09248733520508;35.501609802246094;-148.58177185058594
259;1673367785.7569911;47.130839699999996;7.240248299999999;40.88800048828125;1673367785.9507592;7.938372611999512;0.038879260420799255;-165.6104736328125
260;1673367785.9753227;47.130834199999995;7.240252;38.13800048828125;1673367786.171538;-37.996482849121094;-34.31613540649414;-152.98367309570312
261;1673367786.193555;47.130828799999996;7.240255899999999;34.987003326416016;1673367786.3750896;-54.957454681396484;-74.31593322753906;-127.40157318115234
262;1673367786.3938148;47.1308237;7.2402599;31.479001998901367;1673367786.5714278;-56.60016632080078;-69.33897399902344;-142.423828125
263;1673367786.5969164;47.1308188;7.2402638999999995;27.6460018157959;1673367786.7585995;-32.14366149902344;-29.333086013793945;170.73223876953125
264;1673367786.7742248;47.130814;7.2402679999999995;23.48400115966797;1673367786.95025;23.990644454956055;-11.92714786529541;146.34039306640625
265;1673367786.9629207;47.1308095;7.2402716;18.93600082397461;1673367787.154439;67.96239471435547;-10.868999481201172;127.718017578125
266;1673367787.1720057;47.1308047;7.2402754;14.00100040435791;1673367787.3634636;70.34517669677734;-17.251283645629883;109.28634643554688
267;1673367787.3839667;47.1307998;7.240279699999999;8.756999969482422;1673367787.5847032;29.060400009155273;-4.5046162605285645;113.0623779296875
268;1673367787.6032925;47.130794699999996;7.240284699999999;3.205000162124634;1673367787.77867;-11.970141410827637;11.736845970153809;116.3308334350586
269;1673367787.7938547;47.130787999999995;7.240293299999999;0.11900000274181366;1673367787.9774935;-17.35601806640625;10.110611915588379;119.94587707519531
270;1673367787.9960673;47.1307791;7.240308;0.22300000488758087;1673367788.2213278;-11.417386054992676;8.350584983825684;119.83692932128906
271;1673367788.2449024;47.1307705;7.240322399999999;0.2540000081062317;1673367788.4026897;-11.251834869384766;9.120536804199219;119.29917907714844
272;1673367788.4183064;47.1307611;7.2403372;0.26600000262260437;1673367788.6157238;-11.068670272827148;9.398633003234863;119.14302825927734
273;1673367788.632322;47.130751599999996;7.2403512;0.2710000276565552;1673367788.79034;-10.818988800048828;9.758371353149414;118.8622817993164
274;1673367788.802038;47.1307427;7.240363299999999;0.2760000228881836;1673367788.9774272;-10.448851585388184;10.091068267822266;118.57449340820312
275;1673367788.992592;47.1307347;7.240373399999999;0.2840000092983246;1673367789.1525846;-10.243853569030762;10.203109741210938;118.3779525756836
276;1673367789.1682007;47.130725399999996;7.2403843;0.2850000262260437;1673367789.341263;-10.176876068115234;10.370477676391602;118.2709732055664
277;1673367789.3600338;47.1307134;7.2403983;0.26600000262260437;1673367789.595876;-10.09366512298584;10.445843696594238;118.16429138183594
278;1673367789.6469388;47.1307008;7.2404128;0.23000000417232513;1673367789.8214734;-10.055808067321777;10.53783130645752;118.0610122680664
279;1673367789.8361125;47.130686399999995;7.2404288;0.1850000023841858;1673367790.003886;-10.051590919494629;10.533930778503418;117.94864654541016
280;1673367790.0202084;47.130671;7.2404454;0.13500000536441803;1673367790.1861336;-9.988032341003418;10.515565872192383;117.8987045288086
281;1673367790.199945;47.1306547;7.240462699999999;0.08300000429153442;1673367790.3760517;-9.91037368774414;10.420576095581055;117.83952331542969
282;1673367790.3925712;47.1306376;7.2404803;0.029000001028180122;1673367790.5618281;-9.879234313964844;10.285028457641602;117.80093383789062
283;1673367790.5788753;47.1306197;7.2404983;-0.026000000536441803;1673367790.756866;-9.866094589233398;10.235289573669434;117.79032135009766
284;1673367790.771827;47.130601;7.2405167;-0.0860000029206276;1673367790.9527297;-9.792923927307129;10.097055435180664;117.758056640625
285;1673367790.9978547;47.1305815;7.240535599999999;-0.16200000047683716;1673367791.1709707;-9.733603477478027;9.98017406463623;117.77098083496094
286;1673367791.1857474;47.1305613;7.2405547;-0.24400001764297485;1673367791.361897;-9.694464683532715;9.85197925567627;117.74495697021484
287;1673367791.3790555;47.1305404;7.2405741;-0.3150000274181366;1673367791.5550628;-9.68940258026123;9.751261711120605;117.73757934570312
288;1673367791.573739;47.130517999999995;7.2405946;-0.3830000162124634;1673367791.7517726;-9.61026382446289;9.640202522277832;117.7359390258789
289;1673367791.7693152;47.130496799999996;7.240613799999999;-0.4410000145435333;1673367791.963914;-9.563517570495605;9.543487548828125;117.7154769897461
290;1673367791.9848356;47.130474;7.240634099999999;-0.5010000467300415;1673367792.1569893;-9.518433570861816;9.450735092163086;117.70405578613281
291;1673367792.177913;47.1304504;7.2406548;-0.581000030040741;1673367792.3546941;-9.507182121276855;9.3604736328125;117.70799255371094
292;1673367792.3699374;47.130426;7.240675899999999;-0.6640000343322754;1673367792.5497372;-9.43498420715332;9.273537635803223;117.74024200439453
293;1673367792.5670927;47.130401299999996;7.240697099999999;-0.7260000109672546;1673367792.7728596;-9.42367935180664;9.204751014709473;117.71941375732422
294;1673367792.7888794;47.1303761;7.2407186;-0.7770000100135803;1673367792.9660172;-9.347832679748535;9.142411231994629;117.75418853759766
295;1673367792.9808497;47.1303504;7.240740499999999;-0.8220000267028809;1673367793.180911;-9.307101249694824;9.067614555358887;117.76436614990234
296;1673367793.196087;47.130323999999995;7.2407626;-0.862000048160553;1673367793.3625517;-9.302068710327148;8.992228507995605;117.790283203125
297;1673367793.3807728;47.1302971;7.240785;-0.8980000615119934;1673367793.5471373;-9.333738327026367;8.950684547424316;117.81539916992188
298;1673367793.5629125;47.1302692;7.2408079;-0.9540000557899475;1673367793.7388194;-9.27394962310791;8.885103225708008;117.84761047363281
299;1673367793.7560134;47.1302406;7.2408312;-1.0150001049041748;1673367793.9338536;-9.324481964111328;8.780566215515137;117.83944702148438
300;1673367793.949855;47.1302254;7.240843399999999;-1.0509999990463257;1673367794.1309278;-9.277688980102539;8.680541038513184;117.8826675415039
301;;;;;1673367794.353788;-9.186605453491211;8.61344051361084;117.91218566894531
302;;;;;1673367794.5659354;-9.077183723449707;8.834893226623535;117.91593933105469
303;;;;;1673367794.7618747;-9.073956489562988;8.855493545532227;117.90086364746094
