;pos_time;latitude;longitude;altitude;alt_time;pitch;roll;yaw
0;1673367213.944677;47.1306425;7.2406206;-0.03800000250339508;1673367214.1370983;-0.07696493715047836;-0.5630255341529846;89.87625122070312
1;1673367214.180043;47.1306425;7.2406204999999995;-0.039000000804662704;1673367214.352229;-0.071930430829525;-0.2812349498271942;89.97026062011719
2;1673367214.4068832;47.1306425;7.2406204;-0.04100000113248825;1673367214.5444176;0.16893072426319122;-0.19693155586719513;89.86458587646484
3;1673367214.5864644;47.1306425;7.2406203;-0.04200000315904617;1673367214.7353652;0.2327239215373993;-0.39954841136932373;90.07453918457031
4;1673367214.7831883;47.1306425;7.2406201999999995;-0.04500000178813934;1673367214.9347265;0.15040719509124756;-0.34984561800956726;90.0218505859375
5;1673367214.9776704;47.1306424;7.2406201999999995;-0.04500000178813934;1673367215.1359365;0.039479710161685944;-0.2754111886024475;89.84825897216797
6;1673367215.1808329;47.1306424;7.2406201999999995;-0.04700000211596489;1673367215.330446;0.25117233395576477;-0.4002501666545868;89.74080657958984
7;1673367215.377293;47.1306424;7.2406201;-0.049000002443790436;1673367215.5298789;0.10901043564081192;-0.1902507096529007;89.86432647705078
8;1673367215.5728815;47.1306424;7.2406201;-0.04800000041723251;1673367215.7344005;0.057825718075037;-0.41502901911735535;89.93431854248047
9;1673367215.7900305;47.1306423;7.2406201;-0.046000003814697266;1673367215.9711995;-0.09964016824960709;-0.27881863713264465;89.79779052734375
10;1673367216.0225272;47.1306423;7.2406201;0.0020000000949949026;1673367216.1909375;-0.10360969603061676;-0.36136963963508606;89.81614685058594
11;1673367216.2315524;47.1306423;7.2406201;0.006000000052154064;1673367216.3738317;-0.06582797318696976;-0.3377801179885864;89.85095977783203
12;1673367216.4109237;47.1306423;7.2406201999999995;0.006000000052154064;1673367216.548705;0.18413709104061127;-0.3119249641895294;89.85159301757812
13;1673367216.6033957;47.1306423;7.2406201999999995;0.009000000543892384;1673367216.7696748;0.1585286259651184;-0.48041263222694397;89.86905670166016
14;1673367216.8229353;47.1306424;7.2406201999999995;0.004000000189989805;1673367216.9721582;0.06715504825115204;-0.23240715265274048;89.69380950927734
15;1673367217.0093963;47.1306424;7.2406203;0.0010000000474974513;1673367217.1479886;0.0036022441927343607;-0.3462734818458557;89.75785064697266
16;1673367217.1910155;47.1306424;7.2406201999999995;0.0;1673367217.3710678;-0.06861218065023422;-0.12516213953495026;89.83541107177734
17;1673367217.413902;47.1306424;7.2406201999999995;0.0;1673367217.5550094;-0.10912366956472397;-0.5484282374382019;89.86400604248047
18;1673367217.604092;47.1306423;7.2406201999999995;0.0010000000474974513;1673367217.74487;0.03503553196787834;0.008378022350370884;89.94478607177734
19;1673367217.786837;47.1306423;7.2406201;0.0;1673367217.9390438;0.10538361966609955;-0.3588124215602875;89.90217590332031
20;1673367218.0020685;47.1306423;7.2406201999999995;0.0010000000474974513;1673367218.1707194;0.06638827919960022;-0.1079498901963234;89.93902587890625
21;1673367218.2041323;47.1306423;7.2406201999999995;-0.0010000000474974513;1673367218.338717;-0.0432753711938858;-0.17570139467716217;89.93775177001953
22;1673367218.386417;47.1306424;7.2406201999999995;-0.003000000026077032;1673367218.544939;-0.3498799800872803;-0.19771772623062134;89.8432388305664
23;1673367218.599979;47.1306423;7.2406201999999995;-0.004000000189989805;1673367218.7470531;-0.1572338342666626;-0.4821087718009949;89.95152282714844
24;1673367218.7839475;47.1306423;7.2406201999999995;-0.003000000026077032;1673367218.9230247;-0.20244286954402924;-0.2478005588054657;89.81592559814453
25;1673367218.9839256;47.1306423;7.2406201999999995;-0.005000000353902578;1673367219.1425872;-0.2714965343475342;-0.19007983803749084;89.83414459228516
26;1673367219.1829631;47.1306423;7.2406201999999995;-0.005000000353902578;1673367219.3469324;-0.45691412687301636;-0.22489143908023834;89.90770721435547
27;1673367219.3922539;47.1306423;7.2406201999999995;-0.00800000037997961;1673367219.537166;1.1233583688735962;-0.20308442413806915;89.77000427246094
28;1673367219.6074684;47.1306423;7.2406204;-0.0020000000949949026;1673367219.7689638;5.659839153289795;0.7265479564666748;90.78836059570312
29;1673367219.8079653;47.1306423;7.240620799999999;0.015000000596046448;1673367219.9502852;11.404273986816406;-1.1394964456558228;91.7643814086914
30;1673367219.9929254;47.1306423;7.2406212;0.04500000178813934;1673367220.150735;11.704646110534668;-1.0633772611618042;91.5507583618164
31;1673367220.2112901;47.1306424;7.2406215;0.08900000154972076;1673367220.3697965;11.057607650756836;2.0857620239257812;90.90958404541016
32;1673367220.4239647;47.1306425;7.240621699999999;0.14500001072883606;1673367220.5762606;11.326325416564941;2.590893030166626;90.47064208984375
33;1673367220.6339943;47.130642599999995;7.2406216;0.20900000631809235;1673367220.795765;10.954875946044922;-1.119840383529663;89.87091827392578
34;1673367220.8392603;47.130642599999995;7.240621399999999;0.29200002551078796;1673367220.9876933;10.777100563049316;-2.057145357131958;89.50826263427734
35;1673367221.028867;47.130642599999995;7.240621;0.39100003242492676;1673367221.193743;10.918060302734375;0.60594242811203;90.29132843017578
36;1673367221.2420993;47.1306425;7.2406207;0.49900001287460327;1673367221.3861043;10.616622924804688;2.6532294750213623;91.26484680175781
37;1673367221.4374154;47.1306424;7.2406204;0.6230000257492065;1673367221.5722117;10.858814239501953;-1.251700520515442;91.21814727783203
38;1673367221.6294336;47.1306423;7.2406201;0.7600000500679016;1673367221.775233;9.281965255737305;-1.360081672668457;90.6729736328125
39;1673367221.8439054;47.130642099999996;7.2406198999999996;0.9100000262260437;1673367221.9881868;9.292949676513672;1.4254560470581055;90.095458984375
40;1673367222.0303845;47.130641999999995;7.2406197;1.0750000476837158;1673367222.188781;9.000328063964844;-0.7348746657371521;89.7624282836914
41;1673367222.239564;47.130642099999996;7.2406196;1.2570000886917114;1673367222.395293;8.63180923461914;-2.575576066970825;89.77147674560547
42;1673367222.4407272;47.1306423;7.240619499999999;1.4420000314712524;1673367222.5945413;9.364935874938965;0.657200813293457;89.9111557006836
43;1673367222.636073;47.1306424;7.240619499999999;1.6290000677108765;1673367222.8006506;9.855694770812988;2.041463613510132;89.75634002685547
44;1673367222.8373067;47.1306424;7.240619499999999;1.8170000314712524;1673367223.000705;10.295559883117676;-1.6374133825302124;89.57334899902344
45;1673367223.0561345;47.1306424;7.240619499999999;2.004000186920166;1673367223.1885424;9.848508834838867;-1.4043266773223877;89.02655029296875
46;1673367223.233979;47.1306424;7.2406196;2.19100022315979;1673367223.4004333;10.37965202331543;1.71696138381958;88.62785339355469
47;1673367223.4409826;47.1306424;7.2406197;2.384000062942505;1673367223.5856209;9.632413864135742;1.01575767993927;88.72273254394531
48;1673367223.6286125;47.1306425;7.240619799999999;2.5830001831054688;1673367223.783549;9.390260696411133;-1.5249054431915283;89.12841796875
49;1673367223.837845;47.130642699999996;7.2406198999999996;2.7770001888275146;1673367223.9928668;9.920026779174805;0.6821450591087341;89.25554656982422
50;1673367224.0371628;47.1306428;7.2406198999999996;2.9700000286102295;1673367224.193665;9.54200267791748;3.2721261978149414;89.05885314941406
51;1673367224.2415366;47.130642699999996;7.2406198999999996;3.1620001792907715;1673367224.40703;9.707198143005371;0.5646038055419922;88.25543212890625
52;1673367224.457334;47.130642699999996;7.24062;3.3560001850128174;1673367224.6072092;10.243612289428711;-2.340756416320801;88.0520248413086
53;1673367224.6477613;47.130642599999995;7.24062;3.5510001182556152;1673367224.7977805;10.21677303314209;0.17492976784706116;88.7500991821289
54;1673367224.8383594;47.1306423;7.24062;3.747000217437744;1673367225.002063;10.555848121643066;1.253583550453186;89.12882232666016
55;1673367225.0534618;47.130642099999996;7.24062;3.942000150680542;1673367225.2099903;10.668664932250977;-2.646440029144287;88.5890884399414
56;1673367225.2603343;47.130642099999996;7.24062;4.141000270843506;1673367225.4033742;10.159547805786133;-1.8434844017028809;88.35018920898438
57;1673367225.4439218;47.1306422;7.24062;4.333000183105469;1673367225.6025975;9.968282699584961;1.9983855485916138;88.66590881347656
58;1673367225.6490402;47.1306423;7.24062;4.522000312805176;1673367225.8028913;9.600635528564453;0.3358975946903229;88.83607482910156
59;1673367225.8395474;47.1306424;7.24062;4.713000297546387;1673367226.0060718;9.328837394714355;-2.4335877895355225;88.69339752197266
60;1673367226.0540323;47.1306424;7.2406198999999996;4.902000427246094;1673367226.2178037;9.651363372802734;0.9936847686767578;88.77020263671875
61;1673367226.2598135;47.1306422;7.2406198999999996;5.093000411987305;1673367226.3911502;10.171988487243652;1.7367267608642578;88.84662628173828
62;1673367226.4503117;47.130642099999996;7.2406198999999996;5.2920002937316895;1673367226.60822;10.321606636047363;-2.1570725440979004;88.52468872070312
63;1673367226.6488156;47.130642099999996;7.2406198999999996;5.492000102996826;1673367226.8057208;10.30118465423584;-1.3260689973831177;88.05801391601562
64;1673367226.885327;47.1306422;7.24062;5.686000347137451;1673367227.0507329;10.368799209594727;2.3324990272521973;88.435791015625
65;1673367227.1095092;47.1306422;7.24062;5.883000373840332;1673367227.2302995;9.742717742919922;-0.11829797923564911;88.8404312133789
66;1673367227.26953;47.1306423;7.2406198999999996;6.085000514984131;1673367227.410699;9.494758605957031;-2.0264949798583984;88.98092651367188
67;1673367227.448315;47.1306422;7.2406198999999996;6.2910003662109375;1673367227.6001296;9.310355186462402;1.015096664428711;88.90181732177734
68;1673367227.6446035;47.130642099999996;7.2406198999999996;6.494000434875488;1673367227.7798202;9.273016929626465;1.7485028505325317;88.82957458496094
69;1673367227.824305;47.1306419;7.2406198999999996;6.695000171661377;1673367227.9713268;9.569382667541504;-2.4844207763671875;88.58814239501953
70;1673367228.012881;47.1306418;7.2406198999999996;6.89300012588501;1673367228.1628425;9.708456039428711;-1.9439231157302856;88.46953582763672
71;1673367228.2030184;47.1306419;7.24062;7.089000225067139;1673367228.3536894;10.127010345458984;2.096492290496826;88.89872741699219
72;1673367228.3985841;47.1306419;7.2406201;7.2860002517700195;1673367228.555818;10.437047958374023;0.7065635919570923;88.86886596679688
73;1673367228.5997372;47.130641999999995;7.2406201;7.485000133514404;1673367228.7541842;10.585075378417969;-2.1228599548339844;88.51683807373047
74;1673367228.8001485;47.130642099999996;7.2406201999999995;7.684000492095947;1673367228.9635215;10.665684700012207;-0.1750265657901764;88.65522766113281
75;1673367229.011173;47.130641999999995;7.2406203;7.881000518798828;1673367229.1825068;10.584573745727539;2.049769163131714;88.92768859863281
76;1673367229.2303748;47.1306418;7.2406204;8.07800006866455;1673367229.3920097;10.533166885375977;-1.2247272729873657;88.62281036376953
77;1673367229.4384348;47.1306417;7.2406204999999995;8.273000717163086;1673367229.5990536;10.16685962677002;-3.21812105178833;88.6392593383789
78;1673367229.6455312;47.1306416;7.2406204999999995;8.473999977111816;1673367229.8013687;9.91092300415039;-0.14274564385414124;88.96202087402344
79;1673367229.845939;47.1306416;7.2406204999999995;8.680000305175781;1673367229.9926717;9.668771743774414;1.1765391826629639;88.76844024658203
80;1673367230.0363736;47.1306416;7.2406204;8.879000663757324;1673367230.1931283;9.696745872497559;-2.1110739707946777;88.60324096679688
81;1673367230.2376463;47.1306418;7.2406204;9.075000762939453;1673367230.403528;9.670010566711426;-1.366822600364685;88.84540557861328
82;1673367230.4714198;47.130642099999996;7.2406204;9.272000312805176;1673367230.6413531;10.05195426940918;2.662775754928589;88.84542083740234
83;1673367230.696985;47.130642099999996;7.2406204;9.469000816345215;1673367230.8553293;10.399201393127441;1.0403239727020264;88.79078674316406
84;1673367230.9129233;47.130642099999996;7.2406204;9.664000511169434;1673367231.1120367;10.358229637145996;-2.389772653579712;88.59310913085938
85;1673367231.1410203;47.130642099999996;7.2406204;9.861000061035156;1673367231.2352953;9.712105751037598;0.36659014225006104;88.30272674560547
86;1673367231.282172;47.130642099999996;7.2406204;10.0600004196167;1673367231.4277596;10.129217147827148;1.1035712957382202;88.36070251464844
87;1673367231.4716642;47.130642099999996;7.2406204999999995;10.285000801086426;1673367231.5981379;10.262499809265137;-0.41331642866134644;88.87787628173828
88;1673367231.7417464;47.1306423;7.2406204;10.593000411987305;1673367231.8873098;11.032171249389648;-1.6809271574020386;89.33875274658203
89;1673367231.932388;47.1306424;7.2406201999999995;10.962000846862793;1673367232.0903015;10.450787544250488;1.9535017013549805;89.18510437011719
90;1673367232.1412933;47.1306425;7.240619799999999;11.349000930786133;1673367232.2963898;9.54317855834961;2.4003074169158936;88.73527526855469
91;1673367232.3409438;47.130642599999995;7.240619499999999;11.745000839233398;1673367232.4809034;8.93271255493164;-1.0319188833236694;88.52192687988281
92;1673367232.545355;47.1306425;7.240619199999999;12.142000198364258;1673367232.7069485;8.81913948059082;-1.231100082397461;88.62545013427734
93;1673367232.752381;47.1306424;7.240619199999999;12.539000511169434;1673367232.910261;8.781054496765137;1.8992552757263184;88.78104400634766
94;1673367232.950838;47.1306423;7.240619199999999;12.938000679016113;1673367233.092214;9.03335952758789;-0.029506541788578033;88.58683776855469
95;1673367233.1387587;47.1306422;7.2406193;13.338000297546387;1673367233.2801433;9.466446876525879;-2.631385564804077;88.44239044189453
96;1673367233.3191893;47.1306422;7.240619499999999;13.73900032043457;1673367233.478421;9.706559181213379;-0.5013260245323181;88.6747055053711
97;1673367233.524355;47.1306423;7.2406197;14.13800048828125;1673367233.6767044;9.869529724121094;2.2747275829315186;88.92362213134766
98;1673367233.7225804;47.1306423;7.240619799999999;14.543000221252441;1673367233.866314;9.889496803283691;-0.24686077237129211;88.61563110351562
99;1673367233.9082801;47.1306423;7.24062;14.949000358581543;1673367234.0635138;9.946695327758789;-2.1376802921295166;88.61717224121094
100;1673367234.1058931;47.1306423;7.2406201;15.357000350952148;1673367234.2791362;9.586080551147461;0.702345073223114;88.65038299560547
101;1673367234.328095;47.1306422;7.2406201;15.767001152038574;1673367234.4718425;9.452200889587402;1.8158960342407227;88.7639389038086
102;1673367234.5149498;47.130642099999996;7.2406201999999995;16.179000854492188;1673367234.6673517;9.593581199645996;-1.6359293460845947;88.67926788330078
103;1673367234.7142005;47.1306419;7.2406201;16.58500099182129;1673367234.8978336;9.642352104187012;-2.6304290294647217;88.7864761352539
104;1673367234.9590259;47.1306418;7.2406201;16.99100112915039;1673367235.108968;9.735786437988281;0.7588015198707581;88.92826843261719
105;1673367235.1529868;47.1306418;7.2406201;17.39900016784668;1673367235.3069003;9.959869384765625;0.8441778421401978;88.99755096435547
106;1673367235.3501546;47.1306419;7.2406201;17.80900001525879;1673367235.5196617;9.994232177734375;-1.875319004058838;88.5419921875
107;1673367235.5653117;47.130642099999996;7.2406201;18.222000122070312;1673367235.7142065;10.320751190185547;-0.52305006980896;88.62889862060547
108;1673367235.7557993;47.1306423;7.2406201;18.63300132751465;1673367235.9095843;10.124858856201172;2.601083993911743;88.87957763671875
109;1673367235.986438;47.1306423;7.2406201;19.04400062561035;1673367236.1381092;9.78773307800293;-0.14961349964141846;88.93763732910156
110;1673367236.174254;47.1306423;7.24062;19.451000213623047;1673367236.3135924;9.88264274597168;-2.352468252182007;88.67430877685547
111;1673367236.3590355;47.1306422;7.24062;19.867000579833984;1673367236.5042908;9.558489799499512;0.2191329300403595;88.65624237060547
112;1673367236.5507095;47.1306422;7.24062;20.284000396728516;1673367236.7064326;9.487884521484375;1.5759483575820923;88.63949584960938
113;1673367236.753816;47.1306422;7.2406198999999996;20.698001861572266;1673367237.0111854;9.224145889282227;-0.7105021476745605;88.62405395507812
114;1673367237.0376523;47.1306424;7.2406198999999996;21.113000869750977;1673367237.1612866;9.134714126586914;-1.202912449836731;88.66615295410156
115;1673367237.1964223;47.130642599999995;7.2406198999999996;21.52400016784668;1673367237.3488855;9.363180160522461;2.5325875282287598;88.77564239501953
116;1673367237.3888876;47.130642699999996;7.2406198999999996;21.927001953125;1673367237.5524392;9.540881156921387;0.928894579410553;88.75560760498047
117;1673367237.6007013;47.1306428;7.2406198999999996;22.33100128173828;1673367237.7248268;9.909688949584961;-1.6997461318969727;88.63375091552734
118;1673367237.7702446;47.1306428;7.2406198999999996;22.73600196838379;1673367237.9181669;10.090344429016113;1.1038906574249268;88.76571655273438
119;1673367237.9587903;47.130642699999996;7.24062;23.139001846313477;1673367238.128364;10.091760635375977;1.9849015474319458;88.80070495605469
120;1673367238.1719894;47.130642699999996;7.24062;23.541000366210938;1673367238.3284736;10.05417537689209;-1.8199304342269897;88.54039764404297
121;1673367238.3769748;47.130642699999996;7.24062;23.93800163269043;1673367238.5243046;10.037749290466309;-0.9558239579200745;88.60649871826172
122;1673367238.5692682;47.130642699999996;7.24062;24.33700180053711;1673367238.724177;9.850700378417969;2.261636972427368;88.8242416381836
123;1673367238.7657244;47.130642699999996;7.24062;24.729001998901367;1673367238.9302158;9.840391159057617;-0.14535361528396606;88.72162628173828
124;1673367238.9936414;47.130642699999996;7.2406198999999996;25.125001907348633;1673367239.1356165;9.674712181091309;-1.9588828086853027;88.6527328491211
125;1673367239.184351;47.130642699999996;7.2406198999999996;25.522001266479492;1673367239.3330162;9.682882308959961;1.3899424076080322;88.91175079345703
126;1673367239.3775673;47.130642599999995;7.240619799999999;25.915000915527344;1673367239.533656;9.64001178741455;1.6753804683685303;88.86346435546875
127;1673367239.5825212;47.1306425;7.240619799999999;26.31300163269043;1673367239.736478;9.669340133666992;-2.0815699100494385;88.5748062133789
128;1673367239.7799675;47.1306425;7.240619799999999;26.71000099182129;1673367239.9103131;9.403901100158691;-0.9453411102294922;88.69080352783203
129;1673367239.9519556;47.1306425;7.240619799999999;27.101001739501953;1673367240.0942857;9.415887832641602;2.382571220397949;88.75585174560547
130;1673367240.1423845;47.130642599999995;7.240619799999999;27.499000549316406;1673367240.3069782;9.579755783081055;0.5400131344795227;88.68536376953125
131;1673367240.3504548;47.130642699999996;7.240619799999999;27.900001525878906;1673367240.4917953;9.694000244140625;-1.7408455610275269;88.66130065917969
132;1673367240.5366924;47.130642699999996;7.240619799999999;28.305002212524414;1673367240.6911907;9.907478332519531;1.3196673393249512;88.89437866210938
133;1673367240.7313595;47.130642599999995;7.2406197;28.707000732421875;1673367240.8935106;10.208453178405762;2.0314981937408447;88.96141052246094
134;1673367240.9345264;47.1306425;7.2406197;29.11100196838379;1673367241.0869925;10.267191886901855;-1.3394402265548706;88.6509780883789
135;1673367241.1270845;47.1306425;7.2406197;29.512001037597656;1673367241.2823963;9.791491508483887;-1.1227285861968994;88.36074829101562
136;1673367241.328318;47.1306425;7.2406197;29.906002044677734;1673367241.4827125;9.776796340942383;1.6827380657196045;88.67903900146484
137;1673367241.5365822;47.1306425;7.2406197;30.305002212524414;1673367241.703924;9.568055152893066;0.6116614937782288;88.78080749511719
138;1673367241.7464411;47.1306425;7.2406197;30.70600128173828;1673367241.9516962;9.259368896484375;-1.8402460813522339;88.88541412353516
139;1673367241.9868312;47.1306425;7.2406197;31.106000900268555;1673367242.0996628;9.187528610229492;0.8755483031272888;88.74787139892578
140;1673367242.1348066;47.1306425;7.2406197;31.505001068115234;1673367242.2628272;9.09636116027832;1.908334732055664;88.74813079833984
141;1673367242.3038192;47.1306424;7.2406197;31.90300178527832;1673367242.448569;9.432921409606934;-1.7398979663848877;88.6155776977539
142;1673367242.4906106;47.1306423;7.240619799999999;32.29500198364258;1673367242.6387205;9.698314666748047;-1.5731796026229858;88.83578491210938
143;1673367242.6822667;47.1306422;7.2406198999999996;32.694000244140625;1673367242.8364477;9.849418640136719;1.8479585647583008;88.83206939697266
144;1673367242.8804088;47.130642099999996;7.2406198999999996;33.09300231933594;1673367243.030826;10.032907485961914;0.15892593562602997;88.72329711914062
145;1673367243.0748043;47.1306422;7.24062;33.49500274658203;1673367243.2693276;10.284197807312012;-1.9392884969711304;88.58329772949219
146;1673367243.3108318;47.1306423;7.2406201;33.89800262451172;1673367243.4906068;10.390951156616211;0.49696826934814453;88.86868286132812
147;1673367243.5356398;47.1306423;7.2406201999999995;34.30000305175781;1673367243.7132044;10.340136528015137;2.2469053268432617;88.70868682861328
148;1673367243.7577872;47.1306423;7.2406201999999995;34.704002380371094;1673367243.9193647;9.955537796020508;-1.2650507688522339;88.73957061767578
149;1673367243.9618719;47.1306423;7.2406201999999995;35.099002838134766;1673367244.1503994;9.820852279663086;-2.198864459991455;88.49095916748047
150;1673367244.1865096;47.1306423;7.2406201999999995;35.5;1673367244.3515532;9.422876358032227;1.4944969415664673;88.77764129638672
151;1673367244.3935208;47.1306423;7.2406201;35.9010009765625;1673367244.558634;9.487195014953613;1.0054768323898315;88.71959686279297
152;1673367244.6094382;47.1306424;7.2406201;36.30500030517578;1673367244.7532022;9.376444816589355;-1.768700122833252;88.82477569580078
153;1673367244.7959232;47.130642599999995;7.2406201;36.7130012512207;1673367244.954129;9.347938537597656;0.03963039815425873;88.60929870605469
154;1673367244.9960973;47.130642699999996;7.2406201;37.11800003051758;1673367245.1422822;9.5808744430542;2.9255471229553223;88.75084686279297
155;1673367245.1770325;47.130642699999996;7.2406201;37.51000213623047;1673367245.330233;9.732354164123535;0.30795904994010925;88.64844512939453
156;1673367245.3772466;47.1306428;7.2406201;37.90300369262695;1673367245.5591006;9.869300842285156;-1.9745042324066162;88.8392333984375
157;1673367245.6098695;47.130642699999996;7.2406201;38.29800033569336;1673367245.7431223;9.965738296508789;0.6291296482086182;88.70677947998047
158;1673367245.8041663;47.130642699999996;7.2406201999999995;38.69300079345703;1673367245.9296305;10.00843620300293;2.159360408782959;88.76304626464844
159;1673367245.970183;47.130642699999996;7.2406201999999995;39.08500289916992;1673367246.1919458;9.867443084716797;-1.2444403171539307;88.74193572998047
160;1673367246.2163458;47.1306428;7.2406201999999995;39.483001708984375;1673367246.3776653;9.719841003417969;-0.8075330853462219;88.72013854980469
161;1673367246.4099073;47.1306429;7.2406201;39.87800216674805;1673367246.5576727;9.460418701171875;2.3169708251953125;88.7556381225586
162;1673367246.615257;47.1306429;7.2406201;40.26400375366211;1673367246.7443538;9.501568794250488;0.8993045687675476;88.73968505859375
163;1673367246.8156877;47.1306429;7.2406201;40.65400314331055;1673367246.9761124;9.517892837524414;-1.6391617059707642;88.75684356689453
164;1673367247.0166578;47.1306429;7.2406201;41.04600143432617;1673367247.1802373;10.021132469177246;0.6846352815628052;88.8575668334961
165;1673367247.2300274;47.1306428;7.2406201;41.44000244140625;1673367247.406821;10.182971000671387;2.4393556118011475;88.9607925415039
166;1673367247.442937;47.130642699999996;7.2406201;41.83500289916992;1673367247.629877;10.334610939025879;-0.8909351229667664;88.67662048339844
167;1673367247.6591873;47.130642699999996;7.2406201;42.22900390625;1673367247.8611097;10.040390968322754;-1.5102359056472778;88.48937225341797
168;1673367247.887476;47.130642699999996;7.2406201;42.61600112915039;1673367248.024672;9.954666137695312;1.2931777238845825;88.57763671875
169;1673367248.0480993;47.130642699999996;7.2406201;43.00800323486328;1673367248.158485;9.529701232910156;1.8608074188232422;88.8782730102539
170;1673367248.216066;47.130642699999996;7.24062;43.40300369262695;1673367248.3560562;9.198278427124023;-1.7884691953659058;88.77115631103516
171;1673367248.3854332;47.1306428;7.2406198999999996;43.79900360107422;1673367248.5164087;9.237372398376465;-0.07327643036842346;88.84742736816406
172;1673367248.5574362;47.130642699999996;7.240619799999999;44.19600296020508;1673367248.7036264;9.10525131225586;2.4149773120880127;88.79778289794922
173;1673367248.7685952;47.130642599999995;7.240619799999999;44.59100341796875;1673367248.9351125;9.25562858581543;-0.7169595956802368;88.64161682128906
174;1673367248.9893427;47.130642599999995;7.240619799999999;44.98500061035156;1673367249.1384597;9.333634376525879;-2.1322576999664307;88.49969482421875
175;1673367249.199483;47.1306425;7.240619799999999;45.371002197265625;1673367249.3405707;9.571260452270508;0.927082896232605;88.76832580566406
176;1673367249.3791873;47.1306425;7.240619799999999;45.76000213623047;1673367249.5391483;9.659916877746582;1.7395625114440918;88.88732147216797
177;1673367249.5811582;47.1306425;7.2406198999999996;46.1510009765625;1673367249.7310772;9.825922012329102;-1.6213961839675903;88.6607894897461
178;1673367249.7746215;47.130642599999995;7.2406198999999996;46.54900360107422;1673367249.9080865;10.052069664001465;-0.8655762672424316;88.58039855957031
179;1673367249.9471526;47.130642699999996;7.2406198999999996;46.94900131225586;1673367250.0987515;10.111096382141113;2.519716739654541;88.79473876953125
180;1673367250.1465595;47.130642599999995;7.2406198999999996;47.34700393676758;1673367250.3096468;10.068284034729004;0.4146951138973236;88.86908721923828
181;1673367250.3599606;47.1306425;7.2406198999999996;47.73600387573242;1673367250.5196006;9.57084846496582;-2.5016469955444336;88.68702697753906
182;1673367250.5862825;47.1306424;7.2406198999999996;48.12600326538086;1673367250.7469997;9.454581260681152;0.8988889455795288;89.0416488647461
183;1673367250.8102736;47.1306424;7.24062;48.47100067138672;1673367250.9525099;9.404146194458008;1.8770556449890137;88.87064361572266
184;1673367251.0100183;47.1306424;7.2406201;48.768001556396484;1673367251.1467743;9.606915473937988;-2.101480484008789;88.49958038330078
185;1673367251.185372;47.130642599999995;7.2406201999999995;49.01900100708008;1673367251.3284013;9.768521308898926;-0.1117766946554184;88.51713562011719
186;1673367251.3719556;47.130642699999996;7.2406204;49.22500228881836;1673367251.5258384;12.28396224975586;4.219991683959961;88.6928939819336
187;1673367251.5713193;47.130642599999995;7.2406206;49.39200210571289;1673367251.7241755;24.351533889770508;12.827720642089844;84.73296356201172
188;1673367251.7695968;47.1306423;7.2406204;49.509002685546875;1673367251.928257;16.32210350036621;3.9332005977630615;70.39444732666016
189;1673367251.969943;47.130641499999996;7.2406196;49.57100296020508;1673367252.1403575;12.342824935913086;-4.464779376983643;60.30931854248047
190;1673367252.1914384;47.1306405;7.2406187;49.625003814697266;1673367252.367361;14.6173677444458;-4.787067413330078;51.77303695678711
191;1673367252.4030662;47.1306394;7.2406177;49.676002502441406;1673367252.5248902;10.327394485473633;-9.07468032836914;42.969390869140625
192;1673367252.561724;47.1306382;7.2406165;49.71600341796875;1673367252.6883214;7.654215335845947;-10.804885864257812;33.559696197509766
193;1673367252.7284532;47.1306371;7.2406155;49.75200271606445;1673367252.902356;4.371156215667725;-9.824533462524414;24.474714279174805
194;1673367252.9453099;47.1306361;7.2406144999999995;49.775001525878906;1673367253.124361;1.0933138132095337;-8.393828392028809;14.940983772277832
195;1673367253.1614518;47.130635299999994;7.2406136;49.79600143432617;1673367253.3132627;-2.12697172164917;-5.93876838684082;5.771795749664307
196;1673367253.3532062;47.130634699999995;7.2406127;49.814002990722656;1673367253.5040908;-4.637523651123047;-6.232142448425293;-3.035170793533325
197;1673367253.5441284;47.1306343;7.2406121;49.83100128173828;1673367253.7006454;-6.582912921905518;-8.41268253326416;-11.73937702178955
198;1673367253.7453692;47.130634099999995;7.2406117;49.85000228881836;1673367253.9023592;-6.35923433303833;-9.364599227905273;-20.06829071044922
199;1673367253.9543705;47.130634099999995;7.240611599999999;49.8650016784668;1673367254.1363711;-4.765908718109131;-10.348060607910156;-28.911714553833008
200;1673367254.1775851;47.130634099999995;7.2406117;49.880001068115234;1673367254.3276696;-4.3228654861450195;-10.266341209411621;-37.94522476196289
201;1673367254.3697042;47.130634199999996;7.2406117;49.88800048828125;1673367254.5354693;-4.203726291656494;-8.325209617614746;-47.25468444824219
202;1673367254.57896;47.1306344;7.2406117;49.89600372314453;1673367254.765365;-7.485243320465088;-5.844228744506836;-52.92441177368164
203;1673367254.8024526;47.1306345;7.2406117;49.90500259399414;1673367254.9417527;-9.761882781982422;-4.829998970031738;-53.05037307739258
204;1673367254.9852953;47.1306345;7.2406117;49.913002014160156;1673367255.1429555;-9.483601570129395;-6.042455673217773;-50.06925582885742
205;1673367255.1874268;47.1306345;7.240611599999999;49.922000885009766;1673367255.3560822;-8.734478950500488;-8.471938133239746;-47.251243591308594
206;1673367255.3964932;47.1306344;7.2406117;49.93100357055664;1673367255.5689816;-7.604094505310059;-8.982754707336426;-46.27936935424805
207;1673367255.6050937;47.1306344;7.240611599999999;49.932003021240234;1673367255.768397;-6.026023864746094;-10.344533920288086;-46.232547760009766
208;1673367255.80451;47.1306345;7.240611599999999;49.93800354003906;1673367255.9627612;-5.071016788482666;-8.569059371948242;-46.08671569824219
209;1673367256.0516772;47.1306346;7.240611599999999;49.94400405883789;1673367256.1695604;-5.844321250915527;-7.838287830352783;-45.842689514160156
210;1673367256.2371142;47.130634699999995;7.2406114;49.94600296020508;1673367256.379004;-7.283852577209473;-7.102529525756836;-45.99760818481445
211;1673367256.423029;47.130634699999995;7.2406111;49.94600296020508;1673367256.6750824;-8.989400863647461;-8.065045356750488;-45.957027435302734
212;1673367256.69947;47.1306345;7.2406109;49.948001861572266;1673367256.7918997;-25.557037353515625;-8.495864868164062;-45.90995407104492
213;1673367256.8654318;47.1306344;7.240610299999999;49.958003997802734;1673367256.9929998;-43.28870391845703;-4.806715488433838;-46.902462005615234
214;1673367257.0219598;47.130635299999994;7.2406082;49.9630012512207;1673367257.1675723;-55.72142028808594;-4.1976237297058105;-48.07674789428711
215;1673367257.2046103;47.1306381;7.2406041;49.96200180053711;1673367257.3555448;-53.85983657836914;-4.25592565536499;-48.05363082885742
216;1673367257.3994865;47.130643;7.2405971;49.93700408935547;1673367257.5487206;-50.114192962646484;-3.780878782272339;-48.2138671875
217;1673367257.5954878;47.1306498;7.2405876;49.91400146484375;1673367257.7456374;-52.696048736572266;-3.3699069023132324;-48.15766525268555
218;1673367257.790624;47.1306581;7.2405757;49.90800094604492;1673367257.9315977;-59.328426361083984;-2.6323723793029785;-49.16545867919922
219;1673367258.0206091;47.1306679;7.2405612999999995;49.919002532958984;1673367258.1515975;-58.932281494140625;-2.0324952602386475;-49.92232894897461
220;1673367258.190818;47.1306794;7.2405441999999995;49.9160041809082;1673367258.3730664;-53.35979461669922;-1.8546491861343384;-48.83912658691406
221;1673367258.4075718;47.130691999999996;7.2405254;49.90900421142578;1673367258.5836504;-53.94266128540039;-2.919931411743164;-47.997066497802734
222;1673367258.6248863;47.1307056;7.2405053;49.900001525878906;1673367258.781558;-53.73311233520508;-3.6758718490600586;-47.6621208190918
223;1673367258.819665;47.130719899999995;7.2404841;49.887001037597656;1673367258.9606206;-50.710872650146484;-3.7617712020874023;-47.77602767944336
224;1673367259.035548;47.1307349;7.2404619;49.875003814697266;1673367259.178575;-49.35789489746094;-4.304382801055908;-47.7206916809082
225;1673367259.2275522;47.1307502;7.2404391;49.862003326416016;1673367259.3776534;-49.16130828857422;-4.769258499145508;-47.72372055053711
226;1673367259.4126139;47.1307656;7.2404158;49.85200119018555;1673367259.5677817;-48.724334716796875;-5.309763431549072;-47.83803939819336
227;1673367259.6260433;47.1307812;7.2403923;49.842002868652344;1673367259.778002;-48.77002716064453;-4.431645393371582;-48.732330322265625
228;1673367259.8269572;47.1307968;7.2403683;49.833003997802734;1673367259.976633;-48.73582458496094;-4.215176105499268;-48.8996696472168
229;1673367260.0167184;47.1308126;7.2403441;49.827003479003906;1673367260.1721926;-48.04546356201172;-5.73786735534668;-48.5163688659668
230;1673367260.231361;47.1308283;7.240319599999999;49.83000183105469;1673367260.4024777;-48.614803314208984;-7.853511810302734;-48.23260498046875
231;1673367260.4410765;47.130843999999996;7.2402948;49.836002349853516;1673367260.5959022;-49.29497146606445;-10.96715259552002;-47.94696807861328
232;1673367260.644442;47.1308594;7.2402697;49.840003967285156;1673367260.7764947;-42.125518798828125;-5.357834815979004;-50.533512115478516
233;1673367260.8502953;47.1308746;7.2402443;49.85900115966797;1673367260.965554;-8.343994140625;-9.04449462890625;-49.185943603515625
234;1673367261.0064697;47.130888999999996;7.24022;49.87700271606445;1673367261.1433263;37.015689849853516;-9.532771110534668;-50.40827178955078
235;1673367261.1824834;47.1309015;7.2401988;49.81800079345703;1673367261.369462;24.565858840942383;-2.599226951599121;-52.179954528808594
236;1673367261.420594;47.1309124;7.2401808999999995;49.53400421142578;1673367261.5624151;16.733680725097656;-4.959342956542969;-47.86885070800781
237;1673367261.596598;47.130921099999995;7.2401675;49.19000244140625;1673367261.7313948;15.48037338256836;-4.256880760192871;-47.297550201416016
238;1673367261.819471;47.1309276;7.2401579;48.90400314331055;1673367261.955639;13.259843826293945;-4.284430980682373;-47.50758743286133
239;1673367262.0235398;47.130932099999995;7.240151999999999;48.77100372314453;1673367262.195919;29.40523338317871;-10.158804893493652;-47.955604553222656
240;1673367262.2312179;47.130934599999996;7.2401494;48.867000579833984;1673367262.3584418;48.949710845947266;-14.53350830078125;-44.69462966918945
241;1673367262.3989902;47.1309344;7.2401504;49.01900100708008;1673367262.539629;45.66712951660156;-14.10147762298584;-42.95730972290039
242;1673367262.5816545;47.130931399999994;7.240154599999999;49.16100311279297;1673367262.7265139;41.46934127807617;-19.98061180114746;-43.83377456665039
243;1673367262.7694557;47.1309256;7.2401614;49.303001403808594;1673367262.9096835;25.997652053833008;-20.111907958984375;-43.65179443359375
244;1673367262.9522777;47.1309179;7.2401694999999995;49.42500305175781;1673367263.0996375;4.668882369995117;-15.278138160705566;-43.9298095703125
245;1673367263.1460595;47.1309095;7.240177699999999;49.52100372314453;1673367263.3005886;-15.542516708374023;-6.382805347442627;-45.96202087402344
246;1673367263.3442674;47.1309015;7.240184999999999;49.590003967285156;1673367263.5289748;-26.373048782348633;-4.573640823364258;-48.03589630126953
247;1673367263.5670388;47.130894999999995;7.2401906;49.63500213623047;1673367263.7311401;-24.257455825805664;-8.051929473876953;-49.16739273071289
248;1673367263.7760272;47.130889599999996;7.240194499999999;49.65500259399414;1673367263.9255004;-18.68366813659668;-19.058624267578125;-48.762264251708984
249;1673367263.9655163;47.1308851;7.2401968;49.68300247192383;1673367264.1327834;-4.012439250946045;-17.56598663330078;-49.55030822753906
250;1673367264.1826563;47.1308809;7.2401978;49.717002868652344;1673367264.342019;14.640120506286621;1.6170417070388794;-47.61838150024414
251;1673367264.3881986;47.1308769;7.240199;49.74800109863281;1673367264.5355656;21.278614044189453;14.010618209838867;-47.17784118652344
252;1673367264.5835216;47.130873099999995;7.240202;49.76100158691406;1673367264.7257771;17.629043579101562;3.6206984519958496;-51.377418518066406
253;1673367264.7680085;47.1308697;7.2402057;49.499000549316406;1673367264.9147882;11.562357902526855;-2.316962242126465;-54.93938064575195
254;1673367264.9603105;47.1308662;7.2402093;48.875003814697266;1673367265.1055343;3.7766568660736084;-2.961002826690674;-57.785823822021484
255;1673367265.1512036;47.1308629;7.2402128999999995;47.86900329589844;1673367265.330968;-4.574206829071045;1.651816725730896;-60.641483306884766
256;1673367265.3711703;47.1308596;7.2402166;46.47800064086914;1673367265.5344996;-11.46357536315918;10.287626266479492;-64.08656311035156
257;1673367265.5834339;47.1308564;7.2402204;44.698001861572266;1673367265.743688;-14.29636287689209;19.680377960205078;-67.41544342041016
258;1673367265.7896874;47.1308532;7.2402242;42.53000259399414;1673367265.933399;-11.955167770385742;24.747100830078125;-68.759033203125
259;1673367265.9812248;47.1308498;7.2402280999999995;39.97500228881836;1673367266.1258593;-5.083735942840576;22.107784271240234;-67.7025146484375
260;1673367266.1669905;47.130846399999996;7.2402321;37.018001556396484;1673367266.3292096;3.9757888317108154;12.170917510986328;-66.36474609375
261;1673367266.3682976;47.1308429;7.2402361;33.682003021240234;1673367266.523065;11.036928176879883;-0.5517331957817078;-66.76117706298828
262;1673367266.5640733;47.1308393;7.24024;29.952001571655273;1673367266.7136855;11.645718574523926;-8.86019229888916;-67.87928009033203
263;1673367266.7583003;47.1308358;7.240243899999999;25.84200096130371;1673367266.912927;5.316712856292725;-6.812441825866699;-68.06311798095703
264;1673367266.9625108;47.1308326;7.2402476;21.34800148010254;1673367267.1260896;-4.07522439956665;4.041836738586426;-68.80281066894531
265;1673367267.1651297;47.130829399999996;7.2402514;16.464000701904297;1673367267.3216503;-9.557966232299805;15.05884838104248;-70.46958923339844
266;1673367267.367555;47.130826299999995;7.240255299999999;11.169000625610352;1673367267.5183651;-7.228245258331299;16.038387298583984;-70.34323120117188
267;1673367267.5638108;47.1308229;7.2402593;5.49500036239624;1673367267.7223852;1.2047381401062012;5.592007160186768;-68.93370056152344
268;1673367267.7637446;47.1308192;7.240262599999999;0.1469999998807907;1673367267.9236462;-0.5192453265190125;-12.509909629821777;-61.26979064941406
269;1673367267.966628;47.1308161;7.2402603999999995;0.37800002098083496;1673367268.1193798;0.16471555829048157;-5.091041088104248;-57.87551498413086
270;1673367268.1580703;47.130815399999996;7.2402602;0.43800002336502075;1673367268.3302674;0.2680491805076599;-9.441726684570312;-57.988773345947266
271;1673367268.3836567;47.1308155;7.2402605;0.48500001430511475;1673367268.5248184;0.3182055950164795;-9.21393871307373;-58.07219696044922
272;1673367268.5648692;47.1308156;7.2402608;0.5070000290870667;1673367268.723108;0.2742083668708801;-9.535651206970215;-58.233314514160156
273;1673367268.7674038;47.130815;7.2402605;0.5350000262260437;1673367268.9179196;0.23328658938407898;-9.631403923034668;-58.2531623840332
274;1673367268.960452;47.130814799999996;7.2402605;0.5430000424385071;1673367269.1090097;0.1946445256471634;-9.55433177947998;-58.2506217956543
275;1673367269.1570706;47.130814799999996;7.240260699999999;0.5420000553131104;1673367269.3128614;0.23731471598148346;-9.505972862243652;-58.19871520996094
276;1673367269.357824;47.130815;7.240260999999999;0.5350000262260437;1673367269.5293443;0.22072961926460266;-9.254680633544922;-58.19063186645508
277;1673367269.5666196;47.1308151;7.2402612;0.5270000100135803;1673367269.7094343;0.21932131052017212;-8.900041580200195;-58.15928268432617
278;1673367269.7509828;47.1308152;7.240261299999999;0.5210000276565552;1673367269.8922384;0.22766444087028503;-8.740531921386719;-58.21635437011719
279;1673367269.93279;47.130814199999996;7.2402605;0.5240000486373901;1673367270.1054814;0.22261348366737366;-8.374051094055176;-58.148414611816406
280;1673367270.1607761;47.1308138;7.2402603;0.5260000228881836;1673367270.324049;0.18922048807144165;-7.945558547973633;-58.094444274902344
281;1673367270.370938;47.1308138;7.2402603;0.527999997138977;1673367270.533143;0.19814161956310272;-7.51731014251709;-58.04720687866211
282;1673367270.5851388;47.1308138;7.2402603999999995;0.5320000052452087;1673367270.741057;0.20422883331775665;-7.105959892272949;-57.999755859375
283;1673367270.8085675;47.1308139;7.2402605;0.5350000262260437;1673367270.9933152;0.14321084320545197;-6.6792378425598145;-57.962650299072266
284;1673367271.0475192;47.130814;7.2402605;0.5390000343322754;1673367271.209738;0.1693088859319687;-6.291439533233643;-57.9229736328125
285;1673367271.242046;47.130814099999995;7.2402606;0.5430000424385071;1673367271.3900666;0.15578269958496094;-6.110848903656006;-57.96328353881836
286;1673367271.4254518;47.1308131;7.240259699999999;0.5470000505447388;1673367271.5857818;0.10506223887205124;-5.716653347015381;-57.936073303222656
287;1673367271.6444166;47.1308127;7.2402593;0.5530000329017639;1673367271.7901726;0.10985511541366577;-5.343770980834961;-57.889122009277344
288;1673367271.8402975;47.1308128;7.240259399999999;0.5590000152587891;1673367272.0075295;0.02314174734055996;-5.05678129196167;-57.861751556396484
289;1673367272.0481985;47.130812999999996;7.240259699999999;0.5649999976158142;1673367272.194038;0.03009893372654915;-4.782084941864014;-57.85878372192383
290;1673367272.2406046;47.1308134;7.240259999999999;0.5690000057220459;1673367272.3694205;0.029459884390234947;-4.453482627868652;-57.87577438354492
291;1673367272.4074862;47.1308137;7.2402603;0.5690000057220459;1673367272.5569568;0.03670436888933182;-4.308419704437256;-57.9005012512207
292;1673367272.612036;47.1308131;7.2402598;0.5700000524520874;1673367272.751504;-0.010708454996347427;-3.969367265701294;-57.92308807373047
293;1673367272.7945697;47.130812999999996;7.2402598;0.5690000057220459;1673367272.9479244;0.020894721150398254;-3.664959669113159;-57.935813903808594
294;1673367272.9948907;47.1308133;7.240259999999999;0.5649999976158142;1673367273.148385;0.014956512488424778;-3.399313449859619;-58.000118255615234
295;1673367273.1934528;47.1308137;7.2402603999999995;0.5570000410079956;1673367273.3388107;-0.02996884100139141;-3.137901544570923;-58.0285530090332
296;1673367273.3866918;47.130814099999995;7.2402608;0.5460000038146973;1673367273.5423245;0.004520838148891926;-2.951441526412964;-58.064815521240234
297;1673367273.5864046;47.1308146;7.2402612;0.5350000262260437;1673367273.7243822;-0.05694521218538284;-2.7300052642822266;-58.1174201965332
298;1673367273.76411;47.1308149;7.2402615;0.5210000276565552;1673367273.916258;-0.030903296545147896;-2.574594020843506;-58.144439697265625
299;1673367273.9597428;47.130814699999995;7.240261299999999;0.5090000033378601;1673367274.132867;-0.01727493479847908;-2.3908634185791016;-58.1744384765625
300;1673367274.1778398;47.130814799999996;7.240261299999999;0.4960000216960907;1673367274.3267932;-0.05949015915393829;-2.1906425952911377;-58.225486755371094
301;1673367274.3659182;47.130815;7.2402615;0.48100003600120544;1673367274.5082896;-0.0793609544634819;-2.029101610183716;-58.26222610473633
302;1673367274.559632;47.130815299999995;7.2402618;0.4650000333786011;1673367274.7195961;-0.1574709564447403;-2.017009735107422;-58.29846954345703
303;1673367274.7777603;47.1308156;7.2402619999999995;0.46000000834465027;1673367274.93413;-0.14866921305656433;-1.8993195295333862;-58.31657409667969
304;1673367274.9776251;47.1308158;7.2402622;-0.0020000000949949026;;;;
