;pos_time;latitude;longitude;altitude;alt_time;pitch;roll;yaw
0;1673366369.1445253;47.1306425;7.2406201;-0.0020000000949949026;1673366369.245604;0.04189659655094147;-0.05197024717926979;90.35257720947266
1;1673366369.3457258;47.1306425;7.2406201;-0.0020000000949949026;1673366369.4526334;0.306522399187088;-0.36839911341667175;90.42839813232422
2;1673366369.5488613;47.1306425;7.2406201;-0.004000000189989805;1673366369.644155;0.2279348224401474;-0.19144266843795776;90.42192077636719
3;1673366369.7409582;47.1306425;7.24062;-0.0010000000474974513;1673366369.8316214;0.15328985452651978;-0.2501181662082672;90.55082702636719
4;1673366369.9564686;47.1306425;7.24062;0.0;1673366370.0490184;0.1781163513660431;-0.27395352721214294;90.44217681884766
5;1673366370.1521251;47.1306425;7.2406198999999996;-0.0020000000949949026;1673366370.2493024;0.19479326903820038;-0.22487854957580566;90.43547821044922
6;1673366370.3523932;47.1306425;7.2406198999999996;-0.006000000052154064;1673366370.4475865;0.1107301115989685;-0.35590484738349915;90.4725341796875
7;1673366370.5516987;47.1306425;7.2406198999999996;-0.00800000037997961;1673366370.649924;0.3387700617313385;-0.29943954944610596;90.25347137451172
8;1673366370.7627308;47.1306425;7.2406198999999996;-0.010000000707805157;1673366370.8579443;0.26304730772972107;-0.22238273918628693;90.32215118408203
9;1673366370.9709208;47.1306425;7.2406198999999996;0.003000000026077032;1673366371.0641818;0.16161203384399414;-1.6783360242843628;90.26429748535156
10;1673366371.163297;47.1306425;7.2406198999999996;0.0;1673366371.2546093;0.0904199481010437;-1.0173953771591187;90.32474517822266
11;1673366371.3693368;47.1306424;7.240619799999999;-0.003000000026077032;1673366371.460664;-0.0294262133538723;-1.2405052185058594;90.19332885742188
12;1673366371.5656204;47.1306424;7.2406197;-0.005000000353902578;1673366371.654999;-0.03216299042105675;-1.1179498434066772;90.14241027832031
13;1673366371.7514045;47.1306424;7.2406197;-0.005000000353902578;1673366371.8405054;0.15829940140247345;-0.9442669749259949;89.97459411621094
14;1673366371.954561;47.1306425;7.2406197;-0.004000000189989805;1673366372.050609;0.18438303470611572;-1.4572409391403198;90.05476379394531
15;1673366372.1635323;47.1306425;7.240619799999999;-0.006000000052154064;1673366372.262433;0.45085853338241577;-1.971455454826355;90.1186752319336
16;1673366372.357467;47.1306425;7.2406197;-0.007000000216066837;1673366372.4604635;0.11006823927164078;-2.0012834072113037;89.94804382324219
17;1673366372.5947773;47.1306425;7.2406197;0.0;1673366372.6858997;0.2949637472629547;-0.8481714129447937;89.61868286132812
18;1673366372.7766807;47.1306425;7.240619799999999;0.0;1673366372.8558493;0.05973769724369049;-1.5637065172195435;89.55097198486328
19;1673366372.9506724;47.1306425;7.2406198999999996;0.0;1673366373.0538955;0.25976863503456116;-1.0714409351348877;89.33757019042969
20;1673366373.171634;47.130642599999995;7.24062;0.003000000026077032;1673366373.2714396;0.8921545147895813;-0.5808271169662476;89.17817687988281
21;1673366373.4029472;47.1306428;7.24062;0.004000000189989805;1673366373.49274;1.771567463874817;-1.4343056678771973;88.12126159667969
22;1673366373.5968506;47.1306428;7.2406198999999996;0.009000000543892384;1673366373.6796327;1.8580049276351929;-0.9524328112602234;86.88882446289062
23;1673366373.7815266;47.130643;7.2406198999999996;0.01100000087171793;1673366373.8658614;2.617342948913574;-0.7251390814781189;84.76154327392578
24;1673366373.9729276;47.130643199999994;7.240619799999999;0.013000000268220901;1673366374.0816755;1.1570199728012085;-0.03735316917300224;75.22993469238281
25;1673366374.170627;47.1306438;7.240619199999999;0.010000000707805157;1673366374.2540205;1.0273009538650513;-0.8389190435409546;66.98179626464844
26;1673366374.3544059;47.1306447;7.2406179999999996;0.009000000543892384;1673366374.4569087;0.2559733986854553;1.8936687707901;65.02409362792969
27;1673366374.5667422;47.1306462;7.2406158;0.0020000000949949026;1673366374.660964;-2.0235252380371094;4.755975723266602;71.70028686523438
28;1673366374.7688227;47.130648199999996;7.2406125999999995;0.01600000075995922;1673366374.8592196;-5.038675785064697;8.621879577636719;75.87323760986328
29;1673366374.9617298;47.1306507;7.2406086;0.04100000113248825;1673366375.0539393;-6.983606815338135;13.602278709411621;76.0419692993164
30;1673366375.1538346;47.130653599999995;7.240603999999999;0.08000000566244125;1673366375.248984;-8.274904251098633;14.998626708984375;76.4781723022461
31;1673366375.3588295;47.130656599999995;7.2405991;0.1300000101327896;1673366375.4448707;-10.15369987487793;15.421777725219727;77.00267028808594
32;1673366375.556628;47.130659699999995;7.2405938999999995;0.19600000977516174;1673366375.65563;-11.568319320678711;17.59935188293457;77.17189025878906
33;1673366375.7650418;47.130662799999996;7.240588799999999;0.2720000147819519;1673366375.8608217;-12.839495658874512;19.556177139282227;77.2889175415039
34;1673366375.9531648;47.130665699999994;7.2405836;0.3410000205039978;1673366376.0395944;-14.39841365814209;20.441638946533203;77.57189178466797
35;1673366376.1399071;47.1306685;7.2405788;0.4020000100135803;1673366376.2371666;-15.961664199829102;22.177621841430664;77.69806671142578
36;1673366376.3417766;47.130671;7.2405743;0.45600003004074097;1673366376.4367297;-17.493507385253906;23.687170028686523;77.86421966552734
37;1673366376.5388346;47.1306733;7.240570399999999;0.5010000467300415;1673366376.6298752;-19.093107223510742;25.16575813293457;78.13745880126953
38;1673366376.7393088;47.1306752;7.2405672;0.5370000004768372;1673366376.8375177;-20.707210540771484;26.578704833984375;78.40023803710938
39;1673366376.9785714;47.130676799999996;7.2405645;0.5690000057220459;1673366377.0729468;-22.473464965820312;27.9981689453125;78.76408386230469
40;1673366377.1705294;47.130677999999996;7.2405627;0.6050000190734863;1673366377.2694356;-24.23055648803711;29.513126373291016;79.14009094238281
41;1673366377.3705227;47.130678599999996;7.2405617;0.6360000371932983;1673366377.4708805;-26.115312576293945;30.82041358947754;79.5901107788086
42;1673366377.5643556;47.1306787;7.2405615999999995;0.6640000343322754;1673366377.6488702;-28.2578125;32.15791702270508;80.20252227783203
43;1673366377.7471838;47.1306782;7.240562499999999;0.6890000104904175;1673366377.8490624;-30.37831687927246;33.40644073486328;80.94305419921875
44;1673366377.9816844;47.1306771;7.2405645;0.7100000381469727;1673366378.0662048;-32.7151985168457;34.481346130371094;81.75824737548828
45;1673366378.1600428;47.1306753;7.2405675;0.7320000529289246;1673366378.2466073;-35.32076644897461;35.43478012084961;82.74946594238281
46;1673366378.3585982;47.1306726;7.240571699999999;0.7550000548362732;1673366378.4548182;-36.123146057128906;34.35511779785156;84.38079833984375
47;1673366378.5576396;47.1306693;7.240577099999999;0.7740000486373901;1673366378.6461995;-32.72511291503906;30.312667846679688;86.50471496582031
48;1673366378.746412;47.1306655;7.2405832;0.7930000424385071;1673366378.8387318;-28.590150833129883;25.94051742553711;87.89427185058594
49;1673366378.9437208;47.130661499999995;7.2405896;0.7990000247955322;1673366379.0352962;-24.038047790527344;22.016115188598633;88.71883392333984
50;1673366379.1424758;47.1306577;7.2405957999999995;0.8170000314712524;1673366379.2504923;-21.26443099975586;18.68351173400879;90.23654174804688
51;1673366379.3612301;47.130654199999995;7.2406014;0.8950000405311584;1673366379.4546869;-17.553956985473633;16.776220321655273;89.95378112792969
52;1673366379.554022;47.130651099999994;7.2406063;0.9930000305175781;1673366379.6627424;-14.0603609085083;14.284631729125977;89.56717681884766
53;1673366379.7685857;47.1306486;7.2406102;1.100000023841858;1673366379.8559985;-13.111356735229492;14.054777145385742;88.90910339355469
54;1673366379.9522276;47.1306468;7.2406131;1.2070000171661377;1673366380.0477433;-12.98580551147461;14.521416664123535;88.23357391357422
55;1673366380.1548924;47.1306455;7.240615;1.318000078201294;1673366380.244243;-13.89081859588623;14.624859809875488;87.91187286376953
56;1673366380.3461368;47.1306447;7.2406160999999996;1.4420000314712524;1673366380.4615967;-15.373761177062988;16.08237075805664;87.40348815917969
57;1673366380.5600255;47.1306444;7.2406165;1.5810000896453857;1673366380.6614943;-16.1073055267334;19.76049041748047;85.5349349975586
58;1673366380.7763317;47.1306443;7.2406163999999995;1.7330000400543213;1673366380.873035;-18.046247482299805;18.149398803710938;85.8306884765625
59;1673366380.977955;47.1306442;7.2406162;1.8930001258850098;1673366381.0731719;-19.694595336914062;18.297447204589844;85.76634979248047
60;1673366381.180105;47.1306443;7.240615999999999;2.061000108718872;1673366381.2862833;-19.80963897705078;22.53792953491211;84.8099365234375
61;1673366381.3806562;47.1306444;7.2406159;2.247000217437744;1673366381.466297;-19.987974166870117;21.4096736907959;85.08190155029297
62;1673366381.5703726;47.1306444;7.2406159;2.445000171661377;1673366381.6626463;-20.905004501342773;20.079832077026367;85.4984130859375
63;1673366381.7618544;47.1306444;7.2406160999999996;2.6410000324249268;1673366381.8522062;-20.465375900268555;22.641773223876953;84.99004364013672
64;1673366381.9586108;47.1306442;7.2406163999999995;2.8380000591278076;1673366382.0521646;-19.650278091430664;21.864139556884766;85.03170776367188
65;1673366382.149183;47.130644;7.2406168;3.0330002307891846;1673366382.2387195;-20.313251495361328;19.129121780395508;85.4911880493164
66;1673366382.3574445;47.1306437;7.2406172;3.2340002059936523;1673366382.4628434;-19.446619033813477;21.310440063476562;85.02245330810547
67;1673366382.5949142;47.1306435;7.2406177;3.436000108718872;1673366382.680659;-18.335947036743164;21.83302116394043;84.72366333007812
68;1673366382.7749646;47.1306434;7.2406182;3.63700008392334;1673366382.8605702;-18.452497482299805;18.837553024291992;85.64752197265625
69;1673366382.9539957;47.130643199999994;7.2406185999999995;3.8360002040863037;1673366383.0483286;-18.718772888183594;20.025224685668945;85.08670806884766
70;1673366383.154265;47.1306431;7.2406188;4.0329999923706055;1673366383.2563446;-17.76102638244629;21.859724044799805;84.53916931152344
71;1673366383.3654113;47.130643;7.240619;4.2270002365112305;1673366383.4577358;-18.45147705078125;18.69049072265625;85.29541778564453
72;1673366383.5817423;47.1306428;7.240619199999999;4.419000148773193;1673366383.6727204;-18.75454330444336;19.38946533203125;84.98052215576172
73;1673366383.7637408;47.1306428;7.240619199999999;4.618000030517578;1673366383.8492727;-18.243581771850586;22.118663787841797;84.6755599975586
74;1673366383.9494307;47.1306428;7.2406193;4.817000389099121;1673366384.0413651;-18.60811996459961;19.75522232055664;85.254638671875
75;1673366384.1574464;47.1306428;7.2406193;5.01200008392334;1673366384.2625837;-19.29283332824707;18.780881881713867;85.44450378417969
76;1673366384.3730853;47.130642699999996;7.2406194;5.208000183105469;1673366384.4606402;-18.70123863220215;21.8129940032959;84.65265655517578
77;1673366384.5586627;47.130642699999996;7.2406194;5.404000282287598;1673366384.6562681;-18.664335250854492;20.631668090820312;84.97927856445312
78;1673366384.7592564;47.130642599999995;7.2406194;5.599000453948975;1673366384.8535328;-19.222759246826172;18.279207229614258;85.45590209960938
79;1673366384.9575348;47.130642599999995;7.240619499999999;5.797000408172607;1673366385.0558908;-19.042705535888672;21.03249168395996;84.92864227294922
80;1673366385.154345;47.130642699999996;7.240619499999999;5.992000102996826;1673366385.2443173;-18.364906311035156;21.325809478759766;84.91154479980469
81;1673366385.3530698;47.130642699999996;7.240619499999999;6.189000129699707;1673366385.4524887;-18.916088104248047;19.11768913269043;85.42927551269531
82;1673366385.5507696;47.130642699999996;7.2406196;6.385000228881836;1673366385.6515503;-19.367876052856445;20.822420120239258;84.94390869140625
83;1673366385.7567606;47.130642699999996;7.2406196;6.579000473022461;1673366385.8513303;-18.491512298583984;21.56661605834961;84.74930572509766
84;1673366385.9682078;47.130642599999995;7.2406196;6.76800012588501;1673366386.0575671;-19.15891456604004;18.683635711669922;85.51146697998047
85;1673366386.1673148;47.130642599999995;7.2406197;6.962000370025635;1673366386.2618263;-19.102453231811523;20.091835021972656;85.19451904296875
86;1673366386.360949;47.130642699999996;7.240619799999999;7.1610002517700195;1673366386.4588816;-18.179475784301758;22.259113311767578;84.69161224365234
87;1673366386.5709991;47.1306428;7.24062;7.3580002784729;1673366386.668929;-18.41285514831543;19.65390968322754;85.30545806884766
88;1673366386.7751002;47.1306428;7.2406201;7.556000232696533;1673366386.869258;-18.840951919555664;19.351886749267578;85.43892669677734
89;1673366386.9752636;47.1306428;7.2406201;7.749000549316406;1673366387.0598369;-18.225820541381836;22.05344581604004;84.65435028076172
90;1673366387.159064;47.1306428;7.2406201;7.943000316619873;1673366387.2478862;-18.361099243164062;20.5427188873291;85.02587127685547
91;1673366387.35469;47.130642699999996;7.2406201;8.138999938964844;1673366387.4518805;-19.008468627929688;18.495634078979492;85.49151611328125
92;1673366387.5577164;47.130642699999996;7.2406201;8.335000038146973;1673366387.6521945;-18.677736282348633;21.781112670898438;84.86336517333984
93;1673366387.7592986;47.1306428;7.2406201;8.534000396728516;1673366387.8482268;-18.209747314453125;21.537981033325195;84.81556701660156
94;1673366387.9548683;47.1306428;7.2406201;8.732000350952148;1673366388.0475922;-19.066255569458008;18.899826049804688;85.47516632080078
95;1673366388.1540732;47.1306428;7.2406201;8.929000854492188;1673366388.2630312;-18.696481704711914;21.213544845581055;84.98454284667969
96;1673366388.371143;47.130642699999996;7.2406201;9.12600040435791;1673366388.474012;-18.12769317626953;21.89615821838379;84.63716888427734
97;1673366388.5856535;47.130642699999996;7.2406201;9.324000358581543;1673366388.686743;-19.08962059020996;18.538616180419922;85.42616271972656
98;1673366388.7922285;47.130642599999995;7.2406201;9.522000312805176;1673366388.8922467;-19.073787689208984;20.023027420043945;85.17259979248047
99;1673366389.0021064;47.130642599999995;7.2406201;9.724000930786133;1673366389.0988746;-18.231163024902344;22.166337966918945;84.64067077636719
100;1673366389.203638;47.130642699999996;7.2406201999999995;9.925000190734863;1673366389.298332;-18.48769760131836;19.650585174560547;85.28468322753906
101;1673366389.3966143;47.130642699999996;7.2406203;10.131000518798828;1673366389.4861035;-18.31558609008789;19.222883224487305;85.45793151855469
102;1673366389.5785198;47.130642599999995;7.2406204;10.38900089263916;1673366389.6681635;-20.310354232788086;21.943904876708984;84.92825317382812
103;1673366389.7634408;47.1306423;7.2406207;10.755000114440918;1673366389.8569193;-21.04424476623535;22.95751953125;84.94962310791016
104;1673366389.9696822;47.1306419;7.2406213;11.13700008392334;1673366390.0696678;-19.047569274902344;19.518314361572266;85.62340545654297
105;1673366390.1726112;47.130641399999995;7.2406219;11.531000137329102;1673366390.2650495;-18.01058006286621;20.229713439941406;84.78374481201172
106;1673366390.3740456;47.130641;7.2406226;11.932000160217285;1673366390.4660544;-16.44420051574707;18.997880935668945;85.01644134521484
107;1673366390.5631475;47.130640799999995;7.240622999999999;12.335000991821289;1673366390.660523;-16.635107040405273;16.481882095336914;85.43046569824219
108;1673366390.760916;47.1306406;7.240623299999999;12.74000072479248;1673366390.8649023;-16.02532196044922;18.51439094543457;84.98652648925781
109;1673366390.9847414;47.1306405;7.2406232;13.143000602722168;1673366391.0887077;-16.098644256591797;19.2080078125;84.74535369873047
110;1673366391.1771975;47.1306406;7.2406231;13.54800033569336;1673366391.2724247;-16.901782989501953;16.89327049255371;85.31338500976562
111;1673366391.3999443;47.130640799999995;7.2406228;13.956000328063965;1673366391.4777198;-17.33481788635254;18.845239639282227;85.1187515258789
112;1673366391.5789547;47.1306411;7.2406225;14.36500072479248;1673366391.668195;-17.153825759887695;21.50271224975586;84.69396209716797
113;1673366391.7704542;47.130641399999995;7.2406222;14.778000831604004;1673366391.8617554;-17.884456634521484;19.562345504760742;85.16299438476562
114;1673366391.966532;47.1306416;7.2406219;15.194001197814941;1673366392.0581539;-18.61491584777832;19.397544860839844;85.4017333984375
115;1673366392.1654954;47.1306418;7.2406216;15.609001159667969;1673366392.2636268;-18.159204483032227;21.904254913330078;84.7380142211914
116;1673366392.365679;47.1306418;7.2406213;16.017000198364258;1673366392.4579196;-18.587949752807617;20.15021324157715;85.09477996826172
117;1673366392.5648463;47.1306419;7.240621099999999;16.426000595092773;1673366392.6593113;-18.877025604248047;19.06862449645996;85.34961700439453
118;1673366392.7570975;47.1306419;7.240621099999999;16.838001251220703;1673366392.8615644;-18.0820255279541;21.629838943481445;84.81178283691406
119;1673366392.9694645;47.130641999999995;7.240621;17.248001098632812;1673366393.0696812;-17.999774932861328;20.133657455444336;85.1857681274414
120;1673366393.1790068;47.130641999999995;7.240621;17.657001495361328;1673366393.2783215;-18.32513427734375;18.508668899536133;85.52931213378906
121;1673366393.3820703;47.130641999999995;7.240621;18.069000244140625;1673366393.4790993;-18.034427642822266;21.09056854248047;84.7759780883789
122;1673366393.5753329;47.1306419;7.2406209;18.474000930786133;1673366393.6666677;-17.773595809936523;20.0760498046875;84.99293518066406
123;1673366393.7699177;47.1306419;7.240620799999999;18.87900161743164;1673366393.8589914;-18.350528717041016;18.205902099609375;85.49752807617188
124;1673366393.9636114;47.1306419;7.2406207;19.284000396728516;1673366394.0648654;-18.193117141723633;20.763090133666992;84.83987426757812
125;1673366394.1708877;47.130641999999995;7.2406207;19.69099998474121;1673366394.2670927;-17.65422248840332;20.93607521057129;84.77921295166016
126;1673366394.375032;47.130642099999996;7.2406206;20.09400177001953;1673366394.4750674;-18.19888687133789;18.835060119628906;85.35335540771484
127;1673366394.578281;47.130642099999996;7.2406206;20.49700164794922;1673366394.6743565;-18.15229034423828;20.424163818359375;85.11243438720703
128;1673366394.774588;47.130642099999996;7.2406206;20.89900016784668;1673366394.8700426;-17.745344161987305;21.6174259185791;84.78900909423828
129;1673366394.9819586;47.130642099999996;7.2406204999999995;21.297000885009766;1673366395.0803876;-18.148067474365234;18.65006446838379;85.45454406738281
130;1673366395.1863818;47.130642099999996;7.2406204999999995;21.702001571655273;1673366395.2837758;-18.310806274414062;19.81354522705078;85.24230194091797
131;1673366395.3851526;47.130642099999996;7.2406204;22.108001708984375;1673366395.4853935;-17.667545318603516;21.752965927124023;84.83199310302734
132;1673366395.592426;47.1306422;7.2406204;22.514001846313477;1673366395.6790025;-17.976943969726562;19.54020118713379;85.24512481689453
133;1673366395.7870986;47.1306422;7.2406203;22.922000885009766;1673366395.8795364;-18.44767189025879;19.4666690826416;85.32817077636719
134;1673366395.9812844;47.1306422;7.2406203;23.328001022338867;1673366396.0756931;-17.802762985229492;21.69499969482422;84.71065521240234
135;1673366396.1836417;47.1306422;7.2406201999999995;23.726001739501953;1673366396.2778776;-18.045305252075195;19.66437530517578;85.22328186035156
136;1673366396.377863;47.130642099999996;7.2406201999999995;24.124000549316406;1673366396.4702213;-18.59058380126953;18.716548919677734;85.4403305053711
137;1673366396.5734107;47.130642099999996;7.2406201;24.525001525878906;1673366396.6665695;-17.861417770385742;21.639814376831055;84.8438720703125
138;1673366396.794988;47.1306422;7.24062;24.92500114440918;1673366396.9069374;-17.984338760375977;20.33376121520996;84.95244598388672
139;1673366397.0092163;47.1306422;7.24062;25.32600212097168;1673366397.0975957;-18.64255142211914;18.665401458740234;85.3908462524414
140;1673366397.2009706;47.1306422;7.2406198999999996;25.72800064086914;1673366397.294443;-18.264686584472656;21.16713523864746;84.86323547363281
141;1673366397.3796718;47.130642099999996;7.2406198999999996;26.12700080871582;1673366397.4646678;-17.984148025512695;20.896053314208984;84.87796783447266
142;1673366397.5611105;47.1306422;7.2406198999999996;26.519001007080078;1673366397.651196;-18.48069190979004;18.576860427856445;85.49632263183594
143;1673366397.7567358;47.1306422;7.2406198999999996;26.917001724243164;1673366397.851103;-18.459224700927734;20.697067260742188;84.97523498535156
144;1673366397.95326;47.1306423;7.2406198999999996;27.317001342773438;1673366398.0573115;-17.803197860717773;21.790756225585938;84.83399963378906
145;1673366398.1715314;47.1306423;7.2406198999999996;27.718000411987305;1673366398.2614892;-18.224824905395508;19.025541305541992;85.3970718383789
146;1673366398.3729916;47.1306423;7.2406198999999996;28.119001388549805;1673366398.468964;-18.427547454833984;20.11837387084961;85.13983154296875
147;1673366398.5820563;47.1306423;7.24062;28.514001846313477;1673366398.6701198;-17.844369888305664;21.926424026489258;84.6929702758789
148;1673366398.767262;47.1306423;7.24062;28.905000686645508;1673366398.8611262;-18.185258865356445;19.278366088867188;85.3113784790039
149;1673366398.9593055;47.1306422;7.2406201;29.303001403808594;1673366399.05846;-18.546459197998047;19.294435501098633;85.4154281616211
150;1673366399.1598487;47.1306423;7.2406201;29.702001571655273;1673366399.2500167;-17.6677303314209;21.618146896362305;84.81360626220703
151;1673366399.354607;47.1306423;7.2406201;30.102001190185547;1673366399.4530923;-17.80340003967285;20.389638900756836;85.01469421386719
152;1673366399.560957;47.1306424;7.2406201;30.505001068115234;1673366399.6677535;-18.3714542388916;18.966121673583984;85.32811737060547
153;1673366399.7855244;47.1306423;7.2406201999999995;30.910001754760742;1673366399.8855758;-17.944808959960938;21.53351593017578;84.75324249267578
154;1673366399.9913156;47.1306423;7.2406201999999995;31.314001083374023;1673366400.0721035;-17.874408721923828;20.359731674194336;84.99787139892578
155;1673366400.168081;47.1306423;7.2406201999999995;31.71000099182129;1673366400.2550838;-18.409015655517578;18.77684211730957;85.42888641357422
156;1673366400.4006078;47.1306424;7.2406201999999995;32.11300277709961;1673366400.5067701;-18.09440040588379;21.36387825012207;84.81967163085938
157;1673366400.6160018;47.1306424;7.2406201999999995;32.51700210571289;1673366400.7053945;-17.523855209350586;21.933860778808594;84.77291870117188
158;1673366400.791993;47.1306425;7.2406203;32.919002532958984;1673366400.8775005;-18.21199607849121;18.803884506225586;85.47079467773438
159;1673366400.97376;47.1306425;7.2406203;33.32400131225586;1673366401.0635788;-18.2127628326416;20.32225799560547;85.06424713134766
160;1673366401.170779;47.1306425;7.2406203;33.72800064086914;1673366401.2725701;-17.734296798706055;21.843427658081055;84.69774627685547
161;1673366401.3960936;47.1306425;7.2406203;34.12200164794922;1673366401.4758754;-18.04412269592285;19.44510841369629;85.3465347290039
162;1673366401.5717628;47.1306425;7.2406203;34.518001556396484;1673366401.6672757;-18.339738845825195;19.804513931274414;85.35139465332031
163;1673366401.7788792;47.130642599999995;7.2406203;34.919002532958984;1673366401.8760724;-17.774810791015625;22.06951904296875;84.77546691894531
164;1673366401.9802892;47.130642599999995;7.2406204;35.320003509521484;1673366402.076571;-17.718093872070312;20.158432006835938;85.18911743164062
165;1673366402.1768792;47.130642599999995;7.2406204;35.72300338745117;1673366402.2698689;-18.19037437438965;19.247787475585938;85.41732025146484
166;1673366402.3752675;47.1306425;7.2406204;36.12600326538086;1673366402.4804227;-17.873640060424805;21.716297149658203;84.68685913085938
167;1673366402.576427;47.1306425;7.2406203;36.527000427246094;1673366402.6682546;-17.616588592529297;20.34868049621582;85.06626892089844
168;1673366402.7683914;47.1306425;7.2406203;36.92100143432617;1673366402.872454;-18.478172302246094;18.877403259277344;85.38823699951172
169;1673366402.9898503;47.1306425;7.2406201999999995;37.323001861572266;1673366403.071927;-18.036603927612305;21.26470184326172;84.97438049316406
170;1673366403.1793816;47.130642599999995;7.2406201999999995;37.72600173950195;1673366403.2805908;-17.651824951171875;21.297983169555664;84.82137298583984
171;1673366403.390664;47.130642599999995;7.2406201;38.125;1673366403.4803236;-18.409719467163086;18.928569793701172;85.43831634521484
172;1673366403.6066582;47.130642599999995;7.2406201;38.527000427246094;1673366403.70956;-18.209184646606445;20.800064086914062;85.07063293457031
173;1673366403.8116658;47.1306425;7.24062;38.93100357055664;1673366403.8920808;-17.78258514404297;21.442569732666016;84.84725189208984
174;1673366403.9865396;47.1306425;7.24062;39.32500076293945;1673366404.0778701;-18.22767448425293;18.97014808654785;85.35692596435547
175;1673366404.1820278;47.1306425;7.24062;39.724002838134766;1673366404.275077;-18.286367416381836;19.9866943359375;85.17052459716797
176;1673366404.380262;47.1306425;7.24062;40.124000549316406;1673366404.4769428;-17.616119384765625;21.892942428588867;84.67231750488281
177;1673366404.5771916;47.1306425;7.24062;40.525001525878906;1673366404.6715028;-17.83452033996582;19.518583297729492;85.29071044921875
178;1673366404.775866;47.1306425;7.24062;40.92900085449219;1673366404.8675506;-18.46116065979004;19.528982162475586;85.32630920410156
179;1673366404.9829533;47.1306425;7.2406198999999996;41.33100128173828;1673366405.0824156;-17.885351181030273;21.714679718017578;84.78404998779297
180;1673366405.1796398;47.130642599999995;7.240619799999999;41.730003356933594;1673366405.2772954;-18.100061416625977;20.295066833496094;85.10359191894531
181;1673366405.3828993;47.130642599999995;7.240619799999999;42.124000549316406;1673366405.4808278;-18.59423065185547;19.228424072265625;85.41629791259766
182;1673366405.60261;47.130642699999996;7.240619799999999;42.525001525878906;1673366405.6961572;-18.13987922668457;22.032224655151367;84.79042053222656
183;1673366405.8217015;47.130642699999996;7.240619799999999;42.92500305175781;1673366405.912902;-17.859603881835938;21.145986557006836;84.95548248291016
184;1673366406.0457416;47.130642699999996;7.240619799999999;43.32600021362305;1673366406.152348;-18.421228408813477;19.136472702026367;85.47329711914062
185;1673366406.265467;47.130642699999996;7.240619799999999;43.72800064086914;1673366406.3583324;-18.27010154724121;21.106977462768555;84.97303771972656
186;1673366406.4467711;47.130642699999996;7.240619799999999;44.12800216674805;1673366406.549032;-17.73079490661621;21.619306564331055;84.86676788330078
187;1673366406.6637578;47.130642599999995;7.240619799999999;44.52100372314453;1673366406.7581003;-18.144058227539062;18.95026969909668;85.44893646240234
188;1673366406.847467;47.130642599999995;7.2406198999999996;44.92100143432617;1673366406.9212158;-18.233966827392578;20.55376625061035;85.04414367675781
189;1673366407.0146408;47.130642599999995;7.2406198999999996;45.32200241088867;1673366407.1090608;-17.450454711914062;21.932519912719727;84.63762664794922
190;1673366407.209195;47.130642599999995;7.24062;45.72700119018555;1673366407.300731;-18.013378143310547;19.49101448059082;85.29883575439453
191;1673366407.4021838;47.130642599999995;7.24062;46.13200378417969;1673366407.4911606;-18.18520736694336;19.73556900024414;85.30741882324219
192;1673366407.603128;47.1306425;7.2406198999999996;46.534000396728516;1673366407.6985512;-17.82525062561035;21.85720443725586;84.72505950927734
193;1673366407.8014355;47.1306425;7.2406198999999996;46.93300247192383;1673366407.897824;-17.878938674926758;19.919286727905273;85.19559478759766
194;1673366408.0019078;47.130642599999995;7.2406198999999996;47.32600402832031;1673366408.0944314;-18.458784103393555;19.3885498046875;85.34436798095703
195;1673366408.2054;47.130642599999995;7.240619799999999;47.72100067138672;1673366408.300305;-17.859275817871094;21.952621459960938;84.74280548095703
196;1673366408.4050863;47.130642599999995;7.240619799999999;48.10900115966797;1673366408.5029461;-18.329957962036133;20.468006134033203;85.02362823486328
197;1673366408.6131046;47.130642699999996;7.2406196;48.457000732421875;1673366408.707343;-18.668169021606445;20.91950035095215;85.18854522705078
198;1673366408.816124;47.1306429;7.2406194;48.750003814697266;1673366408.9086168;-18.725046157836914;22.162525177001953;84.84717559814453
199;1673366409.0162864;47.130643;7.2406191;48.993003845214844;1673366409.1153202;-19.36323356628418;21.523757934570312;85.13871002197266
200;1673366409.218504;47.130643199999994;7.2406188;49.18800354003906;1673366409.3059206;-19.74158477783203;21.740751266479492;85.24327850341797
201;1673366409.4071958;47.1306434;7.2406185;49.35700225830078;1673366409.500031;-7.115411758422852;30.204830169677734;83.80699920654297
202;1673366409.604251;47.130643299999996;7.2406177;49.47700119018555;1673366409.699473;-3.7887179851531982;32.5746955871582;70.72321319580078
203;1673366409.8031838;47.1306429;7.2406163;49.54500198364258;1673366409.891214;-9.628839492797852;28.354801177978516;58.01889419555664
204;1673366409.996399;47.1306423;7.2406147999999995;49.5890007019043;1673366410.0863855;2.879239082336426;30.08295249938965;49.528717041015625
205;1673366410.1905637;47.1306416;7.2406134;49.62800216674805;1673366410.287482;5.517857074737549;29.845558166503906;39.6721305847168
206;1673366410.3813128;47.130640899999996;7.240612;49.6660041809082;1673366410.4703383;9.856849670410156;29.268430709838867;30.873239517211914
207;1673366410.5693524;47.13064;7.2406108;49.695003509521484;1673366410.6576498;13.183110237121582;28.44318962097168;21.840347290039062
208;1673366410.7621982;47.1306392;7.240609699999999;49.720001220703125;1673366410.855089;16.10747718811035;27.15093231201172;13.078352928161621
209;1673366410.958391;47.130638399999995;7.2406089;49.7400016784668;1673366411.0534022;19.153133392333984;24.63267707824707;4.437002658843994
210;1673366411.1555126;47.1306377;7.2406083;49.75800323486328;1673366411.2563918;21.988651275634766;21.399330139160156;-4.305862903594971
211;1673366411.3666048;47.130637199999995;7.240608099999999;49.775001525878906;1673366411.464261;24.561126708984375;16.74118423461914;-13.209306716918945
212;1673366411.5663862;47.1306368;7.240608;49.788002014160156;1673366411.6603138;26.338287353515625;11.301885604858398;-22.301273345947266
213;1673366411.7742586;47.1306365;7.240608;49.794002532958984;1673366411.8675256;27.162731170654297;6.656727313995361;-31.20307159423828
214;1673366411.9770837;47.1306364;7.240608099999999;49.79900360107422;1673366412.0697014;27.52308464050293;3.110197067260742;-39.527488708496094
215;1673366412.2730594;47.1306364;7.240608099999999;49.807003021240234;1673366412.3673956;27.107934951782227;0.7606862783432007;-47.584083557128906
216;1673366412.4777083;47.130636599999995;7.2406083;49.81500244140625;1673366412.554242;27.06423568725586;-2.2481682300567627;-50.26028060913086
217;1673366412.64669;47.1306368;7.2406083;49.827003479003906;1673366412.7273366;28.293821334838867;-2.22405743598938;-47.71332931518555
218;1673366412.8375103;47.1306369;7.2406082;49.8390007019043;1673366412.9181128;28.922332763671875;-2.6869070529937744;-46.209014892578125
219;1673366413.018646;47.130637;7.240608;49.85100173950195;1673366413.1158853;29.295318603515625;-3.417367696762085;-46.00431823730469
220;1673366413.2038627;47.1306369;7.240607499999999;49.85700225830078;1673366413.3001318;28.882505416870117;-2.688025951385498;-45.89646911621094
221;1673366413.4004426;47.1306367;7.240607;49.87200164794922;1673366413.4886246;28.803388595581055;-1.5385023355484009;-45.5150260925293
222;1673366413.5987442;47.1306365;7.240606499999999;49.89200210571289;1673366413.6900403;28.61168670654297;0.5788000226020813;-45.05473709106445
223;1673366413.8234618;47.1306364;7.2406061;49.906002044677734;1673366413.903222;28.622329711914062;3.2490384578704834;-44.53847885131836
224;1673366414.0004244;47.1306362;7.2406057;49.9170036315918;1673366414.1102896;28.88821792602539;3.1445086002349854;-44.4847412109375
225;1673366414.217616;47.1306362;7.240605599999999;49.92500305175781;1673366414.3193333;29.51264190673828;1.5792170763015747;-44.79439926147461
226;1673366414.4077535;47.130635999999996;7.2406055;49.923004150390625;1673366414.4980743;22.324689865112305;0.5225570797920227;-46.369468688964844
227;1673366414.6108468;47.1306361;7.2406052;49.919002532958984;1673366414.7013533;-11.054280281066895;-0.7707105278968811;-48.89772415161133
228;1673366414.8070548;47.130637199999995;7.2406036;49.90400314331055;1673366414.905403;-36.520263671875;3.1875972747802734;-50.03632736206055
229;1673366414.9936264;47.1306401;7.2405991;49.823001861572266;1673366415.0953324;-35.76582336425781;1.2740271091461182;-48.143062591552734
230;1673366415.2013953;47.1306456;7.2405908;49.79300308227539;1673366415.2922354;-50.8034553527832;0.8189354538917542;-47.835445404052734
231;1673366415.3881514;47.130654;7.2405779;49.7910041809082;1673366415.497354;-50.61644744873047;0.6405783295631409;-47.305030822753906
232;1673366415.6193357;47.1306648;7.2405605;49.788002014160156;1673366415.7213702;-49.54350662231445;0.13362063467502594;-46.013004302978516
233;1673366415.8216267;47.130677999999996;7.240539399999999;49.781002044677734;1673366415.9203804;-51.64570617675781;1.5173957347869873;-46.336360931396484
234;1673366416.0312753;47.130693099999995;7.240514999999999;49.77900314331055;1673366416.122419;-52.74528121948242;2.5345115661621094;-47.44126510620117
235;1673366416.2116401;47.1307103;7.2404874999999995;49.7910041809082;1673366416.3045323;-55.988006591796875;0.742179811000824;-47.40510940551758
236;1673366416.4173536;47.1307294;7.2404569;49.82200241088867;1673366416.5205164;-59.611080169677734;0.5565386414527893;-46.910213470458984
237;1673366416.6435828;47.1307504;7.2404231999999995;49.85600280761719;1673366416.7743232;-58.330078125;1.0659234523773193;-46.46775436401367
238;1673366416.8697019;47.130773;7.2403870999999995;49.87800216674805;1673366416.9674356;-57.02101135253906;0.5860355496406555;-46.47829055786133
239;1673366417.064218;47.1307968;7.2403493;49.880001068115234;1673366417.1513407;-55.44636535644531;1.4154531955718994;-46.53706359863281
240;1673366417.2500498;47.1308217;7.2403097999999995;49.8640022277832;1673366417.3533368;-52.207950592041016;1.4281909465789795;-46.5576171875
241;1673366417.4464614;47.1308474;7.2402693;49.8380012512207;1673366417.5353377;-49.19832229614258;1.401347279548645;-46.34783935546875
242;1673366417.624777;47.1308735;7.2402282;49.80800247192383;1673366417.7115262;-45.41697311401367;0.7747034430503845;-45.990901947021484
243;1673366417.8158908;47.1309;7.2401868;49.80800247192383;1673366417.9028943;-10.537732124328613;0.4239981174468994;-46.11390686035156
244;1673366418.0118694;47.1309257;7.2401468;49.81900405883789;1673366418.1067069;37.41999435424805;4.57650089263916;-45.971458435058594
245;1673366418.2118447;47.1309493;7.2401101;49.71600341796875;1673366418.3070695;26.554521560668945;3.157949209213257;-44.128047943115234
246;1673366418.410246;47.130970399999995;7.240077299999999;49.410003662109375;1673366418.5040631;17.83180809020996;-0.8046001195907593;-46.80308532714844
247;1673366418.6084511;47.1309891;7.2400481999999995;49.12700271606445;1673366418.6988919;15.95357894897461;-0.5473640561103821;-47.3878288269043
248;1673366418.791969;47.1310055;7.2400227;48.97300338745117;1673366418.887835;18.35016632080078;-0.22949039936065674;-47.211891174316406
249;1673366418.993063;47.131019699999996;7.2400008;49.05000305175781;1673366419.0821962;55.840171813964844;-0.4628159999847412;-47.29945373535156
250;1673366419.1812887;47.1310308;7.2399838;49.2140007019043;1673366419.2736013;57.4101676940918;0.7328478097915649;-46.31728744506836
251;1673366419.3934145;47.1310382;7.2399727;49.38500213623047;1673366419.481191;62.248687744140625;-0.27526745200157166;-47.198204040527344
252;1673366419.5782895;47.1310418;7.2399672;49.54900360107422;1673366419.6836367;62.33350372314453;-0.8924407958984375;-47.86428451538086
253;1673366419.8008125;47.131042699999995;7.2399664999999995;49.682003021240234;1673366419.8931463;61.82112503051758;-0.8208063840866089;-46.97722244262695
254;1673366420.0104227;47.1310411;7.239969599999999;49.781002044677734;1673366420.1079533;60.96575927734375;-0.7832803130149841;-47.04237365722656
255;1673366420.2032824;47.1310374;7.239975599999999;49.849002838134766;1673366420.2965457;57.087432861328125;-0.26482924818992615;-46.282554626464844
256;1673366420.4104853;47.1310323;7.2399837;49.887001037597656;1673366420.509623;50.33301544189453;-0.5073479413986206;-46.692779541015625
257;1673366420.609727;47.131026399999996;7.239992999999999;49.90700149536133;1673366420.704945;40.57828903198242;-0.5689834952354431;-46.717281341552734
258;1673366420.8226845;47.1310201;7.240002499999999;49.90700149536133;1673366420.9121866;29.684499740600586;-0.12901172041893005;-46.97189712524414
259;1673366421.0035682;47.131014199999996;7.2400113;49.89600372314453;1673366421.1078062;20.41631507873535;0.34966135025024414;-47.105587005615234
260;1673366421.2148883;47.131009;7.2400191;49.87000274658203;1673366421.3004115;13.42559814453125;0.6206263303756714;-46.8652458190918
261;1673366421.4026573;47.1310047;7.2400253;49.8390007019043;1673366421.4920106;10.11612319946289;0.9957310557365417;-46.57527160644531
262;1673366421.6011214;47.1310016;7.2400299;49.81100082397461;1673366421.6944625;10.39343547821045;1.547017216682434;-46.29351806640625
263;1673366421.8094766;47.1309997;7.2400326999999995;49.79300308227539;1673366421.9238849;13.176074981689453;2.9373364448547363;-46.02630615234375
264;1673366422.032893;47.1309987;7.240034199999999;49.790000915527344;1673366422.1192117;16.346296310424805;2.1470530033111572;-46.043094635009766
265;1673366422.217483;47.1309985;7.2400343;49.802001953125;1673366422.332173;21.651334762573242;0.7977737784385681;-45.734615325927734
266;1673366422.4323306;47.1309987;7.240033899999999;49.80400085449219;1673366422.518977;20.12628936767578;-9.433197021484375;-49.673583984375
267;1673366422.6063778;47.1309992;7.2400331;49.52000045776367;1673366422.6986685;4.978252410888672;-22.72504997253418;-51.23691940307617
268;1673366422.8046453;47.1309998;7.240031999999999;48.874000549316406;1673366422.9076686;-20.519763946533203;-33.362831115722656;-43.760135650634766
269;1673366423.0127976;47.1310005;7.2400307999999995;47.84700393676758;1673366423.1071694;-49.36628341674805;-48.325191497802734;-22.16357421875
270;1673366423.1997437;47.131001499999996;7.2400296;46.43700408935547;1673366423.291525;-67.51913452148438;-83.3796157836914;27.248382568359375
271;1673366423.4096122;47.1310025;7.240028499999999;44.660003662109375;1673366423.5327413;-69.69746398925781;-109.15648651123047;71.92504119873047
272;1673366423.6480277;47.1310036;7.2400272;42.512001037597656;1673366423.7403033;-71.48211669921875;-75.34809875488281;58.74068832397461
273;1673366423.8407443;47.1310046;7.2400259;40.02100372314453;1673366423.9757512;-53.94766616821289;-14.739072799682617;17.47496795654297
274;1673366424.096746;47.1310055;7.240024399999999;37.176002502441406;1673366424.1798747;-14.269725799560547;7.1756367683410645;9.990352630615234
275;1673366424.2830746;47.131006299999996;7.2400226;33.948001861572266;1673366424.3755376;26.03632926940918;9.717863082885742;10.863192558288574
276;1673366424.4972732;47.1310073;7.2400205;30.332000732421875;1673366424.607224;46.800533294677734;-6.023183345794678;5.921515464782715
277;1673366424.7007172;47.131008699999995;7.2400180999999995;26.35900115966797;1673366424.7711604;36.662532806396484;-26.60646629333496;4.837355613708496
278;1673366424.861659;47.131010499999995;7.2400157;22.01500129699707;1673366424.9791334;3.445619821548462;-36.507015228271484;21.55853271484375
279;1673366425.0872207;47.1310125;7.2400136999999996;17.296001434326172;1673366425.1748652;-32.0915412902832;-41.359458923339844;44.66663360595703
280;1673366425.2991834;47.1310144;7.2400119;12.210000991821289;1673366425.3910902;-48.94744110107422;-28.803268432617188;54.244300842285156
281;1673366425.5037758;47.1310158;7.2400098999999996;6.788000106811523;1673366425.5847862;-32.60319519042969;1.314549207687378;44.7430534362793
282;1673366425.6760914;47.131017;7.2400074;1.0160000324249268;1673366425.7578852;-4.265414714813232;-9.494637489318848;45.99671173095703
283;1673366425.840446;47.1310186;7.2400066;0.2990000247955322;1673366425.9192338;-4.553493499755859;-4.5361223220825195;42.450618743896484
284;1673366426.018395;47.131018999999995;7.240006999999999;0.3710000216960907;1673366426.108527;-4.028326034545898;-6.930567264556885;41.57419204711914
285;1673366426.2115552;47.131019099999996;7.2400078;0.44200003147125244;1673366426.3058474;-3.842116117477417;-6.424975872039795;41.12989044189453
286;1673366426.4167442;47.1310192;7.2400082999999995;0.4790000319480896;1673366426.5100477;-3.6745288372039795;-5.590504169464111;40.77146530151367
287;1673366426.6131651;47.1310193;7.2400084;0.49500003457069397;1673366426.7065334;-3.5204432010650635;-5.931825160980225;40.41120910644531
288;1673366426.8279946;47.1310194;7.2400084;0.49900001287460327;1673366426.927113;-3.315303087234497;-5.623798847198486;40.022396087646484
289;1673366427.0324223;47.1310195;7.2400082;0.4960000216960907;1673366427.1360703;-3.1494390964508057;-5.578042030334473;39.58075714111328
290;1673366427.2479208;47.131019599999995;7.2400079999999996;0.4870000183582306;1673366427.3484437;-3.05851411819458;-5.726408958435059;39.16402816772461
291;1673366427.4493775;47.1310204;7.2400078;0.49400001764297485;1673366427.5465436;-2.9314651489257812;-6.093128204345703;38.83737564086914
292;1673366427.652742;47.1310207;7.240007599999999;0.49500003457069397;1673366427.7470267;-2.8122200965881348;-6.380042552947998;38.54630661010742
293;1673366427.8419244;47.131020799999995;7.2400074;0.4910000264644623;1673366427.928409;-2.687030792236328;-6.818747043609619;38.283203125
294;1673366428.0275156;47.131020799999995;7.240007299999999;0.4820000231266022;1673366428.118842;-2.523852586746216;-7.07373571395874;38.0115852355957
295;1673366428.2199216;47.1310207;7.2400072;0.47300001978874207;1673366428.3221405;-2.4254467487335205;-7.2578840255737305;37.701412200927734
296;1673366428.4289055;47.1310207;7.2400071;0.46300002932548523;1673366428.5262547;-2.2674639225006104;-7.433656692504883;37.45175552368164
297;1673366428.6391335;47.1310206;7.240006999999999;0.45500001311302185;1673366428.762038;-2.1698970794677734;-7.548633098602295;37.21229553222656
298;1673366428.866549;47.1310216;7.2400066;0.45600003004074097;1673366428.955033;-2.06196665763855;-7.5524139404296875;36.9597053527832
299;1673366429.0591605;47.1310219;7.2400065;0.453000009059906;1673366429.1574771;-1.9527868032455444;-7.487082004547119;36.73298263549805
300;1673366429.2630324;47.131021999999994;7.2400063999999995;0.4490000307559967;1673366429.3465326;-1.7824461460113525;-7.344287872314453;36.50001525878906
301;1673366429.44161;47.1310219;7.2400063999999995;0.4440000355243683;1673366429.5338228;-1.6666464805603027;-7.1352410316467285;36.254581451416016
302;1673366429.6262982;47.1310218;7.2400063999999995;0.4410000145435333;1673366429.7139466;-1.5522922277450562;-6.867892742156982;36.057308197021484
303;1673366429.8199897;47.1310216;7.2400063999999995;0.43700000643730164;1673366429.924383;-1.4874557256698608;-6.700550079345703;35.91364288330078
304;1673366430.0183556;47.1310224;7.240005999999999;0.4360000193119049;1673366430.1077583;-1.3713338375091553;-6.42134428024292;35.75204086303711
305;1673366430.2147613;47.131022599999994;7.2400058;0.43400001525878906;1673366430.3092444;-1.19942307472229;-6.066186428070068;35.58772277832031
306;1673366430.424211;47.131022599999994;7.2400058;0.4320000112056732;1673366430.521599;-1.1350089311599731;-5.752236366271973;35.48152160644531
307;1673366430.6237664;47.1310224;7.2400058;0.4220000207424164;1673366430.7297847;-1.0089410543441772;-5.45369291305542;35.35638427734375
308;1673366430.8339682;47.131022099999996;7.2400059;0.41200003027915955;1673366430.932869;-0.9240850806236267;-5.167999744415283;35.26291275024414
309;1673366431.042567;47.1310218;7.2400059;0.4020000100135803;1673366431.1399295;-0.8352801203727722;-4.885752201080322;35.194984436035156
310;1673366431.2468605;47.1310216;7.2400059;0.3920000195503235;1673366431.3403034;-0.7048982977867126;-4.618948936462402;35.12092590332031
311;1673366431.4326155;47.131022099999996;7.2400055;0.3840000033378601;1673366431.5268517;-0.644529402256012;-4.302311897277832;35.03389358520508
312;1673366431.6361034;47.1310222;7.240005399999999;0.37400001287460327;1673366431.7303042;-0.5161355137825012;-3.991305351257324;34.96492004394531
313;1673366431.8367314;47.131021999999994;7.240005399999999;0.36500000953674316;1673366431.9271684;-0.4854956269264221;-3.713089942932129;34.89866638183594
314;1673366432.0451894;47.1310217;7.2400055;0.35600000619888306;1673366432.1398592;-0.371308296918869;-3.434377908706665;34.843997955322266
315;1673366432.2381465;47.131021399999995;7.2400056;0.34700000286102295;1673366432.3324764;-0.2637897729873657;-3.144639730453491;34.7979850769043
316;1673366432.4523642;47.1310211;7.240005699999999;0.3330000042915344;1673366432.539409;-0.29924654960632324;-2.022815704345703;34.80625534057617
317;1673366432.6414557;47.1310213;7.240005399999999;0.32600000500679016;1673366432.7278981;-0.264609694480896;-1.879412293434143;34.82110595703125
318;1673366432.8424244;47.1310213;7.240005399999999;-0.005000000353902578;;;;
