;pos_time;latitude;longitude;altitude;alt_time;pitch;roll;yaw
0;1673306007.6659896;47.1306423;7.2406201999999995;-0.009000000543892384;1673306007.8243573;0.04222330451011658;-0.17175589501857758;90.45344543457031
1;1673306007.8663108;47.1306423;7.2406201999999995;-0.010000000707805157;1673306008.0356114;0.10602089762687683;-0.19461941719055176;90.37251281738281
2;1673306008.07169;47.1306423;7.2406203;-0.01100000087171793;1673306008.2232337;-0.13948588073253632;-0.10682784020900726;90.361328125
3;1673306008.255475;47.1306423;7.2406203;-0.013000000268220901;1673306008.402451;-0.17067822813987732;-0.2595554292201996;90.546630859375
4;1673306008.4353466;47.1306423;7.2406204;-0.01600000075995922;1673306008.5967536;-0.24040257930755615;-0.13398702442646027;90.4560317993164
5;1673306008.6314325;47.1306424;7.2406204;-0.01600000075995922;1673306008.792155;-0.2293010950088501;-0.16760718822479248;90.36576080322266
6;1673306008.8356626;47.1306425;7.2406204999999995;-0.015000000596046448;1673306009.002276;-0.3352338373661041;-0.23484377562999725;90.48119354248047
7;1673306009.0370264;47.1306425;7.2406204999999995;-0.017000000923871994;1673306009.20694;-0.3273366689682007;-0.046378862112760544;90.38428497314453
8;1673306009.246957;47.1306425;7.2406204;-0.017000000923871994;1673306009.3970907;-0.14125975966453552;-0.3262862265110016;90.50882720947266
9;1673306009.433786;47.1306425;7.2406203;-0.01900000125169754;1673306009.5996013;0.15531112253665924;-0.35159561038017273;90.4853286743164
10;1673306009.6362498;47.1306425;7.2406201999999995;0.0;1673306009.801599;0.03645624220371246;-1.1258472204208374;90.27908325195312
11;1673306009.8397236;47.1306425;7.2406203;0.003000000026077032;1673306009.9996088;-0.15407198667526245;-0.6503176689147949;90.45440673828125
12;1673306010.0353265;47.1306425;7.2406201999999995;0.006000000052154064;1673306010.2058055;0.05939445644617081;-0.8637483716011047;90.49932098388672
13;1673306010.2453935;47.1306424;7.2406201999999995;0.007000000216066837;1673306010.3938851;0.13690395653247833;-0.6668692231178284;90.38792419433594
14;1673306010.4305441;47.1306424;7.2406201999999995;0.006000000052154064;1673306010.595224;-0.11707357317209244;-0.7991803884506226;90.43830871582031
15;1673306010.6429281;47.1306423;7.2406203;0.007000000216066837;1673306010.7961333;-0.16502068936824799;-1.5137865543365479;90.380859375
16;1673306010.8342144;47.1306423;7.2406203;0.003000000026077032;1673306010.9913814;0.08382383733987808;-1.285245656967163;90.15699005126953
17;1673306011.0294387;47.1306423;7.2406204;0.004000000189989805;1673306011.182055;-0.09556927531957626;-1.5532337427139282;90.20394134521484
18;1673306011.218327;47.1306423;7.2406204;0.0;1673306011.3955414;0.10948105901479721;-1.4771318435668945;90.05487823486328
19;1673306011.4353304;47.1306423;7.2406204;0.003000000026077032;1673306011.593489;0.10261328518390656;-1.4597541093826294;89.99723815917969
20;1673306011.6260462;47.1306423;7.2406204;0.004000000189989805;1673306011.7915053;0.039722513407468796;-0.8305926322937012;89.80198669433594
21;1673306011.8293118;47.1306423;7.2406204;0.005000000353902578;1673306011.9802825;0.28126227855682373;-0.9940354824066162;89.42021179199219
22;1673306012.0206463;47.1306424;7.2406204;0.00800000037997961;1673306012.1973522;0.6737729907035828;-0.3486570715904236;89.12255859375
23;1673306012.2351608;47.1306425;7.2406204;0.01600000075995922;1673306012.3972375;0.6961734294891357;-0.5806154012680054;88.76782989501953
24;1673306012.4342113;47.1306425;7.2406204;0.01100000087171793;1673306012.5984306;1.3706990480422974;-0.3944092392921448;87.64311981201172
25;1673306012.6342018;47.130642699999996;7.2406203;0.013000000268220901;1673306012.8017387;2.833597421646118;-0.5752983093261719;86.3116455078125
26;1673306012.8371763;47.1306429;7.2406201999999995;0.014000000432133675;1673306012.9971359;0.46111923456192017;2.4184117317199707;76.60620880126953
27;1673306013.0312002;47.130643199999994;7.240619799999999;0.01100000087171793;1673306013.1911898;-0.5123981833457947;4.7400007247924805;76.32393646240234
28;1673306013.2270827;47.1306437;7.240618899999999;0.015000000596046448;1673306013.3994257;-3.606987714767456;5.925241947174072;82.6720962524414
29;1673306013.442716;47.1306444;7.2406175;0.024000000208616257;1673306013.6150892;-7.9074530601501465;9.000860214233398;85.26676177978516
30;1673306013.6493702;47.1306452;7.2406159;0.039000000804662704;1673306013.8112862;-10.925671577453613;12.326144218444824;85.67095947265625
31;1673306013.85839;47.1306461;7.240614;0.06700000166893005;1673306014.0190434;-12.2274751663208;13.695688247680664;85.98394012451172
32;1673306014.0632772;47.130646999999996;7.2406121;0.10200000554323196;1673306014.214176;-13.74328327178955;14.268621444702148;86.29829406738281
33;1673306014.2496662;47.1306479;7.2406105;0.14500001072883606;1673306014.4141622;-15.265116691589355;15.281818389892578;86.5558853149414
34;1673306014.4782221;47.130648699999995;7.240609;0.19500000774860382;1673306014.6337028;-16.932403564453125;16.385086059570312;86.69718170166016
35;1673306014.67035;47.130649299999995;7.240607799999999;0.2590000033378601;1673306014.8144066;-18.62202262878418;17.697595596313477;86.90097045898438
36;1673306014.8481905;47.1306496;7.240607;0.3330000042915344;1673306014.99826;-20.250581741333008;19.003095626831055;87.17713165283203
37;1673306015.0324638;47.1306497;7.2406068999999995;0.42000001668930054;1673306015.206316;-21.85427474975586;19.981504440307617;87.50020599365234
38;1673306015.2452254;47.1306495;7.2406074;0.5100000500679016;1673306015.4061246;-22.511253356933594;20.07927894592285;88.02932739257812
39;1673306015.4354415;47.1306489;7.240608699999999;0.6080000400543213;1673306015.588865;-19.997270584106445;19.426679611206055;88.41834259033203
40;1673306015.624036;47.1306479;7.240610599999999;0.7100000381469727;1673306015.7845783;-17.196292877197266;16.711698532104492;88.8267593383789
41;1673306015.8297641;47.1306468;7.2406128;0.8290000557899475;1673306015.985417;-13.892102241516113;10.771088600158691;89.85966491699219
42;1673306016.020551;47.1306456;7.240615099999999;0.968000054359436;1673306016.1918342;-11.21706485748291;12.03897762298584;89.18607330322266
43;1673306016.2371063;47.130644499999995;7.2406171;1.1170001029968262;1673306016.3940456;-9.273974418640137;11.577789306640625;88.85617065429688
44;1673306016.4473894;47.1306436;7.2406187;1.28000009059906;1673306016.613558;-8.7776517868042;7.835900783538818;89.35137939453125
45;1673306016.6463087;47.130643;7.240619799999999;1.4600000381469727;1673306016.798286;-9.45837688446045;9.093536376953125;88.9142837524414
46;1673306016.8335764;47.130642699999996;7.2406203;1.6470000743865967;1673306016.996702;-9.030122756958008;14.042924880981445;80.43904113769531
47;1673306017.034779;47.130642599999995;7.2406204;1.8480000495910645;1673306017.2037382;-10.861395835876465;10.11939811706543;80.86286926269531
48;1673306017.2408268;47.130642599999995;7.2406201999999995;2.055999994277954;1673306017.403134;-11.844291687011719;12.035852432250977;80.2166748046875
49;1673306017.436315;47.130642699999996;7.2406198999999996;2.263000011444092;1673306017.5887105;-12.476993560791016;15.813603401184082;79.24404907226562
50;1673306017.6238625;47.130642699999996;7.240619499999999;2.4690001010894775;1673306017.781257;-13.213059425354004;13.318036079406738;79.64796447753906
51;1673306017.8205836;47.130642699999996;7.240619199999999;2.6780002117156982;1673306017.9804904;-13.937643051147461;12.018689155578613;79.90288543701172
52;1673306018.0224578;47.1306429;7.240619;2.890000104904175;1673306018.20119;-13.582351684570312;16.959617614746094;78.84998321533203
53;1673306018.2363229;47.130643;7.240618899999999;3.0940001010894775;1673306018.3820722;-13.598011016845703;15.948692321777344;79.07177734375
54;1673306018.4163635;47.130643;7.240618899999999;3.3010001182556152;1673306018.574218;-13.902200698852539;12.620427131652832;79.84022521972656
55;1673306018.609352;47.130643;7.240619;3.504000186920166;1673306018.7873619;-13.529988288879395;14.974116325378418;79.42318725585938
56;1673306018.827445;47.1306428;7.240619199999999;3.7080001831054688;1673306018.996214;-12.87193775177002;15.282209396362305;79.02798461914062
57;1673306019.034423;47.1306424;7.2406194;3.9140002727508545;1673306019.194229;-12.893616676330566;11.366908073425293;79.53941345214844
58;1673306019.2303412;47.1306422;7.2406197;4.12000036239624;1673306019.4050033;-12.840858459472656;12.373743057250977;79.3813247680664
59;1673306019.4440582;47.130642099999996;7.240619799999999;4.320000171661377;1673306019.603552;-12.412424087524414;15.715420722961426;78.7832260131836
60;1673306019.6446393;47.130641999999995;7.24062;4.519999980926514;1673306019.7992878;-12.346259117126465;12.187678337097168;79.40603637695312
61;1673306019.8413122;47.130641999999995;7.2406201;4.7230000495910645;1673306020.0046308;-12.736230850219727;11.6089506149292;79.77806854248047
62;1673306020.0475755;47.130641999999995;7.2406201;4.927000045776367;1673306020.2168994;-12.516791343688965;15.6685209274292;78.98121643066406
63;1673306020.2502284;47.1306419;7.2406201;5.128000259399414;1673306020.401216;-12.371957778930664;13.325508117675781;79.1388168334961
64;1673306020.4402637;47.1306419;7.2406201999999995;5.331000328063965;1673306020.6144452;-12.692111015319824;11.314812660217285;79.66271209716797
65;1673306020.6522012;47.130641999999995;7.2406201999999995;5.531000137329102;1673306020.8199818;-12.55128002166748;15.37594985961914;79.1222152709961
66;1673306020.8532228;47.130642099999996;7.2406201999999995;5.729000091552734;1673306021.0012355;-12.586748123168945;16.010221481323242;79.23155975341797
67;1673306021.0364904;47.1306422;7.2406201999999995;5.934000492095947;1673306021.1965585;-12.916020393371582;11.975198745727539;79.7963638305664
68;1673306021.248357;47.1306423;7.2406201999999995;6.13800048828125;1673306021.405827;-12.772167205810547;14.298884391784668;79.27303314208984
69;1673306021.4390185;47.1306423;7.2406201999999995;6.339000225067139;1673306021.6050317;-12.574840545654297;15.84553050994873;78.90090942382812
70;1673306021.641139;47.130642099999996;7.2406201999999995;6.539000511169434;1673306021.8132322;-12.815370559692383;12.584125518798828;79.43354797363281
71;1673306021.8538356;47.130642099999996;7.2406201999999995;6.743000507354736;1673306022.0185049;-13.003678321838379;12.378413200378418;79.5787353515625
72;1673306022.0743544;47.130642099999996;7.2406201999999995;6.944000244140625;1673306022.2478385;-12.632492065429688;16.259593963623047;78.82645416259766
73;1673306022.2835338;47.130642099999996;7.2406201999999995;7.142000198364258;1673306022.4354076;-12.559778213500977;13.078181266784668;79.45234680175781
74;1673306022.4663315;47.130642099999996;7.2406201999999995;7.344000339508057;1673306022.6277032;-13.02064037322998;11.958513259887695;79.65091705322266
75;1673306022.6693196;47.1306422;7.2406201999999995;7.5450005531311035;1673306022.876979;-12.702640533447266;16.1003475189209;78.90003967285156
76;1673306022.9062824;47.130642099999996;7.2406203;7.738000392913818;1673306023.0863569;-12.480330467224121;13.567251205444336;79.07592010498047
77;1673306023.1175878;47.130641999999995;7.2406203;7.929000377655029;1673306023.2943826;-12.917878150939941;11.36541748046875;79.7829360961914
78;1673306023.3295298;47.130641999999995;7.2406204;8.12600040435791;1673306023.497378;-12.839646339416504;14.19141960144043;79.29560089111328
79;1673306023.5267093;47.130642099999996;7.2406203;8.322999954223633;1673306023.6731596;-12.425734519958496;16.06537628173828;78.90939331054688
80;1673306023.7074652;47.1306422;7.2406203;8.523000717163086;1673306023.88061;-12.694177627563477;11.997533798217773;79.7779541015625
81;1673306023.9472194;47.1306423;7.2406204;8.717000007629395;1673306024.1317728;-12.831300735473633;14.112927436828613;79.375244140625
82;1673306024.1583145;47.1306423;7.2406204;8.913000106811523;1673306024.350454;-12.612801551818848;16.42925262451172;78.77903747558594
83;1673306024.3705287;47.1306422;7.2406204;9.106000900268555;1673306024.4812849;-12.575366973876953;12.943255424499512;79.33599090576172
84;1673306024.5115793;47.1306422;7.2406204999999995;9.303000450134277;1673306024.6689038;-13.00885009765625;12.131308555603027;79.78827667236328
85;1673306024.7020648;47.1306422;7.2406204;9.50100040435791;1673306024.853963;-12.588664054870605;15.904499053955078;79.01505279541016
86;1673306024.886768;47.1306422;7.2406204999999995;9.701000213623047;1673306025.0486653;-12.45533561706543;14.478011131286621;79.23306274414062
87;1673306025.091228;47.1306423;7.2406204999999995;9.903000831604004;1673306025.2642097;-12.804139137268066;11.233748435974121;79.89190673828125
88;1673306025.2993605;47.1306423;7.2406206;10.101000785827637;1673306025.4658284;-11.919205665588379;14.18881607055664;79.19666290283203
89;1673306025.498055;47.1306423;7.2406207;10.342000961303711;1673306025.6651196;-13.881816864013672;16.71615219116211;79.1386489868164
90;1673306025.7002854;47.1306422;7.240621;10.677000045776367;1673306025.8470771;-13.975204467773438;13.63752269744873;79.80136108398438
91;1673306025.8780687;47.1306419;7.240621399999999;11.057000160217285;1673306026.0114048;-12.533914566040039;11.895212173461914;79.7805404663086
92;1673306026.0465477;47.1306417;7.2406217999999996;11.447000503540039;1673306026.1940658;-11.49110221862793;14.808390617370605;78.83457946777344
93;1673306026.232194;47.130641399999995;7.2406222;11.843000411987305;1673306026.4091997;-10.938056945800781;12.366531372070312;79.22457122802734
94;1673306026.44148;47.1306413;7.2406225;12.245000839233398;1673306026.61441;-11.152743339538574;9.81191349029541;79.56065368652344
95;1673306026.6563876;47.1306413;7.2406226;12.645000457763672;1673306026.8393657;-10.968964576721191;13.59784984588623;79.10343170166016
96;1673306026.876059;47.1306413;7.2406226;13.040000915527344;1673306027.0299635;-11.0726900100708;13.298746109008789;79.1286392211914
97;1673306027.0950034;47.1306413;7.2406223999999995;13.428000450134277;1673306027.2479203;-11.743861198425293;10.708608627319336;79.62914276123047
98;1673306027.3091967;47.130641399999995;7.2406222;13.809000968933105;1673306027.448549;-12.025505065917969;13.417675971984863;79.13988494873047
99;1673306027.4867246;47.130641499999996;7.2406219;14.189001083374023;1673306027.6436715;-12.044479370117188;15.667621612548828;78.91844177246094
100;1673306027.6735046;47.1306417;7.240621699999999;14.570000648498535;1673306027.8334002;-12.47794246673584;11.735909461975098;79.71805572509766
101;1673306027.8759193;47.1306419;7.2406215;14.949000358581543;1673306028.026876;-12.72083854675293;13.055526733398438;79.5296401977539
102;1673306028.0600622;47.130642099999996;7.240621399999999;15.328001022338867;1673306028.2459617;-12.304988861083984;16.69355010986328;78.9499740600586
103;1673306028.2794094;47.1306422;7.2406213;15.710000991821289;1673306028.4331691;-12.560124397277832;12.889630317687988;79.5930404663086
104;1673306028.4699984;47.130642099999996;7.240621399999999;16.095001220703125;1673306028.6254323;-12.6151123046875;12.5911226272583;79.66730499267578
105;1673306028.6596982;47.130642099999996;7.240621399999999;16.47800064086914;1673306028.8363717;-12.101981163024902;15.761466979980469;79.02362823486328
106;1673306028.8740911;47.130642099999996;7.240621399999999;16.869001388549805;1673306029.0961025;-12.275285720825195;14.093149185180664;79.32685852050781
107;1673306029.1254492;47.130642099999996;7.240621399999999;17.267000198364258;1673306029.2911217;-12.2205810546875;11.114897727966309;79.83006286621094
108;1673306029.3204045;47.130642099999996;7.2406215;17.661001205444336;1673306029.4642034;-12.018599510192871;15.296053886413574;79.07521057128906
109;1673306029.520226;47.130642099999996;7.2406215;18.0570011138916;1673306029.6621664;-11.942239761352539;14.232481956481934;78.96174621582031
110;1673306029.6919878;47.130641999999995;7.2406215;18.453001022338867;1673306029.836289;-12.239786148071289;11.037334442138672;79.5833969116211
111;1673306029.874497;47.1306419;7.240621399999999;18.84600067138672;1673306030.022433;-12.186344146728516;13.699126243591309;79.26226806640625
112;1673306030.0578008;47.1306418;7.240621399999999;19.242000579833984;1673306030.209103;-11.893143653869629;15.089668273925781;78.88972473144531
113;1673306030.239342;47.1306418;7.240621399999999;19.64000129699707;1673306030.3940666;-12.157745361328125;11.407612800598145;79.8014144897461
114;1673306030.4331188;47.130641999999995;7.240621399999999;20.034000396728516;1673306030.6030912;-12.12695598602295;12.873095512390137;79.55487060546875
115;1673306030.6352987;47.130642099999996;7.240621399999999;20.429000854492188;1673306030.7820334;-11.838659286499023;16.275835037231445;79.00366973876953
116;1673306030.8221095;47.1306422;7.2406213;20.82000160217285;1673306030.9933922;-12.065834999084473;12.519486427307129;79.5302963256836
117;1673306031.0324311;47.1306423;7.2406213;21.21500015258789;1673306031.19355;-12.312582015991211;12.760379791259766;79.60933685302734
118;1673306031.2307842;47.1306423;7.2406212;21.60300064086914;1673306031.3936152;-11.843287467956543;15.96768856048584;78.92137145996094
119;1673306031.4287767;47.1306424;7.240621099999999;21.99700164794922;1673306031.587219;-12.054309844970703;14.614824295043945;79.17668914794922
120;1673306031.6282094;47.1306424;7.240621;22.391000747680664;1673306031.7892702;-12.480875015258789;11.835000038146973;79.60166931152344
121;1673306031.8263564;47.1306425;7.240621;22.78700065612793;1673306031.9965448;-12.165596008300781;15.579390525817871;78.96639251708984
122;1673306032.0316777;47.1306424;7.2406209;23.187000274658203;1673306032.1890793;-12.172858238220215;14.9390230178833;79.04014587402344
123;1673306032.2263043;47.1306424;7.240620799999999;23.589000701904297;1673306032.3933365;-12.673696517944336;11.551506042480469;79.76553344726562
124;1673306032.4324489;47.1306423;7.2406207;23.983001708984375;1673306032.605245;-12.649908065795898;13.619284629821777;79.3910140991211
125;1673306032.6484163;47.1306422;7.2406206;24.381000518798828;1673306032.8102431;-12.363531112670898;15.284570693969727;78.98320007324219
126;1673306032.8522282;47.130642099999996;7.2406206;24.784000396728516;1673306033.0223389;-12.549375534057617;11.707636833190918;79.72278594970703
127;1673306033.060427;47.1306422;7.2406206;25.183000564575195;1673306033.2198575;-12.36803150177002;13.0266752243042;79.54669952392578
128;1673306033.2530715;47.1306424;7.2406206;25.582000732421875;1673306033.4037375;-11.950682640075684;16.245769500732422;78.89286041259766
129;1673306033.4390957;47.1306424;7.2406207;25.977001190185547;1673306033.6069188;-11.999739646911621;12.950439453125;79.37094116210938
130;1673306033.64522;47.1306424;7.2406207;26.376001358032227;1673306033.81219;-12.262076377868652;12.184414863586426;79.74779510498047
131;1673306033.846321;47.1306424;7.2406207;26.7710018157959;1673306034.0075479;-11.757676124572754;15.757180213928223;78.93531799316406
132;1673306034.0515447;47.1306424;7.2406207;27.170001983642578;1673306034.2196934;-11.993617057800293;14.481683731079102;79.20378112792969
133;1673306034.2569737;47.1306425;7.2406207;27.57400131225586;1673306034.4180183;-12.244361877441406;11.778311729431152;79.7974624633789
134;1673306034.4502773;47.130642599999995;7.2406206;27.98200225830078;1673306034.6096153;-12.20046615600586;15.718643188476562;79.13168334960938
135;1673306034.6486604;47.130642599999995;7.2406206;28.391000747680664;1673306034.814942;-12.031656265258789;15.264470100402832;79.16304779052734
136;1673306034.8549602;47.1306425;7.2406204999999995;28.79100227355957;1673306035.0112364;-12.472867012023926;11.832314491271973;79.63811492919922
137;1673306035.0414817;47.1306424;7.2406204999999995;29.184001922607422;1673306035.1941578;-12.400155067443848;13.628677368164062;79.29654693603516
138;1673306035.2322204;47.1306423;7.2406204999999995;29.580001831054688;1673306035.399245;-11.978261947631836;15.67210865020752;78.93427276611328
139;1673306035.438276;47.1306423;7.2406204999999995;29.98000144958496;1673306035.6119542;-12.450892448425293;12.052945137023926;79.64611053466797
140;1673306035.650171;47.1306423;7.2406204;30.381000518798828;1673306035.8135753;-12.410477638244629;12.580849647521973;79.47185516357422
141;1673306035.8565454;47.1306423;7.2406204;30.78400230407715;1673306036.0166752;-12.14291763305664;16.51235008239746;78.96057891845703
142;1673306036.0568478;47.1306423;7.2406204;31.181001663208008;1673306036.2216802;-12.170418739318848;13.614990234375;79.37474060058594
143;1673306036.258094;47.1306423;7.2406204;31.579002380371094;1673306036.4051867;-12.506631851196289;12.014729499816895;79.85818481445312
144;1673306036.4448745;47.1306423;7.2406204;31.970001220703125;1673306036.6095886;-12.282910346984863;15.14874267578125;79.15530395507812
145;1673306036.6535068;47.1306423;7.2406204;32.36600112915039;1673306036.8098967;-12.213212966918945;14.522972106933594;79.25545501708984
146;1673306036.8430784;47.1306423;7.2406204;32.768001556396484;1673306037.0102508;-12.333251953125;11.648155212402344;79.79293823242188
147;1673306037.052363;47.1306424;7.2406204;33.17100143432617;1673306037.2167552;-12.138850212097168;15.601250648498535;79.0890121459961
148;1673306037.2528958;47.1306425;7.2406204999999995;33.57100296020508;1673306037.416825;-11.97875690460205;15.413593292236328;78.9576644897461
149;1673306037.4594007;47.1306424;7.2406204999999995;33.96800231933594;1673306037.6139987;-12.289082527160645;12.02236557006836;79.50956726074219
150;1673306037.651091;47.1306424;7.2406204999999995;34.361000061035156;1673306037.8093283;-12.495966911315918;13.380056381225586;79.37378692626953
151;1673306037.8425126;47.1306423;7.2406204999999995;34.75699996948242;1673306038.0109444;-11.927824974060059;15.79786491394043;78.83303833007812
152;1673306038.0549762;47.1306423;7.2406204999999995;35.15700149536133;1673306038.2254548;-12.276872634887695;12.853550910949707;79.55191802978516
153;1673306038.264481;47.1306424;7.2406204999999995;35.560001373291016;1673306038.432501;-12.31787109375;12.339875221252441;79.69890594482422
154;1673306038.4696522;47.1306425;7.2406204999999995;35.96600341796875;1673306038.6282306;-12.141472816467285;16.563491821289062;79.05512237548828
155;1673306038.6654122;47.130642599999995;7.2406204999999995;36.37000274658203;1673306038.8246992;-12.162589073181152;13.414441108703613;79.44677734375
156;1673306038.8617907;47.130642599999995;7.2406204999999995;36.77400207519531;1673306039.0351532;-12.48794174194336;11.900547981262207;79.64979553222656
157;1673306039.0732722;47.130642599999995;7.2406204999999995;37.1670036315918;1673306039.241415;-11.998954772949219;15.229109764099121;78.93333435058594
158;1673306039.2806199;47.1306425;7.2406204999999995;37.56700134277344;1673306039.4486372;-12.102540016174316;15.22469711303711;79.02285766601562
159;1673306039.486822;47.130642599999995;7.2406204999999995;37.970001220703125;1673306039.6367028;-12.382144927978516;11.79499626159668;79.81725311279297
160;1673306039.6747625;47.130642699999996;7.2406206;38.37600326538086;1673306039.8438034;-12.145522117614746;14.595136642456055;79.28797912597656
161;1673306039.8750367;47.1306428;7.2406206;38.781002044677734;1673306040.045868;-12.006834983825684;16.155363082885742;78.98047637939453
162;1673306040.081602;47.130642699999996;7.2406206;39.182003021240234;1673306040.2197921;-12.352461814880371;12.12000846862793;79.75212097167969
163;1673306040.2500477;47.130642699999996;7.2406204999999995;39.573001861572266;1673306040.421152;-12.371005058288574;12.821995735168457;79.57511138916016
164;1673306040.4587617;47.130642599999995;7.2406204999999995;39.96800231933594;1673306040.621421;-12.03001880645752;16.077892303466797;78.8259048461914
165;1673306040.65948;47.130642699999996;7.2406204999999995;40.36900329589844;1673306040.82438;-12.21864128112793;13.724687576293945;79.40613555908203
166;1673306040.8578227;47.130642699999996;7.2406204999999995;40.77100372314453;1673306041.0185518;-12.381416320800781;12.097212791442871;79.67765045166016
167;1673306041.0557191;47.1306429;7.2406204999999995;41.17500305175781;1673306041.24734;-12.024099349975586;16.18915367126465;78.9535903930664
168;1673306041.3012655;47.1306429;7.2406204999999995;41.5780029296875;1673306041.451293;-11.928155899047852;15.061822891235352;79.10922241210938
169;1673306041.4889545;47.1306429;7.2406204999999995;41.98200225830078;1673306041.6361802;-12.365737915039062;12.50319766998291;79.6778335571289
170;1673306041.6764874;47.1306428;7.2406204999999995;42.37700271606445;1673306041.8661654;-12.369684219360352;14.082015991210938;79.42115020751953
171;1673306041.9127474;47.130642699999996;7.2406204999999995;42.77800369262695;1673306042.061315;-11.99609661102295;15.527443885803223;79.03024291992188
172;1673306042.1195583;47.130642599999995;7.2406204999999995;43.18000030517578;1673306042.2818606;-12.218091011047363;12.340553283691406;79.66927337646484
173;1673306042.3170404;47.130642599999995;7.2406204999999995;43.586002349853516;1673306042.4623616;-12.414115905761719;13.194109916687012;79.45022583007812
174;1673306042.4976177;47.130642699999996;7.2406204;43.99400329589844;1673306042.6680741;-11.968597412109375;16.67585563659668;78.89856719970703
175;1673306042.7047887;47.130642699999996;7.2406204;44.400001525878906;1673306042.8547015;-12.075028419494629;13.164664268493652;79.30262756347656
176;1673306042.8923926;47.130642699999996;7.2406204;44.794002532958984;1673306043.0474672;-12.402953147888184;12.22628116607666;79.68074035644531
177;1673306043.0929155;47.130642699999996;7.2406204;45.19200134277344;1673306043.2657487;-12.212182998657227;15.671497344970703;79.18458557128906
178;1673306043.306837;47.130642599999995;7.2406204;45.592002868652344;1673306043.468658;-12.088510513305664;14.928535461425781;79.22173309326172
179;1673306043.5051134;47.130642599999995;7.2406204;45.993003845214844;1673306043.654151;-12.430750846862793;12.0217866897583;79.81407928466797
180;1673306043.6888435;47.130642699999996;7.2406203;46.397003173828125;1673306043.8649607;-12.205585479736328;14.866329193115234;79.15066528320312
181;1673306043.9016428;47.1306428;7.2406203;46.79900360107422;1673306044.0573947;-12.212141990661621;16.49203872680664;78.89025115966797
182;1673306044.0901444;47.1306428;7.2406203;47.20100402832031;1673306044.2461255;-12.229310035705566;12.64732837677002;79.45938873291016
183;1673306044.2862685;47.130642699999996;7.2406203;47.59400177001953;1673306044.4496267;-12.685007095336914;12.901138305664062;79.54511260986328
184;1673306044.4873161;47.130642599999995;7.2406201999999995;47.992000579833984;1673306044.6412108;-12.517278671264648;17.240262985229492;78.984619140625
185;1673306044.677338;47.130642599999995;7.2406201;48.35600280761719;1673306044.8367362;-12.48754596710205;13.33072566986084;79.66558837890625
186;1673306044.8699174;47.130642699999996;7.24062;48.669002532958984;1673306045.029176;-12.791807174682617;12.788795471191406;79.72737121582031
187;1673306045.0701983;47.1306429;7.240619799999999;48.93400192260742;1673306045.233362;-12.46821117401123;17.10548973083496;79.07595825195312
188;1673306045.2685242;47.1306431;7.2406196;49.15700149536133;1673306045.4209282;-12.511672019958496;14.289450645446777;79.4358901977539
189;1673306045.4570434;47.130643199999994;7.2406194;49.333003997802734;1673306045.6270182;-0.6492762565612793;19.51534080505371;76.8863296508789
190;1673306045.6620257;47.130643299999996;7.240619;49.46200180053711;1673306045.8230643;5.732071399688721;24.32756233215332;63.902687072753906
191;1673306045.8579583;47.130643;7.2406178;49.5420036315918;1673306046.0308857;-7.111189365386963;20.708145141601562;51.69966125488281
192;1673306046.0735521;47.1306423;7.2406162;49.60600280761719;1673306046.243242;4.432548999786377;21.865869522094727;43.69637680053711
193;1673306046.2869725;47.1306418;7.2406146;49.660003662109375;1673306046.434779;4.763850212097168;23.1680908203125;33.70894241333008
194;1673306046.4689322;47.1306411;7.2406128999999995;49.70600128173828;1673306046.6371615;6.793917179107666;20.780210494995117;24.526073455810547
195;1673306046.670734;47.1306404;7.2406112;49.74500274658203;1673306046.842015;9.235798835754395;18.814498901367188;15.359670639038086
196;1673306046.880416;47.130639599999995;7.240609699999999;49.768001556396484;1673306047.0330598;11.91187858581543;16.709491729736328;6.53257417678833
197;1673306047.0702415;47.1306388;7.2406085;49.7910041809082;1673306047.233059;14.835692405700684;15.415606498718262;-2.229693651199341
198;1673306047.280737;47.1306381;7.2406076;49.81800079345703;1673306047.437025;16.065168380737305;14.929939270019531;-10.931683540344238
199;1673306047.4729419;47.1306375;7.240607;49.840003967285156;1673306047.6285083;16.104501724243164;14.31546401977539;-19.709659576416016
200;1673306047.6708457;47.1306371;7.2406067;49.862003326416016;1673306047.8456552;16.487762451171875;11.095020294189453;-28.350963592529297
201;1673306047.8838773;47.1306367;7.2406067;49.88300323486328;1673306048.0485773;18.444683074951172;5.549977779388428;-37.113521575927734
202;1673306048.0892055;47.1306364;7.240606799999999;49.8900032043457;1673306048.2608247;20.268980026245117;1.23685622215271;-46.541927337646484
203;1673306048.2931085;47.1306364;7.240606799999999;49.9010009765625;1673306048.451439;20.45568084716797;-1.3827787637710571;-51.957496643066406
204;1673306048.4885817;47.1306364;7.2406067;49.91200256347656;1673306048.6603975;19.915502548217773;0.2093593180179596;-49.0305290222168
205;1673306048.702755;47.1306365;7.2406067;49.92100143432617;1673306048.8660533;19.49905776977539;2.350646495819092;-46.56597137451172
206;1673306048.9017332;47.1306364;7.2406066;49.93100357055664;1673306049.0856342;20.042734146118164;1.4402214288711548;-45.64816665649414
207;1673306049.1208968;47.1306362;7.240606499999999;49.93700408935547;1673306049.2708852;21.105958938598633;0.40320831537246704;-45.538963317871094
208;1673306049.3066025;47.130635999999996;7.2406064;49.94400405883789;1673306049.44894;21.610532760620117;0.3232994079589844;-45.63911056518555
209;1673306049.4846666;47.1306356;7.2406063;49.939002990722656;1673306049.6367168;20.381927490234375;3.175813913345337;-45.155784606933594
210;1673306049.6850882;47.1306355;7.2406061;49.94300079345703;1673306049.8523645;18.863842010498047;4.267236709594727;-44.80193328857422
211;1673306049.89207;47.1306355;7.2406061;49.95100402832031;1673306050.0569482;18.16116714477539;1.5890997648239136;-44.93355941772461
212;1673306050.0951734;47.130635399999996;7.240606;49.9640007019043;1673306050.2540905;19.452144622802734;-1.3922230005264282;-45.35823059082031
213;1673306050.2917063;47.130635299999994;7.240606;49.97500228881836;1673306050.4435434;20.436649322509766;0.3563821315765381;-45.093017578125
214;1673306050.483331;47.1306351;7.240605899999999;49.980003356933594;1673306050.6399405;3.612642288208008;3.397486925125122;-46.27798843383789
215;1673306050.6735168;47.1306351;7.240605599999999;49.970001220703125;1673306050.8478653;-32.530494689941406;5.4017415046691895;-48.73805236816406
216;1673306050.8893445;47.1306362;7.2406039;49.95100402832031;1673306051.0593758;-38.35720443725586;2.3911924362182617;-47.329925537109375
217;1673306051.1088638;47.130638999999995;7.2405995999999995;49.88800048828125;1673306051.2629492;-39.978240966796875;-1.7468940019607544;-45.38225173950195
218;1673306051.3009655;47.1306441;7.2405919999999995;49.8390007019043;1673306051.4643247;-44.15068817138672;-3.107663869857788;-44.476959228515625
219;1673306051.49988;47.1306513;7.240581199999999;49.81700134277344;1673306051.664696;-47.319637298583984;-3.5557804107666016;-45.0470085144043
220;1673306051.7049353;47.1306608;7.2405672;49.81300354003906;1673306051.8647273;-50.45254898071289;-3.5102596282958984;-45.84708023071289
221;1673306051.8990417;47.130672399999995;7.2405498999999995;49.81900405883789;1673306052.0567691;-52.45405197143555;-1.4466121196746826;-47.454193115234375
222;1673306052.0927775;47.1306857;7.2405292999999995;49.8280029296875;1673306052.264756;-55.7497444152832;0.8452869653701782;-47.80349349975586
223;1673306052.300923;47.1307012;7.2405059;49.85100173950195;1673306052.4678767;-58.011253356933594;-1.1659252643585205;-47.02345657348633
224;1673306052.5009427;47.1307185;7.2404794;49.880001068115234;1673306052.6922443;-56.65870666503906;-1.7358695268630981;-46.283443450927734
225;1673306052.728842;47.130737599999996;7.2404499;49.89500427246094;1673306052.8839905;-54.31338119506836;-0.7099912166595459;-46.717594146728516
226;1673306052.9186654;47.1307578;7.2404182;49.8910026550293;1673306053.0654917;-53.263118743896484;-1.4566682577133179;-46.8608512878418
227;1673306053.1038227;47.130779;7.2403849;49.87700271606445;1673306053.2641792;-52.455596923828125;-0.13017559051513672;-47.294639587402344
228;1673306053.3000581;47.1308006;7.240350299999999;49.862003326416016;1673306053.4579864;-50.68892288208008;0.6333678960800171;-47.23031997680664
229;1673306053.4888527;47.130823;7.240314499999999;49.836002349853516;1673306053.6379983;-47.8550910949707;0.1394702047109604;-47.1870231628418
230;1673306053.6729991;47.1308459;7.240277799999999;49.816001892089844;1673306053.8360739;-46.95004653930664;0.4690358340740204;-47.466285705566406
231;1673306053.8758636;47.130869;7.240240699999999;49.81300354003906;1673306054.0288298;-39.52094268798828;-0.6136980652809143;-47.27384948730469
232;1673306054.064951;47.1308922;7.2402035;49.82400131225586;1673306054.2278035;5.258170127868652;3.0584170818328857;-48.3084831237793
233;1673306054.2641006;47.1309146;7.2401675999999995;49.85000228881836;1673306054.432904;39.42993927001953;4.654623985290527;-45.3635368347168
234;1673306054.471839;47.130935;7.2401349999999995;49.75800323486328;1673306054.6501603;20.479724884033203;0.16335529088974;-46.310096740722656
235;1673306054.6867447;47.130952799999996;7.2401066;49.48100280761719;1673306054.8569722;16.847976684570312;-0.4002039134502411;-47.64496612548828
236;1673306054.8958805;47.1309682;7.2400820999999995;49.250003814697266;1673306055.0670395;14.976401329040527;0.21166737377643585;-47.8354377746582
237;1673306055.103357;47.130981399999996;7.240061099999999;49.17100143432617;1673306055.2678099;49.71147537231445;-0.37938085198402405;-48.914306640625
238;1673306055.307402;47.130992;7.2400443;49.290000915527344;1673306055.463758;54.17662811279297;-0.9266209006309509;-48.96435546875
239;1673306055.4987857;47.1309993;7.2400331;49.44700241088867;1673306055.6689827;60.6818962097168;-0.19992634654045105;-47.412261962890625
240;1673306055.7018547;47.131003;7.2400275;49.618003845214844;1673306055.8571548;63.11639404296875;-0.3409264385700226;-47.27396011352539
241;1673306055.8891044;47.131003199999995;7.2400275;49.76100158691406;1673306056.0605268;61.288719177246094;-0.3268233835697174;-47.32154846191406
242;1673306056.0919986;47.1310006;7.240031699999999;49.88100051879883;1673306056.244569;58.56675338745117;-0.3971523940563202;-47.03335189819336
243;1673306056.2807398;47.1309958;7.2400391;49.967002868652344;1673306056.4399717;52.82940673828125;-0.050108086317777634;-47.218719482421875
244;1673306056.4717693;47.1309895;7.2400489;50.02100372314453;1673306056.6305673;43.35077667236328;-0.15209245681762695;-47.27992248535156
245;1673306056.667686;47.1309824;7.240059899999999;50.0420036315918;1673306056.8320966;30.577041625976562;0.18341152369976044;-47.4873161315918
246;1673306056.8692586;47.130975;7.240071299999999;50.0420036315918;1673306057.051846;16.993045806884766;0.5961737036705017;-47.79859161376953
247;1673306057.0938218;47.1309681;7.240081999999999;50.01400375366211;1673306057.2992241;6.69309139251709;0.9155021905899048;-47.58051300048828
248;1673306057.3394687;47.1309622;7.240091;49.97700119018555;1673306057.4612274;-0.41722869873046875;1.0159624814987183;-47.158409118652344
249;1673306057.4964197;47.1309575;7.240098199999999;49.941001892089844;1673306057.6399877;-4.879805564880371;4.935968399047852;-46.70842361450195
250;1673306057.6731696;47.130953999999996;7.2401035;49.900001525878906;1673306057.8315432;-3.8301990032196045;0.9782062768936157;-47.84391403198242
251;1673306057.8705819;47.1309518;7.2401069;49.86900329589844;1673306058.0278418;3.572997808456421;-1.7477631568908691;-46.938987731933594
252;1673306058.064926;47.1309508;7.2401085;49.85000228881836;1673306058.2320957;9.59219741821289;0.5366978049278259;-46.3346061706543
253;1673306058.2713969;47.1309507;7.2401088;49.85100173950195;1673306058.4423635;14.554184913635254;1.38955819606781;-46.73805618286133
254;1673306058.4800346;47.130950999999996;7.2401082;49.8650016784668;1673306058.6397276;32.39216232299805;-15.020853996276855;-52.73984146118164
255;1673306058.6867695;47.1309514;7.2401070999999995;49.663002014160156;1673306058.8429456;39.250572204589844;-33.68675994873047;-61.67025375366211
256;1673306058.8770847;47.1309519;7.2401057;49.10900115966797;1673306059.0413618;36.552574157714844;-45.61832046508789;-64.06241607666016
257;1673306059.0803974;47.1309525;7.240104;48.18800354003906;1673306059.2359197;26.151689529418945;-47.04618835449219;-56.085845947265625
258;1673306059.2740374;47.1309532;7.2401022;46.90500259399414;1673306059.4362833;7.087539196014404;-40.36038589477539;-40.70174026489258
259;1673306059.4734147;47.1309542;7.2401003;45.25100326538086;1673306059.6609366;-20.952064514160156;-29.362428665161133;-23.550989151000977
260;1673306059.6972048;47.130955199999995;7.240098499999999;43.21200180053711;1673306059.858019;-50.414432525634766;-15.950007438659668;-9.933579444885254
261;1673306059.897124;47.130956399999995;7.2400968;40.7650032043457;1673306060.0653746;-66.86837768554688;3.4840714931488037;-6.229022979736328
262;1673306060.100662;47.1309574;7.2400952;37.96200180053711;1673306060.2572117;-61.94329071044922;16.408374786376953;-1.7036664485931396
263;1673306060.2921362;47.130958199999995;7.2400934999999995;34.8120002746582;1673306060.4804056;-36.40503692626953;13.517650604248047;9.820171356201172
264;1673306060.5144873;47.130958799999995;7.2400915999999995;31.3070011138916;1673306060.6960502;4.339083671569824;4.711861610412598;16.80135726928711
265;1673306060.7509804;47.130959399999995;7.240089299999999;27.424001693725586;1673306060.8990014;38.533878326416016;-11.805100440979004;15.135143280029297
266;1673306060.9298022;47.1309602;7.2400869;23.147001266479492;1673306061.1062653;45.802310943603516;-27.376449584960938;13.874144554138184
267;1673306061.1448715;47.1309614;7.240084599999999;18.499000549316406;1673306061.2911775;23.41313934326172;-25.54960823059082;29.002235412597656
268;1673306061.3226562;47.1309629;7.2400826;13.51400089263916;1673306061.4756296;-16.83785057067871;-18.538721084594727;45.11805725097656
269;1673306061.5153167;47.130964399999996;7.240081099999999;8.148000717163086;1673306061.6718433;-45.13685607910156;-8.567474365234375;54.2187385559082
270;1673306061.708931;47.1309657;7.2400794;2.4090001583099365;1673306061.8643003;10.908191680908203;-7.536247730255127;51.245365142822266
271;1673306061.899436;47.1309671;7.2400756;0.242000013589859;1673306062.0540922;14.36661434173584;-0.8358685970306396;47.46035385131836
272;1673306062.0932329;47.1309725;7.2400777;0.6550000309944153;1673306062.2398117;0.6331373453140259;-5.137746810913086;45.126564025878906
273;1673306062.2740254;47.1309784;7.2400820999999995;0.9280000329017639;1673306062.456638;1.588615894317627;-6.572085857391357;45.54731369018555
274;1673306062.4923048;47.1309842;7.240086;1.2330000400543213;1673306062.6529038;1.8334356546401978;-7.038641929626465;45.515869140625
275;1673306062.6881363;47.1309894;7.240088699999999;1.409000039100647;1673306062.8568995;1.9722833633422852;-7.197873115539551;45.435062408447266
276;1673306062.8949494;47.1309937;7.2400904;1.5000001192092896;1673306063.0717201;2.112278938293457;-7.207045078277588;45.3986930847168
277;1673306063.108811;47.130997;7.240091;1.5490000247955322;1673306063.2796335;2.3259775638580322;-7.157887935638428;45.31618118286133
278;1673306063.3201652;47.1309993;7.240090599999999;1.5770000219345093;1673306063.4919255;2.5434422492980957;-7.00185489654541;45.24156188964844
279;1673306063.529144;47.1310007;7.2400894;1.593000054359436;1673306063.6832862;2.6152501106262207;-6.917311191558838;45.20940399169922
280;1673306063.7184715;47.131003199999995;7.2400883;1.6790001392364502;1673306063.888126;2.8933351039886475;-6.6723551750183105;45.13494110107422
281;1673306063.9257572;47.1310035;7.2400861;1.7230000495910645;1673306064.1050224;3.200012683868408;-6.3819990158081055;45.068782806396484
282;1673306064.1397724;47.1310022;7.2400832;1.7440000772476196;1673306064.284038;3.438565254211426;-6.087028503417969;45.04389190673828
283;1673306064.3158238;47.131;7.24008;1.7530001401901245;1673306064.4608347;3.947483777999878;-5.2613325119018555;45.13628387451172
284;1673306064.494068;47.130991599999994;7.2400801999999995;1.7710000276565552;1673306064.6523712;4.224785327911377;-4.63632869720459;45.20067596435547
285;1673306064.6914084;47.130983799999996;7.2400813;1.8010001182556152;1673306064.871544;4.3136115074157715;-4.221218585968018;45.24436569213867
286;1673306064.9057698;47.130978;7.2400823999999995;1.8530000448226929;1673306065.0783815;4.337917327880859;-3.9213385581970215;45.26201248168945
287;1673306065.119045;47.130975;7.2400822;1.9650001525878906;1673306065.2669225;4.392253398895264;-3.5730974674224854;45.27884292602539
288;1673306065.3030741;47.1309725;7.2400826;2.057000160217285;1673306065.4508932;4.342296600341797;-3.2645058631896973;45.329437255859375
289;1673306065.488581;47.1309707;7.240082999999999;2.13100004196167;1673306065.6561763;4.3782854080200195;-2.9892189502716064;45.3546028137207
290;1673306065.6903524;47.1309694;7.2400832;2.197000026702881;1673306065.8565414;4.391853332519531;-2.7136363983154297;45.3836555480957
291;1673306065.8906996;47.130968599999996;7.2400831;2.255000114440918;1673306066.0766075;4.348788261413574;-2.457167625427246;45.407779693603516
292;1673306066.1107578;47.130967899999995;7.2400829;2.31000018119812;1673306066.2727797;4.367698669433594;-2.2368297576904297;45.40377426147461
293;1673306066.3040674;47.1309675;7.2400818;2.4030001163482666;1673306066.443769;4.306651592254639;-2.026817560195923;45.4248046875
294;1673306066.4838974;47.1309672;7.240081099999999;2.4720001220703125;1673306066.6612816;4.271349906921387;-1.8149021863937378;45.442832946777344
295;1673306066.6964087;47.1309669;7.2400807;2.5270001888275146;1673306066.8558426;4.188285827636719;-1.595998764038086;45.4493522644043
296;1673306066.9027948;47.130966799999996;7.2400804;2.572000026702881;1673306067.0732417;4.134023666381836;-1.4227584600448608;45.48112869262695
297;1673306067.126561;47.1309666;7.24008;2.6130001544952393;1673306067.2872167;4.089640140533447;-1.2658320665359497;45.44908905029297
298;1673306067.3210413;47.1309665;7.2400797;2.6530001163482666;1673306067.5087948;4.086921691894531;-1.101001262664795;45.45871353149414
299;1673306067.5454998;47.1309663;7.2400793;2.689000129699707;1673306067.6944287;4.044964790344238;-0.9537937045097351;45.46778869628906
300;1673306067.7253442;47.130966;7.240078199999999;2.747000217437744;1673306067.867404;3.9321272373199463;-0.846558153629303;45.465110778808594
301;1673306067.9015684;47.1309658;7.240077599999999;2.7920000553131104;1673306068.0619197;3.8933868408203125;-0.6325274109840393;45.450233459472656
302;1673306068.1029;47.1309657;7.240077299999999;2.825000047683716;1673306068.272061;3.851550340652466;-0.4447464644908905;45.4045524597168
303;1673306068.314084;47.130965599999996;7.2400771;2.8520002365112305;1673306068.4670348;3.785186529159546;-0.23162797093391418;45.38114547729492
304;1673306068.5031476;47.130965499999995;7.2400769;2.873000144958496;1673306068.689713;3.6640453338623047;0.42358389496803284;45.37002944946289
305;1673306068.7207093;47.130965499999995;7.2400768;2.8910000324249268;1673306068.8635924;3.6925570964813232;0.6285502910614014;45.36140441894531
306;1673306068.899821;47.1309652;7.2400761;0.0;1673306069.0660386;3.654935121536255;0.8381862044334412;45.38145446777344
307;1673306069.1176283;47.130964999999996;7.2400758;-0.06100000441074371;1673306069.2786016;3.5533840656280518;1.0049959421157837;45.37925338745117
308;1673306069.3207273;47.130964999999996;7.2400756;-0.164000004529953;1673306069.4747236;3.5271196365356445;1.1376206874847412;45.380374908447266
309;1673306069.5096252;47.130964999999996;7.2400756;-0.2880000174045563;;;;
