;pos_time;latitude;longitude;altitude;alt_time;pitch;roll;yaw
0;1673444116.4278305;47.1306422;7.2406198999999996;-0.03800000250339508;1673444116.4496274;0.15969474613666534;-0.11363570392131805;90.04473876953125
1;1673444116.6349301;47.1306423;7.2406198999999996;-0.039000000804662704;1673444116.6558597;0.03435223922133446;-0.3319303095340729;89.99870300292969
2;1673444116.833971;47.1306423;7.24062;-0.04100000113248825;1673444116.855047;0.021929481998085976;-0.35172367095947266;90.06924438476562
3;1673444117.0282168;47.1306422;7.2406201;-0.04100000113248825;1673444117.050325;0.039162617176771164;-0.19533266127109528;89.94776153564453
4;1673444117.232975;47.1306422;7.2406201;-0.04000000283122063;1673444117.2551212;-0.06364620476961136;-0.3255469501018524;90.09122467041016
5;1673444117.4340196;47.1306422;7.2406201999999995;-0.04100000113248825;1673444117.4560902;0.07311476022005081;-0.16991989314556122;90.04322052001953
6;1673444117.6400168;47.1306422;7.2406201999999995;-0.039000000804662704;1673444117.6651103;0.18139338493347168;-0.3707032799720764;90.08321380615234
7;1673444117.8520074;47.1306423;7.2406201999999995;-0.03800000250339508;1673444117.8761697;0.18742698431015015;-0.2573506832122803;90.05979919433594
8;1673444118.0539584;47.1306423;7.2406201999999995;-0.039000000804662704;1673444118.075126;0.09047060459852219;-0.23472736775875092;89.88809967041016
9;1673444118.2458532;47.1306423;7.2406201;0.0;1673444118.2671587;-0.21049781143665314;-1.410321593284607;89.92617797851562
10;1673444118.4458766;47.1306423;7.2406201;0.0010000000474974513;1673444118.4707713;0.006358265411108732;-1.4606703519821167;90.07328796386719
11;1673444118.6661181;47.1306424;7.2406201;0.0020000000949949026;1673444118.6960666;-0.1025732159614563;-1.2475436925888062;90.13968658447266
12;1673444118.8641827;47.1306424;7.2406201;0.003000000026077032;1673444118.8849616;-0.12615999579429626;-1.1504100561141968;90.17705535888672
13;1673444119.0559447;47.1306424;7.2406201;0.0;1673444119.081898;-0.2451489269733429;-1.1854877471923828;90.07235717773438
14;1673444119.2643647;47.1306424;7.2406201999999995;0.0;1673444119.288599;-0.2442622184753418;-1.2654000520706177;90.01519775390625
15;1673444119.464184;47.1306424;7.2406203;0.0010000000474974513;1673444119.488758;-0.38181331753730774;-1.6872154474258423;90.02304077148438
16;1673444119.6560564;47.1306424;7.2406203;0.003000000026077032;1673444119.6789846;-0.3753739297389984;-1.4256550073623657;90.09187316894531
17;1673444119.8751945;47.1306424;7.2406204;0.0;1673444119.9079874;-0.2507215440273285;-1.4787176847457886;90.25501251220703
18;1673444120.0768726;47.1306424;7.2406204;0.0020000000949949026;1673444120.0960894;-0.38071954250335693;-1.487038254737854;90.53621673583984
19;1673444120.304089;47.1306425;7.2406204999999995;0.003000000026077032;1673444120.325161;-0.4206957221031189;-0.7501921653747559;90.69023895263672
20;1673444120.4860036;47.1306425;7.2406204999999995;0.0010000000474974513;1673444120.5070834;-0.5845621228218079;-0.7559090256690979;90.639892578125
21;1673444120.707064;47.130642599999995;7.2406204999999995;-0.0010000000474974513;1673444120.7255013;-0.45586153864860535;-0.9066953063011169;91.31607818603516
22;1673444120.870048;47.130642699999996;7.2406204999999995;0.0;1673444120.892973;-0.6571999192237854;-0.9178985357284546;92.30418395996094
23;1673444121.050943;47.1306429;7.2406206;0.004000000189989805;1673444121.092072;-0.29513850808143616;-0.6821380853652954;94.26946258544922
24;1673444121.3230424;47.130643199999994;7.240620799999999;0.004000000189989805;1673444121.3461678;0.47321757674217224;-0.013303901068866253;99.85863494873047
25;1673444121.527931;47.130643899999995;7.2406216;0.013000000268220901;1673444121.5471096;1.1014336347579956;0.7698282599449158;98.07534790039062
26;1673444121.7309875;47.130645;7.240622999999999;0.020000001415610313;1673444121.751969;3.098588228225708;1.2832748889923096;93.41361236572266
27;1673444121.9089267;47.1306465;7.2406251;0.032999999821186066;1673444121.9296527;5.559907913208008;4.952020168304443;91.13745880126953
28;1673444122.0980911;47.1306483;7.2406277999999995;0.052000001072883606;1673444122.1193388;9.370163917541504;8.673130989074707;90.81024169921875
29;1673444122.2981567;47.130650499999994;7.2406311;0.07100000232458115;1673444122.320064;11.928460121154785;11.709783554077148;91.25472259521484
30;1673444122.4888973;47.1306529;7.2406349;0.10100000351667404;1673444122.513092;12.555429458618164;13.779476165771484;91.9481430053711
31;1673444122.6840267;47.130655499999996;7.2406388999999995;0.14400000870227814;1673444122.7279637;13.328022956848145;14.579386711120605;92.42137908935547
32;1673444122.893911;47.130658;7.2406432;0.203000009059906;1673444122.915045;14.46745491027832;15.422670364379883;92.72196197509766
33;1673444123.0769322;47.1306606;7.2406475;0.27900001406669617;1673444123.0994778;15.797564506530762;16.765052795410156;93.07177734375
34;1673444123.280857;47.130663;7.240651799999999;0.3700000047683716;1673444123.3029351;17.218860626220703;17.850574493408203;93.35855865478516
35;1673444123.4677255;47.130665199999996;7.240655899999999;0.4780000150203705;1673444123.4907365;18.809499740600586;18.855113983154297;93.48892974853516
36;1673444123.676866;47.1306672;7.2406595;0.6020000576972961;1673444123.6968732;20.451318740844727;20.150245666503906;93.56201934814453
37;1673444123.8559926;47.130668899999996;7.2406628;0.7320000529289246;1673444123.8751;22.12856101989746;21.429012298583984;93.57823181152344
38;1673444124.0550876;47.1306703;7.2406654999999995;0.8650000691413879;1673444124.0761955;23.984651565551758;22.607954025268555;93.48409271240234
39;1673444124.2421043;47.1306714;7.2406676;1.0040000677108765;1673444124.2643447;25.848649978637695;23.76308822631836;93.32990264892578
40;1673444124.4320138;47.130671899999996;7.240668899999999;1.1500000953674316;1673444124.4540823;27.818143844604492;24.737180709838867;93.0665283203125
41;1673444124.627193;47.1306721;7.2406692999999995;1.2990000247955322;1673444124.6504982;29.79857063293457;26.168628692626953;92.78975677490234
42;1673444124.824341;47.1306716;7.2406688;1.4530000686645508;1673444124.8471055;31.84991455078125;27.037172317504883;92.29176330566406
43;1673444125.0242474;47.130670599999995;7.240667299999999;1.6080000400543213;1673444125.0481217;34.40065002441406;27.401676177978516;84.70709228515625
44;1673444125.2541022;47.130669;7.2406647;1.7650001049041748;1673444125.283385;38.961307525634766;25.373441696166992;84.69690704345703
45;1673444125.4762218;47.1306668;7.2406606;1.9240001440048218;1673444125.497975;39.201534271240234;26.902996063232422;83.6651611328125
46;1673444125.6659489;47.130663999999996;7.2406554;2.0820000171661377;1673444125.687091;35.447105407714844;24.91349220275879;82.42902374267578
47;1673444125.9068866;47.130660999999996;7.2406494;2.236999988555908;1673444125.9249103;30.485010147094727;22.99765968322754;81.47660827636719
48;1673444126.116414;47.130657799999994;7.2406432999999994;2.384000062942505;1673444126.1383667;25.142629623413086;20.92803955078125;80.76184844970703
49;1673444126.2830138;47.130654799999995;7.2406375999999995;2.5230000019073486;1673444126.3032308;19.864517211914062;18.77202606201172;80.57173156738281
50;1673444126.4663854;47.1306519;7.240632799999999;2.6570000648498535;1673444126.4850037;16.846445083618164;17.184654235839844;81.02384948730469
51;1673444126.6489577;47.130649399999996;7.2406289;2.7870001792907715;1673444126.6687913;14.529799461364746;15.82697868347168;81.35224151611328
52;1673444126.8370728;47.1306472;7.2406261;2.9190001487731934;1673444126.859422;14.11386775970459;14.572279930114746;81.5457763671875
53;1673444127.032958;47.1306455;7.2406244;3.061000108718872;1673444127.0639784;15.122739791870117;12.838592529296875;81.56554412841797
54;1673444127.3270988;47.1306441;7.2406236999999996;3.2170002460479736;1673444127.3459318;17.288921356201172;12.35901927947998;81.6302719116211
55;1673444127.564202;47.130643299999996;7.240623599999999;3.389000177383423;1673444127.5818858;19.779821395874023;13.21001148223877;81.72760009765625
56;1673444127.7560012;47.1306428;7.2406238;3.571000099182129;1673444127.7718763;21.87099838256836;11.721092224121094;80.86109924316406
57;1673444127.9218724;47.1306428;7.2406242;3.757000207901001;1673444127.9390643;23.376794815063477;12.626205444335938;80.67659759521484
58;1673444128.0940337;47.1306429;7.2406245;3.94700026512146;1673444128.117869;25.005517959594727;15.925121307373047;81.263916015625
59;1673444128.288999;47.130643199999994;7.2406247;4.139000415802002;1673444128.3099475;25.75519371032715;15.124800682067871;80.9848861694336
60;1673444128.490336;47.1306434;7.2406248;4.331000328063965;1673444128.5121386;26.067752838134766;15.064126968383789;80.7071762084961
61;1673444128.682085;47.1306435;7.240624599999999;4.527000427246094;1673444128.7108433;25.952848434448242;17.206026077270508;81.06211853027344
62;1673444128.8889668;47.1306437;7.2406241;4.729000091552734;1673444128.9096076;25.36043930053711;16.515296936035156;80.79480743408203
63;1673444129.0771618;47.1306437;7.2406234;4.927000045776367;1673444129.1021016;24.49466896057129;15.61860466003418;80.49449157714844
64;1673444129.2841938;47.1306437;7.240622699999999;5.127000331878662;1673444129.304247;23.837482452392578;17.858402252197266;81.09054565429688
65;1673444129.4796014;47.1306436;7.240622;5.330000400543213;1673444129.5016112;22.96048927307129;16.761367797851562;80.90548706054688
66;1673444129.6833525;47.1306435;7.2406213;5.531000137329102;1673444129.7032905;22.415687561035156;15.238175392150879;80.62454223632812
67;1673444129.8636198;47.130643299999996;7.2406209;5.724000453948975;1673444129.8850944;22.234758377075195;17.253021240234375;81.14497375488281
68;1673444130.074393;47.130643199999994;7.2406204999999995;5.9170002937316895;1673444130.0954328;22.116106033325195;16.228485107421875;80.96470642089844
69;1673444130.2805576;47.1306431;7.2406203;6.1060004234313965;1673444130.301602;22.06737518310547;14.504548072814941;80.55803680419922
70;1673444130.47499;47.130643;7.2406203;6.298000335693359;1673444130.496536;22.35153579711914;16.553241729736328;81.07701873779297
71;1673444130.6707027;47.130643;7.2406203;6.493000507354736;1673444130.6912558;22.742782592773438;16.25727081298828;81.01655578613281
72;1673444130.860645;47.1306429;7.2406203;6.690000534057617;1673444130.8852382;22.80048942565918;14.375572204589844;80.53665924072266
73;1673444131.0640643;47.1306429;7.2406204;6.885000228881836;1673444131.0836346;23.110645294189453;16.493467330932617;81.17967987060547
74;1673444131.2488308;47.1306428;7.2406204999999995;7.079000473022461;1673444131.2703035;23.31453514099121;16.19011116027832;81.05823516845703
75;1673444131.45569;47.1306428;7.2406206;7.27500057220459;1673444131.4771576;23.453989028930664;14.170015335083008;80.60726928710938
76;1673444131.6548035;47.1306428;7.2406206;7.4720001220703125;1673444131.6763544;23.391904830932617;16.627681732177734;81.09423065185547
77;1673444131.8397634;47.1306428;7.2406206;7.6710004806518555;1673444131.8613632;23.421979904174805;16.629806518554688;81.25379180908203
78;1673444132.0557058;47.1306428;7.2406206;7.867000579833984;1673444132.080113;23.392305374145508;14.481016159057617;80.65413665771484
79;1673444132.270417;47.130642699999996;7.2406206;8.0600004196167;1673444132.2924323;23.22364616394043;15.902573585510254;80.90162658691406
80;1673444132.4843774;47.1306428;7.2406206;8.254000663757324;1673444132.5073555;23.316287994384766;16.85220718383789;81.24359893798828
81;1673444132.7447016;47.1306428;7.2406204999999995;8.451000213623047;1673444132.761295;23.215200424194336;14.73331356048584;80.59307098388672
82;1673444132.9644308;47.1306428;7.2406204999999995;8.648000717163086;1673444132.9780815;23.18236541748047;16.03349494934082;80.94447326660156
83;1673444133.1403062;47.1306428;7.2406204999999995;8.845000267028809;1673444133.1559227;22.996469497680664;16.853853225708008;81.2612533569336
84;1673444133.2938027;47.130642699999996;7.2406204999999995;9.045000076293945;1673444133.3103907;23.102359771728516;14.457986831665039;80.6022720336914
85;1673444133.4678512;47.130642699999996;7.2406204999999995;9.246000289916992;1673444133.4918268;23.107666015625;15.359532356262207;80.76632690429688
86;1673444133.677877;47.130642699999996;7.2406204999999995;9.446000099182129;1673444133.7000403;23.171281814575195;16.870527267456055;81.1702880859375
87;1673444133.8901622;47.130642699999996;7.2406204999999995;9.64900016784668;1673444133.9160733;23.270477294921875;14.521859169006348;80.58979034423828
88;1673444134.081918;47.1306428;7.2406206;9.854000091552734;1673444134.1029537;23.306608200073242;15.775873184204102;80.91278839111328
89;1673444134.2793152;47.1306428;7.2406206;10.055000305175781;1673444134.3003724;23.230274200439453;16.88142967224121;81.2247543334961
90;1673444134.4985683;47.1306428;7.2406204999999995;10.284000396728516;1673444134.5190628;23.008874893188477;13.59758472442627;80.71440887451172
91;1673444134.683926;47.130642599999995;7.2406203;10.621000289916992;1673444134.7069054;23.38584327697754;15.835010528564453;80.90921783447266
92;1673444134.8675427;47.1306424;7.2406198999999996;10.999000549316406;1673444134.8890023;23.83319854736328;17.82945442199707;81.2616195678711
93;1673444135.077736;47.130642099999996;7.240619499999999;11.390000343322754;1673444135.0997543;22.04618263244629;14.936314582824707;80.74501037597656
94;1673444135.2866752;47.1306418;7.2406191;11.78700065612793;1673444135.3078647;21.71125602722168;14.083986282348633;80.74360656738281
95;1673444135.4845502;47.1306416;7.240618899999999;12.1850004196167;1673444135.5075407;21.260568618774414;15.605978965759277;81.17906188964844
96;1673444135.702113;47.130641399999995;7.2406187;12.584000587463379;1673444135.7225914;21.057024002075195;13.95519733428955;80.97431945800781
97;1673444135.9006042;47.1306413;7.2406187;12.987000465393066;1673444135.9211683;21.123180389404297;12.84882640838623;80.68974304199219
98;1673444136.0858092;47.1306413;7.2406188;13.392000198364258;1673444136.1107364;21.387319564819336;15.49038314819336;81.14403533935547
99;1673444136.2957003;47.130641499999996;7.240618899999999;13.79900074005127;1673444136.3184373;21.897743225097656;14.631013870239258;81.00611114501953
100;1673444136.4893684;47.1306417;7.240619199999999;14.209000587463379;1673444136.5113425;22.219526290893555;13.935386657714844;80.78964233398438
101;1673444136.6890354;47.1306418;7.2406194;14.618000984191895;1673444136.7085977;22.610488891601562;16.33064079284668;81.13978576660156
102;1673444136.8799117;47.1306419;7.240619499999999;15.02500057220459;1673444136.8999941;22.72940444946289;15.47917366027832;80.9265365600586
103;1673444137.0792546;47.130641999999995;7.2406196;15.431000709533691;1673444137.1081495;22.74274253845215;14.211647987365723;80.72515869140625
104;1673444137.2806637;47.130641999999995;7.2406197;15.837000846862793;1673444137.2997406;22.845970153808594;16.423934936523438;81.16902160644531
105;1673444137.469362;47.130642099999996;7.2406196;16.2450008392334;1673444137.5050862;22.559040069580078;15.800735473632812;81.0132827758789
106;1673444137.672708;47.1306422;7.2406196;16.654001235961914;1673444137.6961467;22.668413162231445;14.660993576049805;80.67774200439453
107;1673444137.8839998;47.1306422;7.2406196;17.06100082397461;1673444137.9089472;22.52058982849121;16.08333969116211;80.96161651611328
108;1673444138.1117082;47.1306422;7.240619499999999;17.46700096130371;1673444138.1663241;22.38651466369629;16.012598037719727;81.03213500976562
109;1673444138.3460753;47.130642099999996;7.2406194;17.87200164794922;1673444138.3655956;22.206138610839844;13.862624168395996;80.64031219482422
110;1673444138.5581656;47.130642099999996;7.2406194;18.283000946044922;1673444138.5786595;22.26585578918457;15.617682456970215;81.0111312866211
111;1673444138.7458768;47.1306422;7.2406194;18.69300079345703;1673444138.7683249;22.27162742614746;15.905021667480469;81.09014892578125
112;1673444138.9354835;47.1306422;7.2406194;19.101001739501953;1673444138.9579287;22.2304744720459;14.27686882019043;80.73567962646484
113;1673444139.1262562;47.1306423;7.2406194;19.50800132751465;1673444139.1467543;22.2553768157959;15.7857666015625;81.0177993774414
114;1673444139.319045;47.1306423;7.2406194;19.913000106811523;1673444139.3612921;22.34478759765625;16.21128273010254;81.12335968017578
115;1673444139.5606394;47.1306423;7.2406194;20.314001083374023;1673444139.577217;22.400928497314453;14.255115509033203;80.71537017822266
116;1673444139.7444184;47.1306423;7.2406194;20.718000411987305;1673444139.7649143;22.414522171020508;15.421087265014648;80.89270782470703
117;1673444139.9843123;47.1306423;7.2406194;21.124000549316406;1673444140.0038784;22.444427490234375;16.490880966186523;81.19757843017578
118;1673444140.1439629;47.1306424;7.2406194;21.5310001373291;1673444140.1595771;22.52611541748047;14.556939125061035;80.73271179199219
119;1673444140.3227868;47.1306424;7.2406194;21.940000534057617;1673444140.3423095;22.417789459228516;15.388432502746582;80.82868194580078
120;1673444140.5041966;47.1306424;7.2406194;22.34600067138672;1673444140.5266902;22.5705509185791;16.56032371520996;81.21123504638672
121;1673444140.7368135;47.1306424;7.2406194;22.749000549316406;1673444140.7553577;22.34454345703125;14.904022216796875;80.71157836914062
122;1673444140.9334624;47.1306424;7.2406194;23.14900016784668;1673444140.9510305;22.38524627685547;15.02703857421875;80.82473754882812
123;1673444141.1540837;47.1306424;7.2406194;23.552001953125;1673444141.1746902;22.444580078125;16.513381958007812;81.08708953857422
124;1673444141.3357759;47.1306424;7.2406193;23.955001831054688;1673444141.3576028;22.32289695739746;14.864319801330566;80.72169494628906
125;1673444141.5164073;47.1306424;7.2406193;24.358001708984375;1673444141.5349514;22.325439453125;14.608220100402832;80.76270294189453
126;1673444141.722234;47.1306423;7.2406194;24.76300048828125;1673444141.7428927;22.368972778320312;16.500995635986328;81.16410827636719
127;1673444141.9089148;47.1306423;7.2406194;25.16400146484375;1673444141.9304202;22.48311424255371;14.80642318725586;80.85208892822266
128;1673444142.0911465;47.1306423;7.2406194;25.562000274658203;1673444142.1122415;22.28274154663086;14.365819931030273;80.76412200927734
129;1673444142.288563;47.1306423;7.2406194;25.965002059936523;1673444142.3095973;22.491443634033203;16.540176391601562;81.13994598388672
130;1673444142.4752283;47.1306424;7.240619499999999;26.371002197265625;1673444142.4957342;22.450267791748047;15.341595649719238;80.8856201171875
131;1673444142.6774075;47.1306424;7.240619499999999;26.7760009765625;1673444142.6930223;22.528160095214844;14.579963684082031;80.68727111816406
132;1673444142.881533;47.1306424;7.240619499999999;27.180002212524414;1673444142.9049716;22.51727294921875;16.64118003845215;81.16878509521484
133;1673444143.0729682;47.1306424;7.240619499999999;27.584001541137695;1673444143.0965562;22.3527889251709;15.610838890075684;80.9885025024414
134;1673444143.284307;47.1306424;7.240619499999999;27.98200225830078;1673444143.3038297;22.404888153076172;14.575170516967773;80.6259765625
135;1673444143.493521;47.1306424;7.240619499999999;28.378002166748047;1673444143.5116355;22.38492202758789;16.52705955505371;81.06021881103516
136;1673444143.7098875;47.1306424;7.240619499999999;28.77800178527832;1673444143.731461;22.46329116821289;15.953692436218262;81.03231811523438
137;1673444143.8960187;47.1306424;7.240619499999999;29.179000854492188;1673444143.917067;22.54024314880371;14.323506355285645;80.63224792480469
138;1673444144.0950766;47.1306423;7.240619499999999;29.57900047302246;1673444144.1141977;22.421287536621094;16.123512268066406;81.06627655029297
139;1673444144.2836351;47.1306423;7.2406196;29.979001998901367;1673444144.3070636;22.35105323791504;15.776860237121582;81.00977325439453
140;1673444144.4751148;47.1306423;7.2406196;30.376001358032227;1673444144.4956164;22.359275817871094;14.395201683044434;80.60807800292969
141;1673444144.6715178;47.1306423;7.2406196;30.770002365112305;1673444144.7037554;22.538015365600586;16.014328002929688;80.99293518066406
142;1673444144.8847897;47.1306423;7.2406197;31.171001434326172;1673444144.9083679;22.552154541015625;16.09160041809082;81.09129333496094
143;1673444145.0947988;47.1306423;7.2406197;31.57400131225586;1673444145.1143477;22.343734741210938;14.287983894348145;80.70536804199219
144;1673444145.3026743;47.1306422;7.240619799999999;31.97800064086914;1673444145.417689;22.485891342163086;15.907276153564453;81.00180053710938
145;1673444145.5841563;47.1306422;7.240619799999999;32.38199996948242;1673444145.6036797;22.61318016052246;16.06979751586914;81.13404083251953
146;1673444145.7473419;47.1306422;7.2406198999999996;32.78700256347656;1673444145.788452;22.576215744018555;14.296512603759766;80.58969116210938
147;1673444145.9370735;47.1306422;7.2406198999999996;33.1879997253418;1673444145.9595203;22.624897003173828;15.961285591125488;80.98787689208984
148;1673444146.1127295;47.1306422;7.2406198999999996;33.58700180053711;1673444146.134202;22.504053115844727;16.00522804260254;81.13446807861328
149;1673444146.2997842;47.1306422;7.2406198999999996;33.9900016784668;1673444146.3218362;22.397964477539062;14.382089614868164;80.7048568725586
150;1673444146.5098846;47.130642099999996;7.2406198999999996;34.39400100708008;1673444146.5348253;22.62285041809082;15.253862380981445;80.89588928222656
151;1673444146.7573261;47.1306422;7.2406198999999996;34.801002502441406;1673444146.774893;22.479665756225586;16.324983596801758;81.14640808105469
152;1673444146.9363234;47.1306422;7.2406198999999996;35.207000732421875;1673444146.9597619;22.52202033996582;14.313143730163574;80.69776916503906
153;1673444147.1281786;47.1306422;7.2406198999999996;35.60900115966797;1673444147.1506243;22.46673583984375;15.016267776489258;80.75577545166016
154;1673444147.319872;47.1306423;7.2406198999999996;36.005001068115234;1673444147.3413415;22.39971923828125;16.723886489868164;81.14903259277344
155;1673444147.524014;47.1306423;7.2406198999999996;36.40800094604492;1673444147.5456793;22.492219924926758;14.750663757324219;80.71097564697266
156;1673444147.7202077;47.1306424;7.2406198999999996;36.814002990722656;1673444147.7397125;22.423593521118164;15.144196510314941;80.75516510009766
157;1673444147.903348;47.1306424;7.2406198999999996;37.217002868652344;1673444147.9234064;22.433626174926758;16.919015884399414;81.21991729736328
158;1673444148.077173;47.1306425;7.2406198999999996;37.62000274658203;1673444148.0966945;22.424238204956055;15.310599327087402;81.04375457763672
159;1673444148.26488;47.1306425;7.2406198999999996;38.02400207519531;1673444148.2892795;22.3288516998291;15.244508743286133;80.76052856445312
160;1673444148.4591427;47.1306425;7.2406198999999996;38.42300033569336;1673444148.481589;22.534645080566406;16.585660934448242;81.03785705566406
161;1673444148.6916242;47.1306425;7.2406198999999996;38.81700134277344;1673444148.7132545;22.487491607666016;15.298630714416504;80.84161376953125
162;1673444148.8952718;47.1306424;7.24062;39.21200180053711;1673444148.915357;22.46959686279297;14.488347053527832;80.69690704345703
163;1673444149.100585;47.1306424;7.2406201;39.60900115966797;1673444149.1216218;22.6016902923584;16.550800323486328;81.13665771484375
164;1673444149.2842407;47.1306424;7.2406201;40.00700378417969;1673444149.3057215;22.65413475036621;15.437814712524414;80.92842864990234
165;1673444149.467939;47.1306425;7.2406201;40.40500259399414;1673444149.4904141;22.615304946899414;14.568012237548828;80.65318298339844
166;1673444149.6616917;47.1306425;7.2406201;40.80000305175781;1673444149.6832187;22.73003578186035;16.547435760498047;81.13142395019531
167;1673444149.8587196;47.1306424;7.2406201;41.195003509521484;1673444149.8880348;22.605575561523438;15.903162002563477;81.00477600097656
168;1673444150.095221;47.1306424;7.24062;41.595001220703125;1673444150.1192033;22.447322845458984;14.387096405029297;80.67416381835938
169;1673444150.403073;47.1306424;7.2406198999999996;41.99800109863281;1673444150.4251323;22.430139541625977;16.205093383789062;81.00222778320312
170;1673444150.570336;47.1306425;7.2406198999999996;42.40300369262695;1673444150.5869753;22.48577308654785;16.22774887084961;81.12413787841797
171;1673444150.744274;47.1306425;7.2406198999999996;42.80600357055664;1673444150.7647703;22.40375328063965;14.432757377624512;80.62646484375
172;1673444150.9437175;47.1306425;7.2406198999999996;43.207000732421875;1673444150.9593413;22.47303009033203;16.251806259155273;81.02135467529297
173;1673444151.1151075;47.1306425;7.2406198999999996;43.60400390625;1673444151.1390805;22.590906143188477;16.11928939819336;81.04142761230469
174;1673444151.3026195;47.1306425;7.24062;43.99400329589844;1673444151.3226783;22.507261276245117;14.580357551574707;80.76399230957031
175;1673444151.4972103;47.1306424;7.24062;44.38800048828125;1673444151.5186872;22.623231887817383;15.395805358886719;80.88658142089844
176;1673444151.693118;47.1306425;7.2406198999999996;44.785003662109375;1673444151.715638;22.510417938232422;16.48217010498047;81.0733642578125
177;1673444151.897791;47.1306425;7.2406198999999996;45.18400192260742;1673444151.9227362;22.503442764282227;14.680227279663086;80.74203491210938
178;1673444152.116801;47.1306425;7.2406198999999996;45.583003997802734;1673444152.1409655;22.53317642211914;15.356344223022461;80.89836120605469
179;1673444152.3156102;47.1306425;7.2406198999999996;45.97700119018555;1673444152.3390791;22.589128494262695;16.623624801635742;81.29222869873047
180;1673444152.6270986;47.1306424;7.2406198999999996;46.367000579833984;1673444152.6417606;22.405521392822266;14.616426467895508;80.71644592285156
181;1673444152.8126137;47.1306424;7.2406198999999996;46.7660026550293;1673444152.8307207;22.467304229736328;15.156018257141113;80.8121109008789
182;1673444152.9856305;47.1306425;7.2406198999999996;47.1670036315918;1673444153.001247;22.481454849243164;16.975873947143555;81.24823760986328
183;1673444153.1635563;47.1306425;7.2406198999999996;47.566001892089844;1673444153.182112;22.389774322509766;15.116541862487793;80.8166275024414
184;1673444153.3483744;47.1306425;7.2406198999999996;47.9630012512207;1673444153.3669014;22.58045196533203;15.079376220703125;80.70924377441406
185;1673444153.5348868;47.1306425;7.24062;48.336002349853516;1673444153.552455;22.75641441345215;17.20195960998535;81.25933074951172
186;1673444153.7324812;47.130642599999995;7.2406201;48.65300369262695;1673444153.7578568;22.68893051147461;15.181172370910645;80.84593963623047
187;1673444153.9385767;47.130642699999996;7.2406204;48.91800308227539;1673444153.956286;23.080312728881836;15.175703048706055;80.88579559326172
188;1673444154.127735;47.130643;7.2406207;49.14400100708008;1673444154.1462796;23.51947593688965;17.368497848510742;81.357421875
189;1673444154.4321797;47.130643199999994;7.240621;49.33700180053711;1673444154.4458435;25.72139549255371;17.736841201782227;81.12157440185547
190;1673444154.593098;47.1306434;7.240621099999999;49.49800109863281;1673444154.6096904;33.45964431762695;17.286231994628906;78.32913970947266
191;1673444154.7396388;47.130643299999996;7.2406209;49.5780029296875;1673444154.757252;36.4549674987793;18.1848087310791;66.00559997558594
192;1673444154.9179087;47.1306428;7.2406204;49.63500213623047;1673444154.9394417;28.5660400390625;4.4917449951171875;54.70966720581055
193;1673444155.0971124;47.130641999999995;7.2406197;49.69200134277344;1673444155.1190882;34.14736557006836;3.470423936843872;46.65231704711914
194;1673444155.2900078;47.1306411;7.240618899999999;49.742000579833984;1673444155.3108194;32.41695022583008;-2.35880446434021;37.240516662597656
195;1673444155.5110419;47.130640199999995;7.240617899999999;49.78400421142578;1673444155.5320127;29.78314781188965;-8.509416580200195;27.867324829101562
196;1673444155.701056;47.1306392;7.240616999999999;49.81900405883789;1673444155.7229483;27.26961898803711;-14.15071964263916;18.692821502685547
197;1673444155.8938816;47.130638399999995;7.240615999999999;49.849002838134766;1673444155.915513;24.121103286743164;-17.876998901367188;9.547478675842285
198;1673444156.0978782;47.1306377;7.240615099999999;49.87300109863281;1673444156.1279168;21.053110122680664;-19.81674575805664;0.3544202148914337
199;1673444156.3300688;47.1306371;7.2406143;49.8910026550293;1673444156.3549438;17.23546600341797;-21.65558433532715;-8.722516059875488
200;1673444156.5235243;47.1306368;7.2406137;49.90300369262695;1673444156.5457287;13.263002395629883;-23.8949031829834;-18.093433380126953
201;1673444156.7408268;47.1306365;7.240613199999999;49.915000915527344;1673444156.7627938;9.11391830444336;-25.959638595581055;-27.51267433166504
202;1673444156.9799058;47.1306363;7.2406128;49.928001403808594;1673444156.9955773;4.77626371383667;-27.85460090637207;-36.899871826171875
203;1673444157.1758249;47.1306361;7.2406125999999995;49.94200134277344;1673444157.2389157;0.4913100600242615;-29.13344955444336;-46.10773468017578
204;1673444157.4227104;47.130635999999996;7.2406124;49.954002380371094;1673444157.4356825;-4.272780418395996;-29.828664779663086;-52.588172912597656
205;1673444157.5852008;47.130635899999994;7.2406123;49.9640007019043;1673444157.6076384;-4.032069683074951;-29.58559799194336;-50.28596878051758
206;1673444157.7640886;47.130635899999994;7.2406121;49.96900177001953;1673444157.7845857;-1.8636176586151123;-28.023941040039062;-46.92268371582031
207;1673444157.962229;47.1306358;7.240611899999999;49.97600173950195;1673444157.983696;-1.4431700706481934;-27.328723907470703;-45.486183166503906
208;1673444158.155724;47.1306357;7.240611899999999;49.98600387573242;1673444158.1752422;-0.578628420829773;-27.911537170410156;-45.28733444213867
209;1673444158.3427322;47.1306357;7.2406118;49.99700164794922;1673444158.3651457;0.621082067489624;-29.4002742767334;-45.29104232788086
210;1673444158.5641587;47.1306357;7.2406118;50.01000213623047;1673444158.5836787;1.0271506309509277;-30.775699615478516;-45.2625732421875
211;1673444158.7781785;47.1306356;7.2406117;50.02300262451172;1673444158.7977455;0.883665144443512;-31.395103454589844;-45.170310974121094
212;1673444158.9727418;47.1306355;7.240611599999999;50.031002044677734;1673444158.9932215;0.5034477114677429;-30.494470596313477;-45.0233154296875
213;1673444159.1601481;47.130635399999996;7.2406115;50.02800369262695;1673444159.179669;0.0914502888917923;-28.276906967163086;-44.958518981933594
214;1673444159.3855548;47.1306352;7.240611299999999;50.02800369262695;1673444159.4021826;-0.3536677062511444;-27.044172286987305;-44.8217887878418
215;1673444159.593704;47.130635;7.2406112;50.031002044677734;1673444159.610319;-2.775724172592163;-27.798070907592773;-45.13037872314453
216;1673444159.7852254;47.130635;7.2406109;50.03900146484375;1673444159.83579;-25.50836944580078;-25.67816925048828;-45.70882797241211
217;1673444159.9965482;47.130635899999994;7.2406093;50.057003021240234;1673444160.0111923;-42.49589157104492;-20.84331512451172;-47.1290397644043
218;1673444160.1622758;47.1306389;7.2406052999999995;50.070003509521484;1673444160.1829402;-54.4280891418457;-16.79010772705078;-48.06806182861328
219;1673444160.368474;47.1306444;7.2405985;50.060001373291016;1673444160.391049;-56.319305419921875;-14.249954223632812;-48.39579391479492
220;1673444160.5561874;47.1306523;7.2405892;50.038002014160156;1673444160.576181;-52.38964080810547;-11.107398986816406;-49.96641159057617
221;1673444160.7479646;47.1306624;7.2405778;50.02000427246094;1673444160.7683296;-52.81599807739258;-12.236873626708984;-51.950191497802734
222;1673444160.9868052;47.130674299999995;7.240564399999999;50.01300048828125;1673444161.0050747;-54.4070930480957;-14.041035652160645;-51.69519805908203
223;1673444161.173814;47.130687599999995;7.2405493;50.012001037597656;1673444161.1940222;-52.134029388427734;-13.671329498291016;-51.54322052001953
224;1673444161.353928;47.130702;7.2405326;50.00200271606445;1673444161.3710592;-51.56522750854492;-14.529119491577148;-50.48768997192383
225;1673444161.5218177;47.1307173;7.240514699999999;49.980003356933594;1673444161.5423234;-50.21199035644531;-14.643670082092285;-49.99315643310547
226;1673444161.7020433;47.130733199999995;7.2404959;49.945003509521484;1673444161.7239375;-47.26583480834961;-15.173545837402344;-49.96162796020508
227;1673444161.892978;47.130749699999996;7.2404763999999995;49.915000915527344;1673444161.9172003;-45.81397247314453;-16.157949447631836;-49.45344161987305
228;1673444162.127041;47.1307664;7.2404566;49.89500427246094;1673444162.1509478;-44.76248550415039;-16.797592163085938;-49.78127670288086
229;1673444162.3461325;47.130783199999996;7.2404364;49.88200378417969;1673444162.3679492;-45.230308532714844;-18.627758026123047;-49.94636535644531
230;1673444162.5500076;47.1308;7.2404158;49.88100051879883;1673444162.5709217;-45.72262191772461;-21.544179916381836;-52.05258560180664
231;1673444162.7277567;47.130816499999995;7.240394599999999;49.88100051879883;1673444162.7509003;-44.96824264526367;-16.552568435668945;-55.90105438232422
232;1673444162.9200335;47.1308327;7.240373099999999;49.868003845214844;1673444162.9405706;-41.45634078979492;-18.48032569885254;-53.406715393066406
233;1673444163.1379468;47.1308487;7.2403515;49.87300109863281;1673444163.1597888;-43.0363655090332;-23.656082153320312;-52.36050796508789
234;1673444163.3390434;47.1308642;7.2403296;49.8910026550293;1673444163.3588982;-44.842403411865234;-24.789043426513672;-53.849544525146484
235;1673444163.5209463;47.130879199999995;7.2403071;49.90800094604492;1673444163.5440884;-44.04413604736328;-26.787263870239258;-54.366397857666016
236;1673444163.7207885;47.1308934;7.2402842;49.92000198364258;1673444163.7450297;-38.19639205932617;-32.58773422241211;-54.02570724487305
237;1673444163.9266078;47.130906499999995;7.2402612;49.91800308227539;1673444163.9488847;-16.756118774414062;-41.816165924072266;-57.82754135131836
238;1673444164.1271505;47.1309177;7.2402396;49.87200164794922;1673444164.152081;9.44406795501709;-26.02593421936035;-63.80663299560547
239;1673444164.3358767;47.130927199999995;7.2402215;49.77400207519531;1673444164.360829;10.662092208862305;-10.828474044799805;-52.55155563354492
240;1673444164.5300226;47.1309356;7.2402077;49.742000579833984;1673444164.5519154;26.959524154663086;-15.515928268432617;-45.195068359375
241;1673444164.71377;47.1309423;7.240198299999999;49.755001068115234;1673444164.7358632;36.08621597290039;-18.881797790527344;-44.49630355834961
242;1673444164.91188;47.1309469;7.2401934;49.788002014160156;1673444164.9338148;40.34672927856445;-21.362337112426758;-44.90781021118164
243;1673444165.099579;47.130949199999996;7.240192599999999;49.83700180053711;1673444165.1239226;43.36278533935547;-25.266189575195312;-45.10343551635742
244;1673444165.3248484;47.130949099999995;7.240195399999999;49.893001556396484;1673444165.3447862;45.08531951904297;-30.91689682006836;-44.93555450439453
245;1673444165.5444384;47.1309464;7.2402007;49.95000076293945;1673444165.5678616;44.34449005126953;-36.41925811767578;-43.89119338989258
246;1673444165.7434964;47.130941199999995;7.240207099999999;50.005001068115234;1673444165.7640016;34.55828857421875;-42.43935012817383;-44.801090240478516
247;1673444165.9379041;47.1309342;7.2402136;50.05400085449219;1673444165.9584029;18.134014129638672;-44.62344741821289;-45.58796691894531
248;1673444166.127868;47.1309264;7.2402193;50.083003997802734;1673444166.150315;-0.11024614423513412;-40.80311584472656;-47.91605758666992
249;1673444166.3276234;47.1309186;7.2402237;50.099002838134766;1673444166.350073;-13.711194038391113;-33.314674377441406;-50.4616584777832
250;1673444166.5535119;47.1309116;7.2402267;50.10400390625;1673444166.5749657;-14.400245666503906;-29.064472198486328;-52.57350158691406
251;1673444166.7662387;47.1309055;7.2402286;50.10600280761719;1673444166.7878635;1.335693597793579;-33.104034423828125;-53.442447662353516
252;1673444166.9516633;47.1309;7.2402301;50.10700225830078;1673444166.9711838;10.58967399597168;-34.79627990722656;-51.61845016479492
253;1673444167.1647646;47.1308943;7.2402318;50.105003356933594;1673444167.1843495;14.164785385131836;-36.37039566040039;-50.93926239013672
254;1673444167.3659816;47.130888299999995;7.240234;50.10300064086914;1673444167.3874433;23.85054588317871;-31.513996124267578;-51.035743713378906
255;1673444167.545751;47.130882;7.240237199999999;50.09700393676758;1673444167.5662456;25.768705368041992;-23.522350311279297;-49.69413757324219
256;1673444167.742365;47.1308757;7.2402412;49.88600158691406;1673444167.7657883;19.842947006225586;5.1473188400268555;-47.69579315185547
257;1673444167.937928;47.1308697;7.2402454;49.294002532958984;1673444167.9594;8.910941123962402;48.654449462890625;-52.370262145996094
258;1673444168.141024;47.1308638;7.2402495;48.30000305175781;1673444168.1634758;2.852635383605957;95.7909927368164;-65.79361724853516
259;1673444168.3387036;47.130857899999995;7.2402536;46.94700241088867;1673444168.3601384;7.12062406539917;128.51524353027344;-79.12879180908203
260;1673444168.5308218;47.130852;7.2402579;45.243003845214844;1673444168.5640056;12.79774284362793;137.30914306640625;-89.24195861816406
261;1673444168.8060265;47.1308465;7.2402622999999995;43.176002502441406;1673444168.8257492;15.36247730255127;119.47747039794922;-98.5476303100586
262;1673444169.0007653;47.1308412;7.2402669;40.76000213623047;1673444169.0198607;12.936165809631348;74.72161102294922;-104.971435546875
263;1673444169.1669865;47.1308357;7.2402717999999995;37.979000091552734;1673444169.1827676;9.988407135009766;11.093483924865723;-103.30611419677734
264;1673444169.3392665;47.1308304;7.240276799999999;34.78200149536133;1673444169.3597682;14.903016090393066;-45.156368255615234;-101.04417419433594
265;1673444169.528876;47.1308254;7.240281599999999;31.213001251220703;1673444169.5464385;19.88607406616211;-68.6762924194336;-103.19896697998047
266;1673444169.7281418;47.130820799999995;7.2402866999999995;27.32600212097168;1673444169.7496123;22.21926498413086;-50.52125549316406;-103.98442840576172
267;1673444169.9277668;47.130816599999996;7.2402918;23.100000381469727;1673444169.9472866;20.639026641845703;6.629648685455322;-102.49567413330078
268;1673444170.127047;47.1308126;7.2402967;18.472000122070312;1673444170.1465878;15.635649681091309;68.52143859863281;-104.21732330322266
269;1673444170.3235877;47.1308082;7.240301799999999;13.496000289916992;1673444170.3479865;11.984976768493652;90.43309020996094;-110.5289535522461
270;1673444170.5277884;47.1308039;7.240307199999999;8.217000007629395;1673444170.5512292;8.016561508178711;60.381927490234375;-115.93480682373047
271;1673444170.7198055;47.1307994;7.240312899999999;2.5990002155303955;1673444170.7429097;5.117244243621826;-6.62954568862915;-114.41067504882812
272;1673444170.914453;47.130794599999994;7.2403182;0.23000000417232513;1673444170.9413412;-6.325516223907471;-14.481016159057617;-126.74994659423828
273;1673444171.1278534;47.1307888;7.2403246999999995;0.4540000259876251;1673444171.1503012;-4.1153483390808105;-15.007115364074707;-136.71559143066406
274;1673444171.400157;47.1307823;7.2403322;0.6110000014305115;1673444171.420803;-3.9310734272003174;-12.899282455444336;-136.90638732910156
275;1673444171.6485026;47.1307756;7.2403398;0.7100000381469727;1673444171.6621737;-3.849036455154419;-13.241971969604492;-137.03707885742188
276;1673444171.8172128;47.1307689;7.240347099999999;0.7690000534057617;1673444171.833395;-3.7985165119171143;-12.912047386169434;-137.22975158691406
277;1673444171.9794528;47.1307622;7.2403545;0.8140000104904175;1673444172.004831;-3.7531015872955322;-12.796204566955566;-137.40957641601562
278;1673444172.1678224;47.1307554;7.2403618;0.8600000143051147;1673444172.1893084;-3.708698272705078;-12.606612205505371;-137.59059143066406
279;1673444172.3507617;47.1307499;7.2403678;0.8830000162124634;1673444172.3712578;-3.61653208732605;-12.260656356811523;-137.8059539794922
280;1673444172.532603;47.130745499999996;7.2403726;0.9030000567436218;1673444172.558048;-3.5168113708496094;-11.90676498413086;-138.04884338378906
281;1673444172.7118597;47.130742299999994;7.240376299999999;0.921000063419342;1673444172.7377684;-3.4561259746551514;-11.504158020019531;-138.28578186035156
282;1673444172.922986;47.130739999999996;7.240379;0.9380000233650208;1673444172.9450145;-3.348067045211792;-11.055112838745117;-138.5480194091797
283;1673444173.1297107;47.1307373;7.240381999999999;0.9550000429153442;1673444173.1550574;-3.2824883460998535;-10.765597343444824;-138.77304077148438
284;1673444173.3368058;47.1307311;7.2403885;0.9640000462532043;1673444173.3592489;-3.2896647453308105;-10.747550964355469;-138.93023681640625
285;1673444173.5527806;47.1307226;7.2403971;0.9510000348091125;1673444173.5753956;-3.3005216121673584;-10.72978687286377;-139.1044464111328
286;1673444173.7462885;47.130712599999995;7.240406999999999;0.9260000586509705;1673444173.7697396;-3.329406261444092;-10.713804244995117;-139.26699829101562
287;1673444173.947669;47.130701599999995;7.2404179;0.8940000534057617;1673444173.9691422;-3.3003721237182617;-10.6656494140625;-139.4441375732422
288;1673444174.1403346;47.1306898;7.240429499999999;0.8570000529289246;1673444174.1633074;-3.3153634071350098;-10.599746704101562;-139.6316680908203
289;1673444174.3460245;47.130677299999995;7.2404417;0.812000036239624;1673444174.3660526;-3.33781361579895;-10.554725646972656;-139.83856201171875
290;1673444174.5471823;47.1306642;7.2404544;0.76500004529953;1673444174.5683086;-3.363605499267578;-10.526480674743652;-140.05470275878906
291;1673444174.756929;47.1306507;7.240467499999999;0.7160000205039978;1673444174.7802715;-3.3431782722473145;-10.459829330444336;-140.29856872558594
292;1673444174.96014;47.130636599999995;7.240481099999999;0.6630000472068787;1673444174.9835231;-3.3998055458068848;-10.394526481628418;-140.49691772460938
293;1673444175.1593328;47.130621999999995;7.2404950999999995;0.6110000014305115;1673444175.185056;-3.414766311645508;-10.282639503479004;-140.71017456054688
294;1673444175.3631163;47.130607;7.2405095;0.5560000538825989;1673444175.387327;-3.482013702392578;-10.19373893737793;-140.9180908203125
295;1673444175.5643725;47.130591599999995;7.2405243;0.5020000338554382;1673444175.5821266;-3.486980438232422;-10.14235782623291;-141.06484985351562
296;1673444175.7551851;47.1305756;7.2405395;0.445000022649765;1673444175.7742627;-3.5447893142700195;-10.094599723815918;-141.24935913085938
297;1673444175.9581316;47.1305592;7.2405551;0.3840000033378601;1673444175.9792109;-3.5512449741363525;-9.960432052612305;-141.417724609375
298;1673444176.156236;47.130542399999996;7.2405710999999995;0.3320000171661377;1673444176.183065;-3.5786776542663574;-9.771675109863281;-141.61495971679688
299;1673444176.3681467;47.1305252;7.2405874;0.28300002217292786;1673444176.3872108;-3.633794069290161;-9.703374862670898;-141.82215881347656
300;1673444176.5670774;47.1305076;7.2406041;0.23600001633167267;1673444176.5881717;-3.6350157260894775;-9.58305835723877;-141.98240661621094
301;1673444176.755309;47.1304896;7.2406212;0.19100001454353333;1673444176.7791905;-3.6441516876220703;-9.510865211486816;-142.1836395263672
302;1673444176.9501498;47.130471199999995;7.2406387;0.1469999998807907;1673444176.971206;-3.7292280197143555;-9.389545440673828;-142.3807830810547
303;1673444177.1300912;47.130452299999995;7.240656599999999;0.09600000083446503;1673444177.150149;-3.7230257987976074;-9.337122917175293;-142.55934143066406
304;1673444177.336943;47.130432899999995;7.2406749999999995;0.03800000250339508;1673444177.3613226;-3.725214958190918;-9.257096290588379;-142.7550811767578
305;1673444177.54107;47.1304132;7.240693599999999;-0.006000000052154064;1673444177.565455;-3.86256742477417;-9.199734687805176;-142.95327758789062
306;1673444177.7450366;47.1303932;7.240712599999999;-0.0430000014603138;1673444177.7641132;-3.8811779022216797;-8.802507400512695;-143.09683227539062
307;1673444177.9442723;47.1303777;7.2407273;-0.015000000596046448;1673444177.9629464;-3.9366979598999023;-8.487325668334961;-143.27943420410156
308;;;;;1673444178.1550014;-3.906254529953003;-8.325039863586426;-143.409423828125
