;pos_time;latitude;longitude;altitude;alt_time;pitch;roll;yaw
0;1673366952.4644523;47.130642599999995;7.240619799999999;0.014000000432133675;1673366952.4644523;-0.24814940989017487;-0.2023717612028122;90.69548797607422
1;1673366952.6822028;47.130642599999995;7.2406197;0.014000000432133675;1673366952.6822028;-0.3443145155906677;-0.2650997042655945;90.77635192871094
2;1673366952.870673;47.130642599999995;7.2406197;0.014000000432133675;1673366952.870673;-0.26568281650543213;-0.07073225826025009;90.70252990722656
3;1673366953.048521;47.130642599999995;7.2406197;0.013000000268220901;1673366953.0495038;-0.12083146721124649;-0.12618055939674377;90.6244125366211
4;1673366953.26828;47.130642599999995;7.2406197;0.014000000432133675;1673366953.26828;-0.35313963890075684;-0.13767993450164795;90.74977111816406
5;1673366953.4587882;47.130642599999995;7.2406197;0.01600000075995922;1673366953.4597654;-0.3248547613620758;-0.15762561559677124;90.7522201538086
6;1673366953.6501846;47.130642599999995;7.240619799999999;0.01600000075995922;1673366953.6511607;0.025197014212608337;-0.14095664024353027;90.85094451904297
7;1673366953.8279233;47.1306425;7.240619799999999;0.01600000075995922;1673366953.8279233;0.09748531877994537;-0.1854967474937439;90.83193969726562
8;1673366954.0242565;47.1306425;7.240619799999999;0.018000001087784767;1673366954.0252318;0.10921487957239151;-0.09754198789596558;90.90782165527344
9;1673366954.2234628;47.1306425;7.240619799999999;0.0020000000949949026;1673366954.2234628;0.01589362323284149;-0.1494220495223999;90.68466186523438
10;1673366954.424736;47.1306425;7.2406196;0.0;1673366954.424736;0.17715780436992645;-0.019490404054522514;90.71891784667969
11;1673366954.6107492;47.1306425;7.2406196;-0.003000000026077032;1673366954.6107492;0.035166479647159576;0.02092425525188446;90.76172637939453
12;1673366954.814017;47.1306424;7.2406194;-0.006000000052154064;1673366954.8149564;-0.15980587899684906;-0.07504715770483017;90.69803619384766
13;1673366955.0015957;47.1306424;7.2406193;-0.005000000353902578;1673366955.0015957;-0.2295597344636917;-0.004380214028060436;90.70625305175781
14;1673366955.202101;47.1306424;7.2406193;-0.003000000026077032;1673366955.202101;-0.0305238738656044;-0.10797575861215591;90.73749542236328
15;1673366955.408396;47.1306424;7.240619199999999;-0.003000000026077032;1673366955.4093726;0.1303015649318695;0.10546853393316269;90.76426696777344
16;1673366955.6194127;47.1306424;7.2406193;-0.004000000189989805;1673366955.6203904;0.10346341878175735;0.10042425990104675;90.73985290527344
17;1673366955.8144698;47.1306425;7.2406193;0.0;1673366955.8144698;0.2327336072921753;-0.38457387685775757;91.0051040649414
18;1673366956.0353112;47.1306425;7.2406194;0.0010000000474974513;1673366956.0353112;0.1665651947259903;-0.05068579688668251;90.54947662353516
19;1673366956.2422683;47.1306425;7.240619499999999;0.003000000026077032;1673366956.243248;0.26551976799964905;0.16508738696575165;90.68450927734375
20;1673366956.432416;47.1306425;7.2406196;0.004000000189989805;1673366956.432328;0.47118788957595825;0.8792059421539307;90.3051986694336
21;1673366956.6237168;47.1306425;7.240619499999999;0.007000000216066837;1673366956.6237168;1.9927568435668945;-0.11642073094844818;90.9611587524414
22;1673366956.8160322;47.1306425;7.240619499999999;0.012000000104308128;1673366956.8160322;3.55720853805542;-0.0028988101985305548;90.80841064453125
23;1673366957.0233226;47.1306425;7.2406194;0.017000000923871994;1673366957.0233226;5.185956954956055;-0.04777637869119644;90.92110443115234
24;1673366957.2301664;47.1306424;7.2406194;0.02200000174343586;1673366957.2301664;7.3197102546691895;-0.025939861312508583;90.85891723632812
25;1673366957.4109166;47.1306424;7.240618899999999;0.010000000707805157;1673366957.4109166;-2.8300812244415283;0.17021402716636658;90.14263153076172
26;1673366957.599121;47.1306424;7.240616999999999;0.007000000216066837;1673366957.599121;-2.060617446899414;-0.4161583185195923;91.24356842041016
27;1673366957.806462;47.1306423;7.240614099999999;0.017000000923871994;1673366957.806462;-7.3150835037231445;-0.19128988683223724;89.74517822265625
28;1673366958.0082862;47.1306423;7.240610299999999;0.032999999821186066;1673366958.0092597;-14.365720748901367;-0.20959250628948212;89.93350219726562
29;1673366958.2363799;47.1306422;7.2406057;0.04400000348687172;1673366958.2363799;-16.435958862304688;-1.3893591165542603;91.22149658203125
30;1673366958.4258623;47.130642099999996;7.240600499999999;0.06100000441074371;1673366958.4258623;-16.875629425048828;-0.14211861789226532;90.83755493164062
31;1673366958.621056;47.130641999999995;7.2405949;0.08400000631809235;1673366958.621056;-18.034299850463867;-0.14636628329753876;90.7636489868164
32;1673366958.8122678;47.130641999999995;7.240588799999999;0.1120000034570694;1673366958.813269;-19.517932891845703;-1.4851369857788086;91.13382720947266
33;1673366959.012185;47.1306419;7.2405826;0.14300000667572021;1673366959.012185;-21.307607650756836;-0.8921323418617249;90.97972869873047
34;1673366959.2158208;47.1306418;7.2405763;0.1770000010728836;1673366959.2158208;-23.285831451416016;-0.1161690503358841;90.70795440673828
35;1673366959.4321613;47.1306417;7.2405703;0.21000000834465027;1673366959.4331343;-25.290807723999023;-1.454588532447815;90.99243927001953
36;1673366959.6240137;47.1306416;7.2405646;0.242000013589859;1673366959.6240137;-27.384578704833984;-1.38144850730896;90.93402862548828
37;1673366959.810554;47.1306416;7.2405596;0.26900002360343933;1673366959.810554;-29.51848793029785;-0.4814761281013489;90.6463623046875
38;1673366960.0089297;47.130641499999996;7.2405553;0.2930000126361847;1673366960.0089297;-31.635744094848633;-1.0902990102767944;90.80071258544922
39;1673366960.227264;47.130641499999996;7.2405516;0.3150000274181366;1673366960.227264;-33.82574462890625;-1.6052215099334717;90.92184448242188
40;1673366960.446048;47.130641499999996;7.240548899999999;0.33900001645088196;1673366960.4470253;-36.020755767822266;-1.2517986297607422;90.81060028076172
41;1673366960.6522665;47.130641499999996;7.240547299999999;0.3630000054836273;1673366960.6522665;-38.241050720214844;-0.9365565776824951;90.64134979248047
42;1673366960.8691423;47.130641499999996;7.2405468;0.3840000033378601;1673366960.870118;-40.33115005493164;-1.355031132698059;90.81488037109375
43;1673366961.0578372;47.130641499999996;7.2405477;0.406000018119812;1673366961.0578372;-42.59027862548828;-1.2116824388504028;90.63578796386719
44;1673366961.243486;47.1306416;7.2405501;0.4270000159740448;1673366961.2444515;-44.74148941040039;-1.1696606874465942;90.49362182617188
45;1673366961.4320033;47.1306417;7.2405539;0.445000022649765;1673366961.4320033;-46.95426940917969;-1.03419029712677;90.30310821533203
46;1673366961.637071;47.1306419;7.240559299999999;0.46000000834465027;1673366961.638045;-48.437095642089844;-0.8145202994346619;90.21275329589844
47;1673366961.8269548;47.130641999999995;7.2405662;0.4710000157356262;1673366961.8269548;-44.40650177001953;-0.6349426507949829;90.06705474853516
48;1673366962.0345595;47.1306422;7.240574;0.4790000319480896;1673366962.0345595;-39.653343200683594;-0.23272596299648285;89.95438385009766
49;1673366962.2273765;47.1306424;7.240582099999999;0.48100003600120544;1673366962.2273765;-34.1268424987793;-0.030151354148983955;89.85014343261719
50;1673366962.423695;47.1306425;7.2405899;0.51500004529953;1673366962.4246724;-28.392606735229492;-0.011823811568319798;89.97032928466797
51;1673366962.62388;47.130642599999995;7.240596999999999;0.562000036239624;1673366962.62388;-25.041704177856445;-0.1943158656358719;89.99114990234375
52;1673366962.826011;47.130642599999995;7.240602999999999;0.612000048160553;1673366962.826011;-20.483915328979492;-0.3241105079650879;90.03141021728516
53;1673366963.0377572;47.130642599999995;7.2406077;0.6710000038146973;1673366963.0377572;-19.45831298828125;-0.3382800221443176;90.04734802246094
54;1673366963.266335;47.130642599999995;7.2406109999999995;0.7310000061988831;1673366963.266335;-19.533924102783203;0.05148857459425926;89.93455505371094
55;1673366963.4695716;47.1306425;7.240613199999999;0.7930000424385071;1673366963.4695716;-20.97539520263672;-0.7315207719802856;90.0768051147461
56;1673366963.6629727;47.1306425;7.240614399999999;0.8670000433921814;1673366963.6629727;-22.873624801635742;-1.7173655033111572;90.40180206298828
57;1673366963.8456073;47.1306424;7.2406147999999995;0.9540000557899475;1673366963.8465884;-24.751712799072266;0.26100367307662964;89.70402526855469
58;1673366964.0312583;47.1306423;7.2406147999999995;1.0540000200271606;1673366964.0312583;-26.19954490661621;0.1214013397693634;89.58553314208984
59;1673366964.226068;47.1306422;7.2406147;1.165000081062317;1673366964.226068;-27.519718170166016;-3.0639290809631348;90.6393051147461
60;1673366964.4165673;47.1306422;7.2406146;1.2860000133514404;1673366964.4165673;-28.540145874023438;-0.19177134335041046;89.69265747070312
61;1673366964.6245546;47.1306422;7.2406146;1.4190000295639038;1673366964.625531;-29.204002380371094;0.982199490070343;89.19094848632812
62;1673366964.836998;47.130642099999996;7.2406147999999995;1.564000129699707;1673366964.836998;-29.46622657775879;-2.9301931858062744;90.38691711425781
63;1673366965.0655482;47.130642099999996;7.240615099999999;1.7200000286102295;1673366965.0665238;-28.92462730407715;-1.1107559204101562;93.56551361083984
64;1673366965.2472768;47.130642099999996;7.2406156;1.8920000791549683;1673366965.248254;-28.759496688842773;-0.5473008155822754;93.39102935791016
65;1673366965.4768615;47.130642099999996;7.2406160999999996;2.073000192642212;1673366965.4768615;-28.002859115600586;-2.7944889068603516;94.3114013671875
66;1673366965.6625636;47.1306423;7.2406166;2.264000177383423;1673366965.6625636;-27.867753982543945;0.0144837386906147;93.57719421386719
67;1673366965.8412778;47.1306424;7.2406172;2.455000162124634;1673366965.8412778;-27.29983139038086;0.9082175493240356;93.30521392822266
68;1673366966.0302474;47.1306424;7.240617599999999;2.6470000743865967;1673366966.0302474;-27.152605056762695;-2.1751694679260254;94.18708801269531
69;1673366966.2138674;47.1306423;7.2406181;2.8400001525878906;1673366966.214808;-26.955425262451172;-0.40423670411109924;93.6781234741211
70;1673366966.4297972;47.1306424;7.2406184;3.0320000648498535;1673366966.4297972;-27.139148712158203;1.2745648622512817;93.07586669921875
71;1673366966.6291256;47.1306424;7.2406185999999995;3.2220001220703125;1673366966.6291256;-27.064594268798828;-1.9391192197799683;94.14379119873047
72;1673366966.836839;47.1306424;7.240618899999999;3.4100000858306885;1673366966.837834;-27.07415199279785;-0.9393032789230347;93.92982482910156
73;1673366967.0278525;47.1306424;7.2406191;3.6000001430511475;1673366967.0278525;-27.076736450195312;1.4642621278762817;92.99051666259766
74;1673366967.2251685;47.1306424;7.240619199999999;3.7910001277923584;1673366967.2251685;-27.041881561279297;-2.2326109409332275;94.09600067138672
75;1673366967.4194956;47.1306423;7.2406194;3.9830002784729004;1673366967.4194956;-27.03643035888672;-2.031545877456665;94.03204345703125
76;1673366967.6051018;47.1306422;7.2406194;4.175000190734863;1673366967.6051018;-27.312353134155273;0.9207181930541992;92.99343872070312
77;1673366967.8160298;47.1306422;7.2406194;4.368000030517578;1673366967.8170059;-27.080217361450195;-2.0643372535705566;93.94815063476562
78;1673366968.0172815;47.1306423;7.2406194;4.559000015258789;1673366968.0172815;-27.542110443115234;-1.9158560037612915;94.0482177734375
79;1673366968.2600045;47.1306423;7.2406194;4.753000259399414;1673366968.2600045;-27.366147994995117;0.9690697193145752;93.09831237792969
80;1673366968.4592414;47.1306423;7.240619499999999;4.946000099182129;1673366968.4592414;-27.509937286376953;-1.012113332748413;93.65809631347656
81;1673366968.6604605;47.1306423;7.2406196;5.141000270843506;1673366968.661437;-27.314170837402344;-2.4184563159942627;94.23509216308594
82;1673366968.8557596;47.1306423;7.2406196;5.337000370025635;1673366968.8567433;-27.430936813354492;1.0467368364334106;93.03921508789062
83;1673366969.0361052;47.1306424;7.2406196;5.531000137329102;1673366969.0361052;-27.268064498901367;-0.5689200758934021;93.57638549804688
84;1673366969.2168276;47.1306424;7.2406197;5.724000453948975;1673366969.2178118;-27.36760711669922;-2.6116318702697754;94.34720611572266
85;1673366969.4498763;47.1306424;7.2406197;5.918000221252441;1673366969.4498763;-27.119384765625;0.6622807383537292;93.25300598144531
86;1673366969.6348777;47.1306424;7.240619799999999;6.11400032043457;1673366969.6348777;-27.316741943359375;-0.28738096356391907;93.51284790039062
87;1673366969.8443806;47.1306423;7.240619799999999;6.309000492095947;1673366969.8443806;-27.089916229248047;-2.9153876304626465;94.35649871826172
88;1673366970.038739;47.1306423;7.2406198999999996;6.506000518798828;1673366970.038739;-27.269798278808594;-0.03651350736618042;93.34793090820312
89;1673366970.2447777;47.1306423;7.2406198999999996;6.704000473022461;1673366970.2447777;-27.060266494750977;0.5683790445327759;93.08149719238281
90;1673366970.4450932;47.1306423;7.2406198999999996;6.895000457763672;1673366970.4460542;-27.239397048950195;-2.8854732513427734;94.37474822998047
91;1673366970.6481864;47.1306424;7.24062;7.085000514984131;1673366970.6481864;-27.107643127441406;-0.0933869257569313;93.56163024902344
92;1673366970.8766932;47.1306424;7.24062;7.277000427246094;1673366970.8766932;-27.29566192626953;0.5465345978736877;93.2317886352539
93;1673366971.0642192;47.1306423;7.24062;7.4720001220703125;1673366971.0642192;-26.984081268310547;-2.9112234115600586;94.24922943115234
94;1673366971.2468457;47.1306423;7.24062;7.669000148773193;1673366971.2468457;-27.18345069885254;-0.5013971924781799;93.56652069091797
95;1673366971.4480307;47.1306423;7.24062;7.865000247955322;1673366971.4480307;-27.288658142089844;0.7208080291748047;93.08649444580078
96;1673366971.6511536;47.1306423;7.24062;8.064000129699707;1673366971.6511536;-27.30142593383789;-2.5442373752593994;94.24651336669922
97;1673366971.8465164;47.1306424;7.24062;8.261000633239746;1673366971.8474927;-27.271560668945312;-0.4875602126121521;93.65869903564453
98;1673366972.0374365;47.1306423;7.24062;8.455000877380371;1673366972.0374365;-27.400531768798828;0.8987921476364136;93.14519500732422
99;1673366972.2308278;47.1306423;7.2406201;8.652000427246094;1673366972.231805;-27.28008460998535;-2.751323938369751;94.27799224853516
100;1673366972.4291506;47.1306422;7.2406201;8.851000785827637;1673366972.4291506;-27.23636817932129;-1.2567042112350464;93.7780532836914
101;1673366972.630422;47.1306422;7.2406201999999995;9.052000045776367;1673366972.6313722;-27.320940017700195;0.9199629426002502;93.0025863647461
102;1673366972.8334985;47.1306422;7.2406201999999995;9.25200080871582;1673366972.8344736;-27.125537872314453;-2.0083277225494385;93.91845703125
103;1673366973.027974;47.1306423;7.2406201999999995;9.457000732421875;1673366973.0289488;-27.221220016479492;-1.4433406591415405;93.89078521728516
104;1673366973.2389088;47.1306422;7.2406203;9.66200065612793;1673366973.2398825;-27.24287986755371;0.9622688293457031;93.14173889160156
105;1673366973.441094;47.1306422;7.2406204;9.867000579833984;1673366973.4426012;-27.01494026184082;-2.2939038276672363;94.15762329101562
106;1673366973.6438112;47.1306422;7.2406204999999995;10.072000503540039;1673366973.6438112;-27.312063217163086;-1.9117070436477661;93.9586410522461
107;1673366973.8201346;47.1306422;7.2406206;10.306000709533691;1673366973.8201346;-26.97160530090332;1.1147823333740234;93.19139099121094
108;1673366974.0582185;47.1306422;7.240621099999999;10.617000579833984;1673366974.0591354;-32.605289459228516;-1.6897505521774292;93.60590362548828
109;1673366974.2436962;47.1306422;7.2406223;10.993000984191895;1673366974.2436962;-30.784955978393555;-2.122671127319336;94.09613800048828
110;1673366974.431791;47.130642099999996;7.2406238;11.392000198364258;1673366974.432746;-27.179241180419922;0.31759631633758545;93.15654754638672
111;1673366974.6261885;47.130642099999996;7.2406253;11.801000595092773;1673366974.6261885;-24.35553741455078;-1.1586381196975708;93.78384399414062
112;1673366974.8224897;47.1306422;7.2406264;12.211000442504883;1673366974.8234656;-22.11137580871582;-1.9315861463546753;94.16664123535156
113;1673366975.0337174;47.1306423;7.240627;12.620000839233398;1673366975.0337174;-21.348827362060547;1.0420973300933838;93.21180725097656
114;1673366975.2291274;47.1306424;7.240627099999999;13.033000946044922;1673366975.2291274;-21.587167739868164;-0.2306554764509201;93.59525299072266
115;1673366975.4265404;47.1306424;7.240626499999999;13.444000244140625;1673366975.4275148;-22.450321197509766;-2.0320143699645996;94.22613525390625
116;1673366975.6488876;47.1306424;7.2406257;13.858000755310059;1673366975.6488876;-23.991247177124023;0.8852881193161011;93.28028106689453
117;1673366975.8588321;47.1306423;7.2406248;14.272000312805176;1673366975.8598075;-25.204896926879883;-0.2541341483592987;93.39389038085938
118;1673366976.061262;47.1306423;7.2406238;14.6850004196167;1673366976.0622222;-26.08454704284668;-2.8792970180511475;94.27864837646484
119;1673366976.249741;47.1306422;7.240622999999999;15.101000785827637;1673366976.249741;-27.001110076904297;0.21798931062221527;93.3241958618164
120;1673366976.4519694;47.1306422;7.2406223999999995;15.520000457763672;1673366976.4529624;-27.49436378479004;-0.1526138335466385;93.33858489990234
121;1673366976.6399643;47.1306422;7.2406219;15.93700122833252;1673366976.6399643;-27.68380355834961;-3.0075559616088867;94.22026824951172
122;1673366976.837283;47.130642099999996;7.2406215;16.350000381469727;1673366976.836327;-27.839641571044922;-0.8393187522888184;93.60264587402344
123;1673366977.0498269;47.130642099999996;7.240621399999999;16.763999938964844;1673366977.0507913;-27.680932998657227;0.041921813040971756;93.28218841552734
124;1673366977.257057;47.130642099999996;7.240621399999999;17.178001403808594;1673366977.257057;-27.097213745117188;-2.4202077388763428;94.14469146728516
125;1673366977.4401286;47.1306422;7.2406215;17.589000701904297;1673366977.4401286;-27.001415252685547;-1.0513453483581543;93.7807388305664
126;1673366977.639488;47.1306423;7.2406216;17.999000549316406;1673366977.6404135;-26.449787139892578;0.7616934180259705;93.15032958984375
127;1673366977.8377242;47.1306424;7.240621699999999;18.404001235961914;1673366977.8377242;-26.267290115356445;-1.5645511150360107;93.9828872680664
128;1673366978.0420084;47.1306424;7.2406217999999996;18.803001403808594;1673366978.0420084;-25.9437255859375;-1.2788589000701904;93.94664764404297
129;1673366978.2412648;47.1306424;7.2406217999999996;19.205001831054688;1673366978.2412648;-26.16975212097168;0.9473785758018494;93.03868865966797
130;1673366978.4317732;47.1306424;7.2406217999999996;19.612001419067383;1673366978.4317732;-25.811777114868164;-1.3827974796295166;93.90095520019531
131;1673366978.6272242;47.1306425;7.240621699999999;20.017000198364258;1673366978.6272242;-26.221702575683594;-1.6066560745239258;94.21588134765625
132;1673366978.869946;47.130642599999995;7.240621699999999;20.421001434326172;1673366978.8709242;-26.09322738647461;1.1870378255844116;93.30451965332031
133;1673366979.0712352;47.130642599999995;7.2406216;20.826000213623047;1673366979.0712352;-26.376659393310547;-0.7714285850524902;93.71305084228516
134;1673366979.286089;47.130642599999995;7.2406215;21.235000610351562;1673366979.2870653;-26.30571174621582;-1.6992709636688232;94.08905029296875
135;1673366979.4795349;47.1306425;7.2406213;21.63800048828125;1673366979.4795349;-26.682119369506836;1.0343949794769287;93.19410705566406
136;1673366979.662234;47.1306424;7.2406212;22.038000106811523;1673366979.662234;-26.518518447875977;-0.9687511920928955;93.7060775756836
137;1673366979.8575335;47.1306424;7.240621099999999;22.439001083374023;1673366979.858508;-26.804119110107422;-2.286133289337158;94.1851577758789
138;1673366980.0539494;47.1306424;7.240621099999999;22.839000701904297;1673366980.0539494;-26.363588333129883;0.7681670188903809;93.25325012207031
139;1673366980.2399604;47.1306424;7.240621099999999;23.240001678466797;1673366980.2399604;-26.64362144470215;-0.6698327660560608;93.55953216552734
140;1673366980.4343255;47.1306423;7.240621099999999;23.641000747680664;1673366980.4343255;-26.54962158203125;-2.6494884490966797;94.25113677978516
141;1673366980.6452885;47.1306423;7.240621;24.036001205444336;1673366980.6452885;-26.631103515625;0.12514960765838623;93.4679946899414
142;1673366980.8299363;47.1306423;7.240621;24.4320011138916;1673366980.8299363;-26.54608726501465;-0.08418390899896622;93.3393325805664
143;1673366981.0440407;47.1306423;7.240621;24.8330020904541;1673366981.0449896;-26.40668487548828;-2.4421255588531494;94.21914672851562
144;1673366981.2673094;47.1306423;7.240621;25.23600196838379;1673366981.2682843;-26.63039779663086;0.18467427790164948;93.40811920166016
145;1673366981.5007417;47.1306423;7.240621;25.64000129699707;1673366981.5007417;-26.48104476928711;0.41130635142326355;93.29963684082031
146;1673366981.7009857;47.1306423;7.240621;26.04400062561035;1673366981.7009857;-26.433006286621094;-2.386043071746826;94.24130249023438
147;1673366981.894357;47.1306423;7.240621;26.44700050354004;1673366981.894357;-26.507184982299805;-0.2793937921524048;93.60768127441406
148;1673366982.0780654;47.1306423;7.2406209;26.84200096130371;1673366982.0780654;-26.555635452270508;0.9527028203010559;93.21553802490234
149;1673366982.261687;47.1306424;7.2406209;27.239002227783203;1673366982.261687;-26.621366500854492;-2.061652898788452;94.10950469970703
150;1673366982.4561033;47.1306424;7.2406209;27.639001846313477;1673366982.4561033;-26.620962142944336;-0.9124362468719482;93.79866027832031
151;1673366982.6738722;47.1306424;7.2406209;28.042001724243164;1673366982.6738722;-26.49118423461914;0.9314390420913696;93.1563949584961
152;1673366982.8682258;47.1306424;7.2406209;28.44700050354004;1673366982.8682258;-26.5281982421875;-1.8815722465515137;94.05071258544922
153;1673366983.0743642;47.1306424;7.240620799999999;28.852001190185547;1673366983.0743642;-26.36249542236328;-1.1710400581359863;93.92813110351562
154;1673366983.2629669;47.1306424;7.240620799999999;29.250001907348633;1673366983.2629669;-26.717077255249023;1.0393394231796265;93.14967346191406
155;1673366983.505189;47.1306425;7.2406207;29.6510009765625;1673366983.5061684;-26.65251922607422;-1.4661662578582764;93.85931396484375
156;1673366983.7210376;47.1306425;7.2406207;30.056001663208008;1673366983.7220116;-26.695955276489258;-1.3417638540267944;93.97808074951172
157;1673366983.9320328;47.1306425;7.2406207;30.46200180053711;1673366983.9320328;-26.595985412597656;1.1035516262054443;93.15827941894531
158;1673366984.1205702;47.1306425;7.2406207;30.865001678466797;1673366984.1205702;-26.76396942138672;-1.176675796508789;93.78245544433594
159;1673366984.2905016;47.1306425;7.2406207;31.268001556396484;1673366984.2905016;-26.434955596923828;-1.8453748226165771;94.1173324584961
160;1673366984.4820287;47.1306425;7.2406207;31.670001983642578;1673366984.4820287;-26.778491973876953;1.0766326189041138;93.15313720703125
161;1673366984.6743987;47.130642599999995;7.2406206;32.06500244140625;1673366984.6743987;-26.462514877319336;-0.8024260401725769;93.77535247802734
162;1673366984.863844;47.130642599999995;7.2406206;32.46000289916992;1673366984.864818;-26.835294723510742;-1.7809902429580688;94.14823150634766
163;1673366985.1275823;47.130642699999996;7.2406206;32.85900115966797;1673366985.128559;-26.530155181884766;1.1673905849456787;93.1960678100586
164;1673366985.2906737;47.130642599999995;7.2406204999999995;33.26100158691406;1673366985.2906737;-26.735767364501953;-0.13329572975635529;93.50973510742188
165;1673366985.5006192;47.130642599999995;7.2406204999999995;33.66200256347656;1673366985.5015936;-26.716140747070312;-2.1997315883636475;94.24629974365234
166;1673366985.679328;47.130642599999995;7.2406204999999995;34.0620002746582;1673366985.679328;-26.646244049072266;0.7325424551963806;93.35779571533203
167;1673366985.8727329;47.130642599999995;7.2406204999999995;34.457000732421875;1673366985.8727329;-26.451705932617188;0.07490676641464233;93.50862884521484
168;1673366986.0720975;47.130642599999995;7.2406204999999995;34.85700225830078;1673366986.0730577;-26.815086364746094;-2.125422239303589;94.28787231445312
169;1673366986.2615466;47.130642599999995;7.2406204999999995;35.25800323486328;1673366986.2615466;-26.51447105407715;0.47243568301200867;93.46355438232422
170;1673366986.4564075;47.130642599999995;7.2406204;35.66200256347656;1673366986.4564075;-26.830684661865234;0.56456059217453;93.3324203491211
171;1673366986.6449656;47.130642599999995;7.2406204;36.06700134277344;1673366986.6449656;-26.53125;-2.275480031967163;94.2763671875
172;1673366986.8481045;47.130642599999995;7.2406204;36.47200012207031;1673366986.849085;-26.771474838256836;-0.017574453726410866;93.57955932617188
173;1673366987.049401;47.130642599999995;7.2406204;36.87800216674805;1673366987.0503802;-26.57247543334961;0.8582873940467834;93.20841217041016
174;1673366987.2417865;47.130642599999995;7.2406203;37.275001525878906;1673366987.2417865;-26.82486343383789;-2.1679956912994385;94.1253662109375
175;1673366987.4391077;47.1306425;7.2406203;37.67100143432617;1673366987.4391077;-26.638967514038086;-0.6454892158508301;93.76946258544922
176;1673366987.6441631;47.1306425;7.2406203;38.07100296020508;1673366987.6441631;-26.85112953186035;0.7505210638046265;93.24240112304688
177;1673366987.849248;47.1306425;7.2406203;38.47100067138672;1673366987.850224;-26.757843017578125;-1.9165910482406616;94.06394958496094
178;1673366988.0534549;47.1306425;7.2406203;38.871002197265625;1673366988.0534549;-26.776803970336914;-1.0366612672805786;93.93124389648438
179;1673366988.24592;47.1306425;7.2406203;39.27100372314453;1673366988.246861;-26.718212127685547;1.2546132802963257;93.18511199951172
180;1673366988.4471347;47.1306425;7.2406201999999995;39.66600036621094;1673366988.4471347;-26.727964401245117;-1.556305170059204;94.01060485839844
181;1673366988.6454527;47.1306425;7.2406201999999995;40.064002990722656;1673366988.6464398;-26.883037567138672;-0.972253680229187;93.84195709228516
182;1673366988.8667154;47.1306425;7.2406201999999995;40.46800231933594;1673366988.8667154;-26.847095489501953;1.226154088973999;93.14596557617188
183;1673366989.0615227;47.1306425;7.2406201999999995;40.874000549316406;1673366989.0615227;-26.872859954833984;-1.1076457500457764;93.85012817382812
184;1673366989.2521112;47.1306424;7.2406201999999995;41.28000259399414;1673366989.2511353;-26.711206436157227;-1.6704237461090088;94.06083679199219
185;1673366989.451434;47.1306424;7.2406201999999995;41.68300247192383;1673366989.4523795;-26.882640838623047;1.0740175247192383;93.21299743652344
186;1673366989.649633;47.1306424;7.2406201999999995;42.08400344848633;1673366989.6506066;-26.633636474609375;-0.7599254846572876;93.68313598632812
187;1673366989.838153;47.1306424;7.2406201999999995;42.47700119018555;1673366989.8391342;-26.804412841796875;-1.6981737613677979;94.09687805175781
188;1673366990.0354857;47.1306424;7.2406201999999995;42.87200164794922;1673366990.0364606;-26.797958374023438;0.8864879012107849;93.22444152832031
189;1673366990.22495;47.1306424;7.2406201999999995;43.27100372314453;1673366990.22495;-26.868112564086914;-0.4731048047542572;93.54837036132812
190;1673366990.4291177;47.1306424;7.2406201999999995;43.67500305175781;1673366990.4300952;-26.74393653869629;-2.0875136852264404;94.18006896972656
191;1673366990.647914;47.1306424;7.2406203;44.08000183105469;1673366990.6488607;-26.783653259277344;0.7371688485145569;93.36152648925781
192;1673366990.8598871;47.1306425;7.2406203;44.48200225830078;1673366990.8608413;-26.684640884399414;0.4064587950706482;93.37210845947266
193;1673366991.0630703;47.1306425;7.2406203;44.87700271606445;1673366991.0640643;-26.766693115234375;-1.9822567701339722;94.21216583251953
194;1673366991.2486334;47.1306425;7.2406203;45.2760009765625;1673366991.2486334;-26.535358428955078;0.47128772735595703;93.52108764648438
195;1673366991.4556499;47.1306425;7.2406203;45.677001953125;1673366991.4556499;-26.84552001953125;0.754827618598938;93.24716186523438
196;1673366991.6587784;47.1306425;7.2406203;46.07600402832031;1673366991.6587784;-26.672252655029297;-1.7645165920257568;94.01962280273438
197;1673366991.8522115;47.130642599999995;7.2406203;46.47800064086914;1673366991.8531873;-26.75613784790039;-0.38902121782302856;93.74019622802734
198;1673366992.0417607;47.130642599999995;7.2406201999999995;46.87900161743164;1673366992.0417607;-26.712779998779297;1.4648687839508057;93.1492919921875
199;1673366992.246828;47.130642599999995;7.2406201999999995;47.28000259399414;1673366992.2477975;-26.729948043823242;-1.5907701253890991;94.02157592773438
200;1673366992.4352999;47.130642599999995;7.2406201999999995;47.67500305175781;1673366992.4362884;-26.6297664642334;-0.7101184129714966;93.99077606201172
201;1673366992.6657746;47.1306425;7.2406201999999995;48.07100296020508;1673366992.6657746;-27.14859390258789;0.9483940005302429;93.18978118896484
202;1673366992.8639948;47.1306425;7.24062;48.428001403808594;1673366992.8649712;-27.182884216308594;-1.1920942068099976;93.99304962158203
203;1673366993.0476658;47.1306425;7.240619799999999;48.72900390625;1673366993.0476658;-27.14338493347168;-0.7890233397483826;93.8206787109375
204;1673366993.2322447;47.1306425;7.2406194;48.97900390625;1673366993.2332234;-27.51530647277832;1.031633734703064;93.23658752441406
205;1673366993.4529142;47.1306425;7.240618899999999;49.18800354003906;1673366993.4529142;-28.120460510253906;-1.0215202569961548;93.90638732910156
206;1673366993.6463003;47.1306425;7.2406184;49.355003356933594;1673366993.6472843;-24.465503692626953;-3.364589214324951;93.67708587646484
207;1673366993.8377495;47.1306425;7.2406175;49.47500228881836;1673366993.8377495;-18.914569854736328;13.044692993164062;84.4534912109375
208;1673366994.043834;47.130642099999996;7.2406158;49.53400421142578;1673366994.043834;-22.2224178314209;15.586503028869629;73.90784454345703
209;1673366994.2476351;47.1306413;7.240614099999999;49.59300231933594;1673366994.2486098;-24.999866485595703;13.991203308105469;61.787445068359375
210;1673366994.4970212;47.1306405;7.2406124;49.643001556396484;1673366994.4970212;-18.570356369018555;21.38731575012207;53.26449203491211
211;1673366994.6610076;47.130639699999996;7.2406108;49.69200134277344;1673366994.6620154;-18.226219177246094;21.204885482788086;44.711605072021484
212;1673366994.869914;47.1306389;7.2406093;49.73200225830078;1673366994.8708904;-15.442811012268066;21.88419532775879;34.8841667175293
213;1673366995.0569067;47.1306381;7.2406079;49.76300048828125;1673366995.0569067;-12.008439064025879;23.6945743560791;25.464887619018555
214;1673366995.2608118;47.1306374;7.240606499999999;49.7910041809082;1673366995.2608118;-7.723809719085693;26.489192962646484;16.43979263305664
215;1673366995.4595895;47.1306369;7.2406054;49.81900405883789;1673366995.460569;-2.940126895904541;29.501440048217773;7.573734283447266
216;1673366995.6556165;47.1306364;7.2406044;49.84100341796875;1673366995.6566083;1.6541255712509155;31.29789924621582;-1.7096298933029175
217;1673366995.8677504;47.1306361;7.240603699999999;49.85900115966797;1673366995.868719;6.362684726715088;31.362144470214844;-10.935148239135742
218;1673366996.0617552;47.130635899999994;7.2406033;49.874000549316406;1673366996.0617552;11.877925872802734;29.52425193786621;-19.92100715637207
219;1673366996.2606163;47.1306357;7.2406030999999995;49.87900161743164;1673366996.2606163;17.012380599975586;26.684959411621094;-28.757041931152344
220;1673366996.4499223;47.1306356;7.2406030999999995;49.88600158691406;1673366996.4499223;20.98331069946289;22.857410430908203;-37.64362335205078
221;1673366996.6647518;47.1306356;7.2406032;49.897003173828125;1673366996.6647518;24.04611587524414;17.9526424407959;-46.68727111816406
222;1673366996.8581474;47.1306357;7.2406033;49.90700149536133;1673366996.8581474;25.73812484741211;14.136028289794922;-52.52769088745117
223;1673366997.0554347;47.1306357;7.2406033999999995;49.913002014160156;1673366997.0554347;24.905698776245117;15.410862922668457;-49.99336624145508
224;1673366997.2614882;47.1306357;7.2406035;49.915000915527344;1673366997.2614882;23.7640323638916;17.323532104492188;-47.894927978515625
225;1673366997.4641533;47.1306355;7.240603699999999;49.9160041809082;1673366997.4641533;23.256635665893555;17.500717163085938;-47.37236785888672
226;1673366997.655041;47.1306352;7.2406038;49.91400146484375;1673366997.6560173;23.025745391845703;17.30478286743164;-47.059059143066406
227;1673366997.8435214;47.130634799999996;7.2406038;49.9160041809082;1673366997.8445342;22.5478515625;17.353713989257812;-46.451988220214844
228;1673366998.060324;47.1306345;7.240603699999999;49.92500305175781;1673366998.060324;21.69663429260254;18.031408309936523;-45.80226135253906
229;1673366998.2507946;47.130634199999996;7.2406035;49.93600082397461;1673366998.2517858;21.08941078186035;18.783138275146484;-45.53323745727539
230;1673366998.518927;47.130634099999995;7.2406033;49.94600296020508;1673366998.5199046;20.869632720947266;20.02778434753418;-45.339439392089844
231;1673366998.701578;47.130634099999995;7.2406030999999995;49.952003479003906;1673366998.701578;18.283161163330078;21.580358505249023;-46.21565628051758
232;1673366998.884235;47.1306344;7.2406026;49.94700241088867;1673366998.884235;-8.341462135314941;22.361942291259766;-50.5450553894043
233;1673366999.0644443;47.130635899999994;7.2406;49.96000289916992;1673366999.0654404;-37.33685302734375;16.70429229736328;-49.92192459106445
234;1673366999.2528012;47.1306393;7.2405934;49.96900177001953;1673366999.2528012;-52.16209411621094;9.456480979919434;-44.85974884033203
235;1673366999.4650333;47.130645099999995;7.2405817;49.957000732421875;1673366999.466093;-49.22935104370117;6.032169342041016;-44.46253967285156
236;1673366999.6689532;47.1306528;7.2405653999999995;49.941001892089844;1673366999.6699266;-48.303680419921875;7.354867458343506;-45.110931396484375
237;1673366999.8714921;47.130662199999996;7.2405452;49.93000411987305;1673366999.8714921;-50.397586822509766;8.963990211486816;-44.318843841552734
238;1673367000.059059;47.1306735;7.2405213999999996;49.93300247192383;1673367000.0600336;-55.507266998291016;12.08224105834961;-43.64157485961914
239;1673367000.2530975;47.1306869;7.2404948;49.932003021240234;1673367000.2530975;-56.66754150390625;14.65750503540039;-42.86619186401367
240;1673367000.4632523;47.1307024;7.2404657;49.926002502441406;1673367000.4642386;-55.866634368896484;12.579282760620117;-41.37263107299805
241;1673367000.6730678;47.1307195;7.2404345999999995;49.913002014160156;1673367000.6740437;-53.422386169433594;13.579452514648438;-41.388736724853516
242;1673367000.8561664;47.1307379;7.240402;49.887001037597656;1673367000.8561664;-52.858734130859375;16.48870086669922;-42.693931579589844
243;1673367001.065027;47.130757599999995;7.240368699999999;49.855003356933594;1673367001.065027;-49.88827133178711;17.30775260925293;-42.36951446533203
244;1673367001.262298;47.130778299999996;7.2403349;49.816001892089844;1673367001.262298;-49.40141677856445;16.362342834472656;-42.985557556152344
245;1673367001.4834313;47.1307997;7.240301;49.7760009765625;1673367001.4834313;-47.230125427246094;15.8160982131958;-43.295616149902344
246;1673367001.683427;47.130821499999996;7.2402669;49.7390022277832;1673367001.6844141;-44.180702209472656;15.44144344329834;-42.89658737182617
247;1673367001.8836074;47.1308436;7.2402327;49.71600341796875;1673367001.8836074;-46.02894592285156;16.592470169067383;-40.17737579345703
248;1673367002.0725513;47.1308662;7.2401987;49.70100402832031;1673367002.0725513;-45.07579040527344;22.78917121887207;-40.611976623535156
249;1673367002.2678185;47.1308893;7.2401656999999995;49.69400405883789;1673367002.2678185;-35.42137908935547;28.131772994995117;-37.81404113769531
250;1673367002.4595113;47.1309122;7.240134599999999;49.69000244140625;1673367002.4595113;7.803795337677002;21.0816707611084;-35.74519729614258
251;1673367002.659658;47.130933;7.240105799999999;49.612003326416016;1673367002.6606274;25.870040893554688;11.570684432983398;-35.38821792602539
252;1673367002.8735778;47.1309506;7.2400794;49.406002044677734;1673367002.8735778;16.558956146240234;2.5944392681121826;-42.2414665222168
253;1673367003.0578086;47.130964999999996;7.2400553;49.24400329589844;1673367003.0578086;14.91064739227295;0.18649311363697052;-45.093143463134766
254;1673367003.2566657;47.130976499999996;7.2400332;49.202003479003906;1673367003.2580152;28.48647117614746;3.2402713298797607;-46.415348052978516
255;1673367003.4666474;47.1309852;7.2400136999999996;49.22200393676758;1673367003.467626;35.044960021972656;4.711950302124023;-46.567466735839844
256;1673367003.6577287;47.1309912;7.2399971999999995;49.288002014160156;1673367003.6587086;44.59532165527344;6.511762619018555;-46.831573486328125
257;1673367003.8431125;47.1309945;7.2399844;49.374000549316406;1673367003.8440883;49.606971740722656;8.550308227539062;-47.03363800048828
258;1673367004.0356932;47.1309951;7.2399754;49.457000732421875;1673367004.0356932;51.45171356201172;12.555931091308594;-46.06460952758789
259;1673367004.2301638;47.1309939;7.2399702999999995;49.52800369262695;1673367004.2311397;53.585662841796875;16.636791229248047;-45.220367431640625
260;1673367004.4415348;47.130990999999995;7.2399688;49.59400177001953;1673367004.4425218;55.363548278808594;18.862539291381836;-45.45752716064453
261;1673367004.6396747;47.1309866;7.2399711;49.65700149536133;1673367004.6406507;56.06095504760742;19.626388549804688;-46.16777420043945
262;1673367004.852538;47.1309811;7.2399767;49.711002349853516;1673367004.852538;53.867759704589844;20.963119506835938;-47.49702835083008
263;1673367005.0527952;47.1309749;7.2399853;49.75100326538086;1673367005.0537715;51.98295593261719;23.335567474365234;-46.92416763305664
264;1673367005.2646823;47.1309684;7.239995899999999;49.78000259399414;1673367005.2646823;48.66905975341797;26.106128692626953;-47.633052825927734
265;1673367005.4716864;47.130962;7.2400082999999995;49.7920036315918;1673367005.4726737;48.26372528076172;30.422819137573242;-46.996131896972656
266;1673367005.6669784;47.1309562;7.2400224;49.80600357055664;1673367005.6679747;40.42677688598633;29.901124954223633;-49.2066764831543
267;1673367005.8867316;47.130950999999996;7.2400372;49.820003509521484;1673367005.8867316;20.041379928588867;29.389442443847656;-46.94740676879883
268;1673367006.0753148;47.1309469;7.240050999999999;49.82100296020508;1673367006.0762892;9.74488353729248;21.87317657470703;-43.89897537231445
269;1673367006.2833505;47.130943699999996;7.2400629;49.80800247192383;1673367006.2833505;1.0600123405456543;16.52610206604004;-41.42274856567383
270;1673367006.482529;47.1309415;7.240072199999999;49.79300308227539;1673367006.482529;-3.3473546504974365;13.15552806854248;-41.7703857421875
271;1673367006.6700742;47.1309401;7.2400785;49.76100158691406;1673367006.6700742;-5.006229400634766;16.584665298461914;-41.30485916137695
272;1673367006.8809984;47.130939;7.2400838;49.44900131225586;1673367006.8809984;-19.394617080688477;16.284997940063477;-41.20912551879883
273;1673367007.082304;47.130938;7.2400886;48.76400375366211;1673367007.082304;-42.02635955810547;0.22120749950408936;-40.824764251708984
274;1673367007.305588;47.1309368;7.2400932;47.68700408935547;1673367007.305588;-64.28173065185547;-42.6036491394043;-23.22403907775879
275;1673367007.5057628;47.1309356;7.2400977;46.22900390625;1673367007.5057628;-68.11347961425781;-112.0340805053711;17.906164169311523
276;1673367007.680037;47.1309344;7.2401022;44.41200256347656;1673367007.680037;-67.88837432861328;-138.9699249267578;22.078699111938477
277;1673367007.8743446;47.130933299999995;7.240106399999999;42.243003845214844;1673367007.8743446;-75.95195007324219;-98.82034301757812;-28.840991973876953
278;1673367008.0659008;47.1309322;7.2401104;39.71600341796875;1673367008.0659008;-53.770809173583984;-21.875886917114258;-100.75735473632812
279;1673367008.270978;47.130931499999996;7.2401145;36.80800247192383;1673367008.2719686;-11.179402351379395;7.88374137878418;-108.48681640625
280;1673367008.4760435;47.1309307;7.2401183;33.5;1673367008.4760435;21.776639938354492;34.62506866455078;-100.29930114746094
281;1673367008.6684833;47.130929699999996;7.2401216999999995;29.825000762939453;1673367008.6694705;30.433805465698242;49.01738357543945;-97.76339721679688
282;1673367008.877495;47.130928399999995;7.2401246;25.80500030517578;1673367008.877495;16.268476486206055;37.165870666503906;-117.98493957519531
283;1673367009.0708694;47.1309269;7.2401272;21.413000106811523;1673367009.0718489;-19.59906768798828;19.656436920166016;-142.01812744140625
284;1673367009.2583601;47.1309253;7.24013;16.6200008392334;1673367009.2583601;-54.11009979248047;11.349876403808594;-161.3004608154297
285;1673367009.4595704;47.130924099999994;7.240132699999999;11.484000205993652;1673367009.4605343;-57.78188705444336;9.75497055053711;-172.86175537109375
286;1673367009.6519754;47.1309234;7.2401352999999995;6.016000270843506;1673367009.6529343;-24.520591735839844;9.663979530334473;-172.10704040527344
287;1673367009.8433597;47.130922999999996;7.240137799999999;0.17400000989437103;1673367009.8433597;30.037582397460938;23.585657119750977;-171.21932983398438
288;1673367010.0611596;47.1309312;7.240119399999999;0.2290000170469284;1673367010.0611596;-17.713111877441406;11.799421310424805;-175.2541961669922
289;1673367010.2584074;47.1309422;7.2400999;0.07400000095367432;1673367010.2584074;-30.171846389770508;15.333352088928223;-177.58074951171875
290;1673367010.4509277;47.1309537;7.2400807;-0.02800000086426735;1673367010.4509277;-28.9770450592041;13.8742094039917;-177.78990173339844
291;1673367010.65014;47.130965499999995;7.2400609;-0.14800000190734863;1673367010.65014;-15.818218231201172;14.358549118041992;-175.02113342285156
292;1673367010.8553035;47.130978;7.240039899999999;-0.2840000092983246;1673367010.8553035;6.0462327003479;14.81165885925293;-171.73989868164062
293;1673367011.0848155;47.1309895;7.2400173;-0.3710000216960907;1673367011.0857975;2.0362064838409424;16.200536727905273;-172.25918579101562
294;1673367011.2889051;47.131001399999995;7.2399939;-0.44600000977516174;1673367011.2898822;2.167900800704956;18.575138092041016;-172.4904022216797
295;1673367011.5369282;47.1310134;7.239969599999999;-0.503000020980835;1673367011.5369282;2.275879383087158;18.64021110534668;-172.70594787597656
296;1673367011.710916;47.1310255;7.2399445;-0.5540000200271606;1673367011.710916;2.276791572570801;18.466218948364258;-172.88323974609375
297;1673367011.900035;47.131037799999994;7.239918299999999;-0.6360000371932983;1673367011.9010005;2.3254377841949463;18.282079696655273;-173.01219177246094
298;1673367012.097728;47.131050099999996;7.2398913;-0.7090000510215759;1673367012.097728;2.3473689556121826;18.009180068969727;-173.08868408203125
299;1673367012.2828927;47.1310626;7.2398637;-0.7640000581741333;1673367012.2828927;2.3743386268615723;17.591903686523438;-173.1912841796875
300;1673367012.5158544;47.1310752;7.2398354;-0.8060000538825989;1673367012.5168128;2.356233596801758;17.128572463989258;-173.2664031982422
301;1673367012.716744;47.1310879;7.239806499999999;-0.8440000414848328;1673367012.7177188;2.3972008228302;16.737028121948242;-173.3404998779297
302;1673367012.9040854;47.131101199999996;7.2397756;-0.878000020980835;1673367012.9040854;2.3798205852508545;16.273479461669922;-173.44041442871094
303;1673367013.0938568;47.1311141;7.2397453;-0.909000039100647;1673367013.094838;2.317416191101074;15.85218334197998;-173.49961853027344
304;1673367013.2880147;47.131126699999996;7.2397149999999995;-0.968000054359436;1673367013.2890217;2.3088886737823486;15.502248764038086;-173.56370544433594
305;1673367013.4587953;47.131139999999995;7.2396828;-1.0250000953674316;1673367013.4598155;2.3218400478363037;15.064454078674316;-173.59852600097656
306;1673367013.660093;47.1311533;7.2396502;-1.0600000619888306;1673367013.66107;2.243983030319214;14.66226863861084;-173.6392822265625
307;1673367013.8501422;47.1311667;7.239617099999999;-1.0850000381469727;1673367013.8511343;2.2655022144317627;14.314428329467773;-173.6815185546875
308;1673367014.0501885;47.131180199999996;7.239583199999999;-1.1080000400543213;1673367014.051153;2.306708812713623;13.910638809204102;-173.73733520507812
309;1673367014.2539155;47.1311938;7.2395488;-1.125;1673367014.2539155;2.275867462158203;13.55642318725586;-173.78125
310;1673367014.4361842;47.1312077;7.2395131;-1.1680001020431519;1673367014.4371555;2.3134090900421143;13.244502067565918;-173.81236267089844
311;1673367014.6470828;47.1312217;7.239476799999999;-1.2040001153945923;1673367014.6470828;2.332768440246582;12.877477645874023;-173.86534118652344
312;1673367014.861282;47.1312357;7.2394400999999995;-1.2200000286102295;1673367014.8622584;2.319340229034424;12.530532836914062;-173.8936767578125
313;1673367015.0593235;47.1312497;7.239402699999999;-1.227000117301941;1673367015.060293;2.3392553329467773;12.197402000427246;-173.9426727294922
314;1673367015.262113;47.1312639;7.2393648;-1.2280000448226929;1673367015.262113;2.370450496673584;11.869484901428223;-173.9899139404297
315;1673367015.4631171;47.131271399999996;7.2393446;-1.2230000495910645;1673367015.464093;2.3186705112457275;11.590072631835938;-174.04837036132812
316;;;;;1673367015.6560726;2.3465919494628906;11.289277076721191;-174.07444763183594
317;;;;;1673367015.836972;2.359729766845703;11.02014446258545;-174.1277618408203
318;;;;;1673367016.0322936;2.3512167930603027;10.806036949157715;-174.18870544433594
319;;;;;1673367016.246977;2.369622230529785;10.518513679504395;-174.22845458984375
320;;;;;1673367016.4441993;2.3287038803100586;10.287471771240234;-174.28076171875
321;;;;;1673367016.6351388;2.3905892372131348;9.829665184020996;-174.31153869628906
322;;;;;1673367016.8326664;2.2474300861358643;8.920174598693848;-174.3878173828125
323;;;;;1673367017.0342815;2.250321865081787;8.192950248718262;-174.3572540283203
