;pos_time;latitude;longitude;altitude;alt_time;pitch;roll;yaw
0;1673305170.1543434;47.1306425;7.2406201999999995;-0.03100000135600567;1673305170.3235006;0.006685194093734026;0.346320241689682;90.30548095703125
1;1673305170.342044;47.1306425;7.24062;-0.029000001028180122;1673305170.5171318;0.042418222874403;0.5586202144622803;90.26339721679688
2;1673305170.5347042;47.1306425;7.2406198999999996;-0.02800000086426735;1673305170.723339;0.04088177904486656;0.5866174101829529;90.23866271972656
3;1673305170.7389529;47.1306424;7.240619799999999;-0.027000000700354576;1673305170.923743;-0.030505597591400146;0.24918067455291748;90.15675354003906
4;1673305170.943277;47.1306424;7.2406197;-0.029000001028180122;1673305171.1251261;-0.054785072803497314;0.16690686345100403;90.08050537109375
5;1673305171.1407564;47.1306424;7.2406197;-0.027000000700354576;1673305171.3351793;0.07867110520601273;-0.23358815908432007;90.06542205810547
6;1673305171.351787;47.1306424;7.2406196;-0.027000000700354576;1673305171.5336826;-0.021582502871751785;-0.16322071850299835;90.18262481689453
7;1673305171.556271;47.1306424;7.2406196;-0.029000001028180122;1673305171.7345476;0.2748241424560547;-0.19216987490653992;90.23690795898438
8;1673305171.751115;47.1306425;7.2406196;-0.032999999821186066;1673305171.938721;0.16350403428077698;-0.07653510570526123;89.98641204833984
9;1673305171.956299;47.1306425;7.2406196;-0.03400000184774399;1673305172.130237;-0.02505897544324398;-0.9017421007156372;90.29290008544922
10;1673305172.1449828;47.1306425;7.2406197;0.0;1673305172.3426733;-0.19356875121593475;-0.8716566562652588;90.08602142333984
11;1673305172.3582892;47.1306425;7.240619799999999;-0.003000000026077032;1673305172.5301924;-0.16971518099308014;-0.7132192254066467;90.03474426269531
12;1673305172.5477784;47.1306425;7.240619799999999;-0.005000000353902578;1673305172.7138026;-0.1909363567829132;-0.8431100845336914;90.17707061767578
13;1673305172.7323446;47.1306425;7.240619799999999;-0.006000000052154064;1673305172.9102738;-0.12804199755191803;-0.7079616189002991;90.12165832519531
14;1673305172.9275277;47.1306424;7.240619799999999;-0.005000000353902578;1673305173.1155972;-0.3577878773212433;-0.8877480626106262;90.10598754882812
15;1673305173.1324406;47.1306424;7.240619799999999;-0.003000000026077032;1673305173.316403;-0.3192608952522278;-0.9505840539932251;90.04878997802734
16;1673305173.338238;47.1306424;7.240619799999999;-0.004000000189989805;1673305173.5385723;-0.3796199858188629;-1.2683848142623901;90.10733032226562
17;1673305173.556473;47.1306424;7.240619799999999;-0.003000000026077032;1673305173.74448;-0.1373765766620636;-1.1510794162750244;90.09355163574219
18;1673305173.75845;47.1306425;7.2406197;0.0;1673305173.9374013;-0.3533221483230591;-1.370642066001892;90.11351013183594
19;1673305173.9578433;47.1306425;7.2406197;-0.0010000000474974513;1673305174.127255;-0.4270593225955963;-0.5182976126670837;90.27262878417969
20;1673305174.1436305;47.1306425;7.240619799999999;-0.0020000000949949026;1673305174.3373773;-0.300414115190506;-0.6903338432312012;90.83242797851562
21;1673305174.3535407;47.1306425;7.240619799999999;-0.0010000000474974513;1673305174.5393732;-0.5523883104324341;-0.6795527935028076;90.65699005126953
22;1673305174.5593057;47.1306425;7.240619799999999;-0.003000000026077032;1673305174.7193837;-0.5246136784553528;-0.826582133769989;90.72003173828125
23;1673305174.7344513;47.1306425;7.2406198999999996;-0.0010000000474974513;1673305174.927002;-0.5311352014541626;-0.6342464685440063;90.99967193603516
24;1673305174.9466794;47.1306425;7.2406198999999996;0.003000000026077032;1673305175.1344595;-0.5363770127296448;-0.6966941356658936;91.87779235839844
25;1673305175.1563036;47.130642699999996;7.2406198999999996;-0.004000000189989805;1673305175.3392532;0.022888215258717537;-0.3888208866119385;94.5684814453125
26;1673305175.3584945;47.1306429;7.24062;-0.010000000707805157;1673305175.5278132;0.2095203697681427;0.6015022397041321;99.76506042480469
27;1673305175.5446186;47.130643199999994;7.2406204;-0.00800000037997961;1673305175.7202604;1.8612159490585327;3.1401314735412598;97.27152252197266
28;1673305175.7353868;47.1306436;7.240621099999999;0.0020000000949949026;1673305175.925319;6.164549827575684;6.3649582862854;93.08475494384766
29;1673305175.942375;47.130644;7.240622;0.014000000432133675;1673305176.138269;10.533952713012695;10.45644474029541;92.31668853759766
30;1673305176.1553295;47.1306446;7.2406231;0.03100000135600567;1673305176.3315697;12.74290657043457;13.310843467712402;92.52725219726562
31;1673305176.3443825;47.1306452;7.2406244;0.058000002056360245;1673305176.5221786;13.610116004943848;14.123303413391113;92.6269760131836
32;1673305176.540152;47.1306459;7.2406255999999996;0.0950000062584877;1673305176.716635;14.923388481140137;14.301255226135254;92.62945556640625
33;1673305176.7382748;47.130646399999996;7.240626799999999;0.14500001072883606;1673305176.919629;16.454479217529297;15.417231559753418;92.62236785888672
34;1673305176.9362571;47.1306468;7.2406276;0.20800000429153442;1673305177.132378;17.59726333618164;17.111204147338867;92.68138885498047
35;1673305177.1499448;47.130646999999996;7.2406282;0.28300002217292786;1673305177.3552308;19.13146209716797;17.753114700317383;92.61370086669922
36;1673305177.370964;47.130646999999996;7.2406283;0.3700000047683716;1673305177.548575;21.156782150268555;15.961799621582031;92.18992614746094
37;1673305177.5700874;47.1306467;7.2406279;0.4710000157356262;1673305177.7625408;20.14605712890625;16.090457916259766;91.36756896972656
38;1673305177.7850585;47.1306461;7.240627;0.5820000171661377;1673305177.9639492;17.7726993560791;15.966474533081055;90.52350616455078
39;1673305177.9795735;47.1306454;7.2406257;0.6980000138282776;1673305178.1481304;15.996139526367188;10.552448272705078;88.90409851074219
40;1673305178.1637554;47.1306447;7.2406242999999995;0.8220000267028809;1673305178.3266077;14.699698448181152;11.15461254119873;87.80718994140625
41;1673305178.3486192;47.1306441;7.2406228;0.9630000591278076;1673305178.5325053;13.645585060119629;12.561699867248535;87.0293197631836
42;1673305178.5510597;47.1306436;7.2406215;1.1140000820159912;1673305178.7403681;13.018485069274902;8.631976127624512;85.5211181640625
43;1673305178.7598858;47.130643199999994;7.2406204999999995;1.2750000953674316;1673305178.9664576;12.412403106689453;9.026616096496582;84.50476837158203
44;1673305178.9801223;47.1306429;7.2406197;1.446000099182129;1673305179.2271273;12.994556427001953;12.328551292419434;90.39738464355469
45;1673305179.2388773;47.130642699999996;7.2406193;1.6290000677108765;1673305179.4161339;12.605462074279785;9.146268844604492;88.17668914794922
46;1673305179.4288216;47.1306425;7.2406191;1.8200000524520874;1673305179.5890625;14.309823036193848;8.839986801147461;86.17074584960938
47;1673305179.6075943;47.1306425;7.2406191;2.0190000534057617;1673305179.7747457;15.147075653076172;12.63383960723877;85.10157775878906
48;1673305179.7903602;47.130642599999995;7.2406193;2.2170000076293945;1673305179.9623322;16.236169815063477;9.746501922607422;83.7118911743164
49;1673305179.9779615;47.130642699999996;7.240619499999999;2.4160001277923584;1673305180.1811185;16.62845230102539;8.030007362365723;82.4931869506836
50;1673305180.1996615;47.130642699999996;7.2406197;2.6070001125335693;1673305180.3784814;16.61897087097168;11.90294361114502;82.12493133544922
51;1673305180.4012215;47.130642699999996;7.240619799999999;2.8000001907348633;1673305180.5687346;16.861072540283203;10.374272346496582;81.84136199951172
52;1673305180.5843534;47.1306428;7.240619799999999;2.995000123977661;1673305180.7631688;16.720203399658203;8.19631576538086;81.7245864868164
53;1673305180.7758574;47.1306428;7.240619799999999;3.19700026512146;1673305180.9538355;16.409698486328125;11.68226146697998;82.1124038696289
54;1673305180.9704256;47.1306429;7.2406197;3.4030001163482666;1673305181.1560278;16.41433334350586;11.916133880615234;82.21990203857422
55;1673305181.173698;47.1306429;7.2406196;3.6000001430511475;1673305181.364319;16.340654373168945;7.934650897979736;81.85442352294922
56;1673305181.3838372;47.1306428;7.2406197;3.7960002422332764;1673305181.552853;16.137439727783203;10.14944839477539;81.99657440185547
57;1673305181.5704095;47.130642699999996;7.2406197;3.996000289916992;1673305181.743293;16.1765079498291;11.886821746826172;82.3311767578125
58;1673305181.7579277;47.130642599999995;7.240619799999999;4.190000057220459;1673305181.9398277;16.132600784301758;8.33063793182373;81.9586410522461
59;1673305181.9544625;47.1306425;7.2406197;4.385000228881836;1673305182.1362667;15.957656860351562;9.378418922424316;82.05242156982422
60;1673305182.1518807;47.1306425;7.2406197;4.580000400543213;1673305182.3463311;16.108949661254883;12.465700149536133;82.32765197753906
61;1673305182.3726795;47.130642599999995;7.2406197;4.77400016784668;1673305182.5296462;16.225664138793945;9.29727840423584;81.98123931884766
62;1673305182.5458124;47.130642599999995;7.2406197;4.9670000076293945;1673305182.7172174;16.03404998779297;8.40835952758789;81.76702880859375
63;1673305182.7338183;47.1306425;7.2406197;5.1610002517700195;1673305182.9255698;15.889471054077148;12.236283302307129;82.23255157470703
64;1673305182.9417388;47.1306425;7.2406197;5.3560004234313965;1673305183.1250246;16.066238403320312;10.46325397491455;82.18280792236328
65;1673305183.1421576;47.1306425;7.2406197;5.550000190734863;1673305183.3154395;16.056659698486328;8.578380584716797;81.84188079833984
66;1673305183.333026;47.130642599999995;7.2406196;5.746000289916992;1673305183.5160484;15.925525665283203;12.114736557006836;82.28694152832031
67;1673305183.5346;47.130642699999996;7.2406197;5.944000244140625;1673305183.7173681;16.13192367553711;12.008842468261719;82.29472351074219
68;1673305183.7359219;47.130642699999996;7.2406197;6.144000053405762;1673305183.9564397;16.333847045898438;8.577776908874512;81.98623657226562
69;1673305183.9741719;47.130642599999995;7.2406197;6.340000152587891;1673305184.1357498;15.919600486755371;10.110052108764648;82.04054260253906
70;1673305184.1520598;47.1306425;7.240619799999999;6.5360002517700195;1673305184.3435845;16.04575538635254;12.44641399383545;82.39085388183594
71;1673305184.3601754;47.1306425;7.240619799999999;6.728000164031982;1673305184.542002;16.239421844482422;8.503889083862305;81.9007797241211
72;1673305184.5625138;47.1306424;7.240619799999999;6.9200005531311035;1673305184.7453265;16.007736206054688;9.515891075134277;81.8680191040039
73;1673305184.7609403;47.1306425;7.240619799999999;7.115000247955322;1673305184.9364562;16.024229049682617;12.508249282836914;82.29232025146484
74;1673305184.9516733;47.130642599999995;7.240619799999999;7.311000347137451;1673305185.1379962;16.205646514892578;9.5637788772583;81.99777221679688
75;1673305185.1541564;47.130642599999995;7.240619799999999;7.50700044631958;1673305185.334629;16.08572769165039;8.740585327148438;81.86701965332031
76;1673305185.3523097;47.130642599999995;7.2406198999999996;7.702000141143799;1673305185.5243795;16.090633392333984;12.445417404174805;82.23217010498047
77;1673305185.5391505;47.130642599999995;7.2406198999999996;7.896000385284424;1673305185.7210693;16.21477508544922;10.080742835998535;81.9764175415039
78;1673305185.743087;47.130642599999995;7.2406198999999996;8.0910005569458;1673305185.9735436;16.16328239440918;8.475398063659668;81.78113555908203
79;1673305185.9891334;47.130642599999995;7.2406198999999996;8.289000511169434;1673305186.1587899;15.985759735107422;11.761734962463379;82.206787109375
80;1673305186.1793404;47.130642699999996;7.24062;8.48900032043457;1673305186.3463733;16.201988220214844;11.472209930419922;82.22228240966797
81;1673305186.384434;47.130642699999996;7.24062;8.68600082397461;1673305186.6054885;16.29873275756836;8.434920310974121;81.90325164794922
82;1673305186.6269586;47.130642699999996;7.24062;8.884000778198242;1673305186.7898445;16.00061798095703;11.565500259399414;82.17498779296875
83;1673305186.805472;47.130642699999996;7.24062;9.082000732421875;1673305186.9697785;16.1035099029541;11.908711433410645;82.3692398071289
84;1673305186.9844196;47.130642699999996;7.24062;9.27500057220459;1673305187.1564217;16.062267303466797;8.236248016357422;81.914306640625
85;1673305187.1720684;47.130642699999996;7.24062;9.470000267028809;1673305187.3656514;15.79064655303955;11.029160499572754;82.07002258300781
86;1673305187.3833768;47.1306428;7.24062;9.669000625610352;1673305187.5620399;16.06232261657715;12.496694564819336;82.34404754638672
87;1673305187.5796065;47.1306428;7.2406201;9.869000434875488;1673305187.78593;16.351430892944336;8.902663230895996;82.10292053222656
88;1673305187.8005683;47.1306428;7.2406201999999995;10.066000938415527;1673305187.9950936;16.26127052307129;9.745850563049316;82.27616882324219
89;1673305188.0068042;47.1306428;7.2406201999999995;10.293000221252441;1673305188.1631958;15.991575241088867;14.24255657196045;83.03382110595703
90;1673305188.1779673;47.130642699999996;7.24062;10.630000114440918;1673305188.3386552;16.56328773498535;12.199451446533203;82.88811492919922
91;1673305188.3528721;47.1306424;7.2406196;11.016000747680664;1673305188.5243537;15.4485445022583;9.423744201660156;82.49494171142578
92;1673305188.539985;47.130641999999995;7.2406193;11.413000106811523;1673305188.735746;14.88607406616211;11.576858520507812;82.72639465332031
93;1673305188.7528658;47.1306417;7.240619;11.813000679016113;1673305188.935308;14.69469165802002;9.769978523254395;82.44263458251953
94;1673305188.9495091;47.130641399999995;7.240618899999999;12.213000297546387;1673305189.1267445;14.482433319091797;6.7264084815979;82.15379333496094
95;1673305189.1413827;47.1306412;7.2406188;12.611001014709473;1673305189.342459;14.434083938598633;9.560352325439453;82.40583801269531
96;1673305189.3577483;47.1306411;7.2406188;13.010000228881836;1673305189.5294106;14.712421417236328;10.467867851257324;82.47792053222656
97;1673305189.5450716;47.1306412;7.2406188;13.403000831604004;1673305189.7250507;14.95450210571289;7.1712799072265625;82.01703643798828
98;1673305189.740666;47.1306413;7.240618899999999;13.795001029968262;1673305189.9448595;14.964332580566406;10.173125267028809;82.35860443115234
99;1673305189.9610596;47.1306416;7.240619;14.184000968933105;1673305190.1265993;15.39745044708252;12.070219993591309;82.46359252929688
100;1673305190.142226;47.1306419;7.240619199999999;14.57300090789795;1673305190.325284;15.964799880981445;9.005953788757324;82.30377197265625
101;1673305190.3419163;47.130642099999996;7.2406193;14.961000442504883;1673305190.5169642;15.782044410705566;10.172401428222656;82.34033203125
102;1673305190.5326052;47.1306422;7.2406194;15.348000526428223;1673305190.7053273;15.722819328308105;13.036474227905273;82.66629028320312
103;1673305190.720974;47.1306423;7.240619499999999;15.738000869750977;1673305190.9086154;15.97342586517334;10.15576171875;82.17729949951172
104;1673305190.927445;47.1306424;7.240619499999999;16.12700080871582;1673305191.111951;15.727765083312988;9.889599800109863;82.17147827148438
105;1673305191.129519;47.1306424;7.2406194;16.520999908447266;1673305191.3337975;15.493714332580566;12.745833396911621;82.60418701171875
106;1673305191.3494241;47.1306424;7.2406194;16.91900062561035;1673305191.545132;15.624939918518066;10.574536323547363;82.36982727050781
107;1673305191.560309;47.1306424;7.2406194;17.31599998474121;1673305191.7453911;15.776723861694336;8.569738388061523;82.15938568115234
108;1673305191.7675428;47.1306423;7.240619499999999;17.70800018310547;1673305191.9431925;15.390480041503906;11.609110832214355;82.43264770507812
109;1673305191.962761;47.1306422;7.240619499999999;18.10500144958496;1673305192.1552193;15.373385429382324;10.630297660827637;82.33180236816406
110;1673305192.1718206;47.130642099999996;7.2406194;18.5;1673305192.3671145;15.37271785736084;7.9594597816467285;82.08124542236328
111;1673305192.3876083;47.130642099999996;7.2406194;18.89900016784668;1673305192.554487;15.250457763671875;11.173125267028809;82.40629577636719
112;1673305192.5710783;47.130642099999996;7.2406193;19.299001693725586;1673305192.7368991;15.478201866149902;11.35212230682373;82.39006805419922
113;1673305192.7595363;47.1306422;7.2406193;19.69700050354004;1673305192.951514;15.60004711151123;8.220433235168457;82.08502960205078
114;1673305192.9663103;47.1306422;7.2406194;20.097000122070312;1673305193.146579;15.351607322692871;10.294346809387207;82.24402618408203
115;1673305193.1637561;47.1306422;7.2406194;20.500001907348633;1673305193.35446;15.330723762512207;12.177520751953125;82.60906219482422
116;1673305193.3691032;47.1306423;7.2406193;20.90300178527832;1673305193.549616;15.557045936584473;8.985082626342773;82.23033905029297
117;1673305193.5686922;47.1306424;7.2406193;21.299001693725586;1673305193.7403214;15.445420265197754;10.48789119720459;82.23987579345703
118;1673305193.7584898;47.1306425;7.2406193;21.69900131225586;1673305193.9435246;15.526104927062988;12.858986854553223;82.4863510131836
119;1673305193.958705;47.130642599999995;7.2406193;22.101001739501953;1673305194.1466262;15.646389961242676;9.69160270690918;82.40276336669922
120;1673305194.165708;47.130642599999995;7.2406193;22.501001358032227;1673305194.369878;15.520289421081543;9.647456169128418;82.2994613647461
121;1673305194.385494;47.1306425;7.2406193;22.9010009765625;1673305194.5784657;15.361091613769531;12.417740821838379;82.5860366821289
122;1673305194.5941808;47.1306425;7.240619199999999;23.3070011138916;1673305194.759066;15.439515113830566;10.11019229888916;82.30120086669922
123;1673305194.7736924;47.1306424;7.240619199999999;23.707000732421875;1673305194.9393964;15.502578735351562;8.934680938720703;82.14317321777344
124;1673305194.953084;47.1306424;7.2406191;24.108001708984375;1673305195.132884;15.01704216003418;12.36310863494873;82.5860595703125
125;1673305195.1495821;47.1306425;7.240619;24.510000228881836;1673305195.3295827;15.1627836227417;11.459012031555176;82.53643798828125
126;1673305195.3461843;47.1306424;7.240619;24.913002014160156;1673305195.5252626;15.344526290893555;8.534399032592773;82.12151336669922
127;1673305195.5498962;47.1306423;7.240619;25.312000274658203;1673305195.7249815;15.317276954650879;11.1879301071167;82.3305435180664
128;1673305195.7406735;47.1306423;7.240619;25.714000701904297;1673305195.9298682;15.272847175598145;11.728848457336426;82.51384735107422
129;1673305195.9454932;47.1306424;7.240619;26.11600112915039;1673305196.1273675;15.491387367248535;8.542840957641602;82.15576934814453
130;1673305196.1449387;47.1306424;7.2406191;26.516000747680664;1673305196.330766;15.338761329650879;11.033207893371582;82.45252990722656
131;1673305196.3473759;47.1306424;7.2406191;26.92300033569336;1673305196.541769;15.373830795288086;12.410133361816406;82.41090393066406
132;1673305196.5704336;47.1306425;7.2406191;27.32900047302246;1673305196.7409222;15.640056610107422;8.806352615356445;82.06908416748047
133;1673305196.757514;47.1306424;7.2406191;27.73200225830078;1673305196.9521966;15.49359130859375;9.699616432189941;82.11618041992188
134;1673305196.968821;47.1306424;7.240619199999999;28.136001586914062;1673305197.163978;15.247652053833008;12.811046600341797;82.5960922241211
135;1673305197.1766949;47.1306424;7.240619199999999;28.54100227355957;1673305197.3567479;15.51311206817627;9.615806579589844;82.16084289550781
136;1673305197.370942;47.1306425;7.240619199999999;28.940000534057617;1673305197.55414;15.361403465270996;9.573283195495605;82.05241394042969
137;1673305197.5723038;47.1306425;7.240619199999999;29.343002319335938;1673305197.7576127;15.452982902526855;12.69829273223877;82.35592651367188
138;1673305197.7893763;47.1306425;7.240619199999999;29.7450008392334;1673305197.9588232;15.6231107711792;10.241519927978516;82.17758178710938
139;1673305197.9788783;47.1306425;7.240619199999999;30.147001266479492;1673305198.1747441;15.5119047164917;8.754170417785645;82.15818786621094
140;1673305198.191387;47.1306424;7.2406193;30.547000885009766;1673305198.3742347;15.290979385375977;12.045902252197266;82.53533172607422
141;1673305198.3996763;47.1306423;7.2406193;30.94900131225586;1673305198.5526648;15.335529327392578;11.37988567352295;82.50988006591797
142;1673305198.56882;47.1306423;7.2406193;31.34800148010254;1673305198.736338;15.681381225585938;8.486449241638184;82.02974700927734
143;1673305198.751965;47.1306424;7.2406193;31.742000579833984;1673305198.935767;15.305150032043457;11.534097671508789;82.39895629882812
144;1673305198.952372;47.1306424;7.2406193;32.14400100708008;1673305199.1273859;15.292985916137695;12.102639198303223;82.54728698730469
145;1673305199.1430707;47.1306425;7.2406193;32.54500198364258;1673305199.3330894;15.479157447814941;8.866969108581543;82.28211975097656
146;1673305199.3517146;47.1306424;7.2406193;32.94600296020508;1673305199.5393007;15.349699974060059;10.487066268920898;82.17636108398438
147;1673305199.5559375;47.1306424;7.2406193;33.35000228881836;1673305199.739286;15.384957313537598;12.578361511230469;82.40863800048828
148;1673305199.7568393;47.1306425;7.2406193;33.75300216674805;1673305199.971878;15.46632194519043;9.200369834899902;82.0703353881836
149;1673305199.988462;47.1306425;7.2406193;34.1510009765625;1673305200.1513186;15.348272323608398;10.223734855651855;82.44003295898438
150;1673305200.1685092;47.130642599999995;7.2406193;34.553001403808594;1673305200.348928;15.22705078125;12.911072731018066;82.66351318359375
151;1673305200.3685212;47.130642599999995;7.2406193;34.954002380371094;1673305200.5570142;15.63054084777832;9.968520164489746;82.32421875
152;1673305200.5707126;47.130642599999995;7.2406194;35.355003356933594;1673305200.7393005;15.47917652130127;8.696212768554688;81.9662094116211
153;1673305200.7558937;47.1306425;7.2406194;35.759002685546875;1673305200.9290628;15.232453346252441;12.31387710571289;82.3368148803711
154;1673305200.947754;47.1306425;7.2406194;36.16600036621094;1673305201.1246474;15.446355819702148;10.667113304138184;82.21699523925781
155;1673305201.145143;47.130642599999995;7.2406194;36.57100296020508;1673305201.3228998;15.332343101501465;8.800253868103027;82.0253677368164
156;1673305201.3375387;47.130642599999995;7.2406194;36.96800231933594;1673305201.531082;15.374884605407715;12.1823148727417;82.50015258789062
157;1673305201.5495963;47.130642699999996;7.2406194;37.37200164794922;1673305201.7469413;15.43336296081543;11.892966270446777;82.56777954101562
158;1673305201.7625442;47.130642699999996;7.240619499999999;37.775001525878906;1673305201.9500651;15.649507522583008;8.772743225097656;82.1413345336914
159;1673305201.96665;47.130642599999995;7.2406196;38.176002502441406;1673305202.1473286;15.42854118347168;11.211216926574707;82.3449478149414
160;1673305202.163916;47.130642599999995;7.2406196;38.582000732421875;1673305202.3348672;15.350695610046387;12.527389526367188;82.55040740966797
161;1673305202.35145;47.130642699999996;7.2406196;38.987003326416016;1673305202.5482507;15.362788200378418;9.208414077758789;82.21980285644531
162;1673305202.5621202;47.130642699999996;7.2406196;39.38199996948242;1673305202.7483885;15.379135131835938;10.648049354553223;82.28743743896484
163;1673305202.7630455;47.130642699999996;7.240619499999999;39.78000259399414;1673305202.9428854;15.461648941040039;12.616621971130371;82.44007873535156
164;1673305202.9585106;47.1306428;7.2406196;40.18000030517578;1673305203.2241962;15.749662399291992;9.997644424438477;82.42139434814453
165;1673305203.2389932;47.130642699999996;7.2406196;40.5780029296875;1673305203.413512;15.655279159545898;9.469989776611328;82.19170379638672
166;1673305203.4252248;47.130642699999996;7.2406196;40.980003356933594;1673305203.591724;15.394148826599121;12.556255340576172;82.58375549316406
167;1673305203.606363;47.130642599999995;7.2406197;41.384002685546875;1673305203.783683;15.582561492919922;10.412189483642578;82.26920318603516
168;1673305203.7983117;47.130642599999995;7.2406196;41.788002014160156;1673305203.976236;15.468155860900879;8.975994110107422;82.03831481933594
169;1673305203.9928627;47.130642599999995;7.2406196;42.18300247192383;1673305204.1507008;15.219902992248535;12.344221115112305;82.52521514892578
170;1673305204.166318;47.130642699999996;7.240619499999999;42.58000183105469;1673305204.3338258;15.528377532958984;11.212263107299805;82.50035858154297
171;1673305204.3494549;47.130642599999995;7.240619499999999;42.97700119018555;1673305204.5400634;15.589544296264648;8.733891487121582;82.31317138671875
172;1673305204.5568216;47.130642599999995;7.240619499999999;43.37800216674805;1673305204.7442331;15.19942569732666;11.599996566772461;82.52288818359375
173;1673305204.7608604;47.130642599999995;7.2406194;43.785003662109375;1673305204.9402256;15.194116592407227;12.144233703613281;82.60194396972656
174;1673305204.9548633;47.130642599999995;7.2406194;44.19300079345703;1673305205.1412098;15.520529747009277;9.24813175201416;82.1729736328125
175;1673305205.1568246;47.130642599999995;7.2406194;44.592002868652344;1673305205.3378403;15.302855491638184;11.18079948425293;82.41490173339844
176;1673305205.3534558;47.130642599999995;7.2406193;44.99400329589844;1673305205.5343976;15.359480857849121;12.55255126953125;82.59407806396484
177;1673305205.551125;47.130642599999995;7.2406194;45.39500045776367;1673305205.7442687;15.337733268737793;9.345627784729004;82.41110229492188
178;1673305205.7598844;47.1306425;7.2406194;45.797000885009766;1673305205.932818;15.427323341369629;9.030715942382812;82.0026626586914
179;1673305205.9494107;47.1306425;7.2406194;46.19900131225586;1673305206.1254787;15.2734375;12.436799049377441;82.41313171386719
180;1673305206.142069;47.1306425;7.2406194;46.60400390625;1673305206.3247273;15.481444358825684;10.635438919067383;82.26585388183594
181;1673305206.342294;47.130642599999995;7.2406194;47.00700378417969;1673305206.546423;15.358510971069336;9.003265380859375;82.15373229980469
182;1673305206.5650992;47.130642599999995;7.2406193;47.402000427246094;1673305206.7429519;15.206894874572754;12.539158821105957;82.51115417480469
183;1673305206.7653923;47.130642699999996;7.2406193;47.80400085449219;1673305206.9553752;15.33734130859375;11.653722763061523;82.3453140258789
184;1673305206.9690595;47.130642699999996;7.2406193;48.19400405883789;1673305207.1470773;15.40110969543457;9.510979652404785;82.234619140625
185;1673305207.162693;47.130642699999996;7.2406194;48.53700256347656;1673305207.3618414;15.36373233795166;12.286375045776367;82.54102325439453
186;1673305207.3809426;47.1306428;7.240619499999999;48.8280029296875;1673305207.639932;15.634650230407715;11.9335298538208;82.23442840576172
187;1673305207.653596;47.130643;7.2406197;49.073001861572266;1673305207.800138;15.804235458374023;8.537481307983398;81.51777648925781
188;1673305207.8139644;47.130643199999994;7.24062;49.26700210571289;1673305207.9771132;21.48297882080078;10.816007614135742;81.14363098144531
189;1673305207.9942465;47.1306434;7.2406201999999995;49.43300247192383;1673305208.171504;30.34532928466797;20.65300941467285;74.34642028808594
190;1673305208.1870098;47.1306435;7.2406201;49.5410041809082;1673305208.3536286;26.532196044921875;10.514118194580078;60.687034606933594
191;1673305208.3712626;47.1306429;7.2406196;49.5880012512207;1673305208.5516198;22.162918090820312;1.4163050651550293;51.6266975402832
192;1673305208.5665162;47.130641999999995;7.240618899999999;49.64400100708008;1673305208.7393775;26.720327377319336;-1.7572773694992065;42.494930267333984
193;1673305208.7566667;47.1306411;7.2406179999999996;49.68800354003906;1673305208.9484413;22.92768096923828;-6.591133117675781;34.0006217956543
194;1673305208.9678385;47.1306399;7.2406169;49.72500228881836;1673305209.143499;20.360435485839844;-7.898187637329102;26.146129608154297
195;1673305209.1594932;47.1306388;7.2406158;49.74700164794922;1673305209.3456619;17.20301055908203;-8.457515716552734;17.53232192993164
196;1673305209.3646445;47.1306377;7.2406147999999995;49.77000045776367;1673305209.5405715;13.757505416870117;-9.440723419189453;8.3737154006958
197;1673305209.5546148;47.1306367;7.240614;49.794002532958984;1673305209.7546234;9.722317695617676;-10.732630729675293;-1.285709023475647
198;1673305209.7835808;47.130635999999996;7.240613499999999;49.81800079345703;1673305209.9534657;6.178806304931641;-13.388598442077637;-11.377829551696777
199;1673305209.9711316;47.1306355;7.2406133;49.8390007019043;1673305210.1474516;3.9005627632141113;-16.8291015625;-21.553730010986328
200;1673305210.1665947;47.130635399999996;7.2406133;49.858001708984375;1673305210.345341;2.2978057861328125;-19.968975067138672;-31.221302032470703
201;1673305210.3626652;47.1306355;7.240613199999999;49.868003845214844;1673305210.5533595;0.1120540127158165;-21.33115577697754;-39.98316955566406
202;1673305210.5709321;47.1306357;7.2406131;49.88200378417969;1673305210.749891;-2.96220326423645;-20.46470832824707;-48.71963882446289
203;1673305210.7703848;47.130635999999996;7.2406128999999995;49.89600372314453;1673305210.9494262;-6.20020866394043;-18.251914978027344;-52.527984619140625
204;1673305210.9669883;47.1306363;7.2406127;49.910003662109375;1673305211.144758;-3.7278974056243896;-18.128190994262695;-49.491600036621094
205;1673305211.1642978;47.130636599999995;7.2406123;49.92100143432617;1673305211.3423548;-0.17034004628658295;-20.461023330688477;-46.58618927001953
206;1673305211.3569932;47.130637;7.240611899999999;49.93300247192383;1673305211.5437438;1.3320528268814087;-22.648427963256836;-45.79508590698242
207;1673305211.55936;47.130637199999995;7.240611599999999;49.94600296020508;1673305211.7454796;2.0617763996124268;-23.80093765258789;-45.589866638183594
208;1673305211.7640264;47.130637199999995;7.2406112;49.94300079345703;1673305211.9407275;1.577165961265564;-23.68344497680664;-45.32865905761719
209;1673305211.95737;47.1306369;7.2406108;49.94200134277344;1673305212.144213;0.2903730571269989;-20.790231704711914;-45.16397476196289
210;1673305212.1638768;47.1306365;7.2406105;49.941001892089844;1673305212.3395991;-0.7959479689598083;-17.922224044799805;-45.06820297241211
211;1673305212.3561902;47.1306361;7.240610299999999;49.94300079345703;1673305212.5487523;-1.6176800727844238;-17.4958553314209;-44.994102478027344
212;1673305212.5663216;47.1306357;7.2406102;49.94900131225586;1673305212.7698085;-1.261247992515564;-18.340164184570312;-45.1660270690918
213;1673305212.786404;47.1306355;7.2406101;49.954002380371094;1673305212.9652982;-0.5345720648765564;-19.77146339416504;-45.33780288696289
214;1673305212.982058;47.130635299999994;7.240609999999999;49.94300079345703;1673305213.1871786;-17.257671356201172;-20.411972045898438;-45.7256965637207
215;1673305213.215748;47.1306352;7.240609699999999;49.935001373291016;1673305213.3854377;-40.073974609375;-14.900065422058105;-47.07308578491211
216;1673305213.3997326;47.130635899999994;7.2406082;49.94000244140625;1673305213.5669215;-54.316917419433594;-10.159733772277832;-48.965240478515625
217;1673305213.5833602;47.130638399999995;7.2406045;49.94600296020508;1673305213.7615716;-55.67863082885742;-7.819412708282471;-49.17142868041992
218;1673305213.7784593;47.1306434;7.2405978;49.93400192260742;1673305213.949949;-52.58048629760742;-6.682755947113037;-50.21489715576172
219;1673305213.9677284;47.1306508;7.240588;49.92400360107422;1673305214.1796136;-55.298709869384766;-6.656281471252441;-51.04095458984375
220;1673305214.1936994;47.1306604;7.240575499999999;49.922000885009766;1673305214.3667638;-56.57554244995117;-7.466091156005859;-50.68248748779297
221;1673305214.3818812;47.130671899999996;7.2405604;49.913002014160156;1673305214.5425172;-55.00431442260742;-7.674045085906982;-50.47420883178711
222;1673305214.5588565;47.1306849;7.2405433;49.90500259399414;1673305214.7436557;-52.2017936706543;-7.985773086547852;-49.64872360229492
223;1673305214.7615259;47.130699199999995;7.2405244;49.9010009765625;1673305214.9547217;-52.69203186035156;-9.241927146911621;-49.20985412597656
224;1673305214.971565;47.130714499999996;7.2405041;49.89400100708008;1673305215.1715155;-51.49031066894531;-9.95319652557373;-49.19670486450195
225;1673305215.1869895;47.1307305;7.2404828;49.88200378417969;1673305215.3605266;-50.33192825317383;-10.468111991882324;-48.9867057800293
226;1673305215.3775523;47.1307471;7.240460499999999;49.8640022277832;1673305215.5749419;-48.47456359863281;-10.951421737670898;-49.126346588134766
227;1673305215.5911036;47.130764;7.2404376;49.84100341796875;1673305215.7811515;-47.161190032958984;-11.678050994873047;-49.404083251953125
228;1673305215.797956;47.1307811;7.2404141;49.829002380371094;1673305215.976906;-47.554847717285156;-13.478133201599121;-49.540618896484375
229;1673305215.991806;47.130798299999995;7.2403901;49.829002380371094;1673305216.1513827;-48.200592041015625;-11.554864883422852;-51.889251708984375
230;1673305216.1665115;47.130815399999996;7.240365499999999;49.83500289916992;1673305216.3523297;-47.98862838745117;-12.052624702453613;-51.91387939453125
231;1673305216.373224;47.130832399999996;7.2403406;49.83700180053711;1673305216.5630293;-46.575130462646484;-16.06195831298828;-51.01059341430664
232;1673305216.581298;47.130849399999995;7.2403153;49.842002868652344;1673305216.7566218;-45.24281311035156;-18.538564682006836;-51.84963607788086
233;1673305216.774745;47.130865899999996;7.2402896;49.85400390625;1673305216.9552047;-44.74519348144531;-20.849815368652344;-52.27445602416992
234;1673305216.9723883;47.130881699999996;7.240263499999999;49.86000061035156;1673305217.1501343;-37.68467330932617;-21.5633602142334;-53.98545455932617
235;1673305217.1672208;47.130896799999995;7.240237;49.875003814697266;1673305217.3533294;0.9073286056518555;-21.639781951904297;-55.38751220703125
236;1673305217.3681626;47.130910799999995;7.2402112999999995;49.90300369262695;1673305217.5651171;31.608354568481445;-7.993808746337891;-59.98014831542969
237;1673305217.5822723;47.1309233;7.240188799999999;49.84100341796875;1673305217.7711892;17.39702033996582;-3.767336130142212;-54.66464614868164
238;1673305217.7890925;47.130934499999995;7.240170399999999;49.592002868652344;1673305217.9801035;14.163267135620117;-2.777578115463257;-47.86908721923828
239;1673305217.9954457;47.1309444;7.2401566;49.31300354003906;1673305218.1632023;13.92403793334961;-2.194467544555664;-47.42401123046875
240;1673305218.1771312;47.130952799999996;7.2401475;49.13100051879883;1673305218.3431778;17.894935607910156;-4.691366195678711;-47.68301010131836
241;1673305218.358918;47.1309599;7.240142199999999;49.10900115966797;1673305218.5389204;36.90035629272461;-12.223970413208008;-45.967037200927734
242;1673305218.5555146;47.1309654;7.2401404;49.189002990722656;1673305218.7352514;41.51630783081055;-16.228822708129883;-44.341163635253906
243;1673305218.7518542;47.130968599999996;7.240141899999999;49.2920036315918;1673305218.9326296;47.66240310668945;-23.282682418823242;-45.425323486328125
244;1673305218.9491982;47.130969199999996;7.2401463999999995;49.41200256347656;1673305219.1407993;49.34808349609375;-30.182106018066406;-45.09906768798828
245;1673305219.1593437;47.130966699999995;7.2401534;49.52900314331055;1673305219.3700876;43.90979766845703;-34.342689514160156;-44.00022888183594
246;1673305219.384727;47.130961199999994;7.2401618;49.63900375366211;1673305219.5706127;31.38187026977539;-36.27085876464844;-44.273231506347656
247;1673305219.5871983;47.130953399999996;7.240170399999999;49.72300338745117;1673305219.7659638;15.638617515563965;-34.405364990234375;-45.9697265625
248;1673305219.7807057;47.1309444;7.2401785;49.78200149536133;1673305219.9565976;-2.8572933673858643;-28.837364196777344;-47.31797409057617
249;1673305219.9731884;47.130935099999995;7.2401855;49.814002990722656;1673305220.1548395;-16.96444320678711;-19.636228561401367;-49.60826110839844
250;1673305220.1724036;47.1309265;7.2401911;49.83100128173828;1673305220.3582423;-20.980770111083984;-13.244911193847656;-50.33147048950195
251;1673305220.3728995;47.130919399999996;7.240195;49.842002868652344;1673305220.5499094;-6.20710563659668;-11.754950523376465;-49.94118118286133
252;1673305220.5675383;47.130913899999996;7.2401976999999995;49.849002838134766;1673305220.7590072;14.556049346923828;-18.62748146057129;-50.596160888671875
253;1673305220.775657;47.1309098;7.240200199999999;49.871002197265625;1673305220.9397614;25.036161422729492;-18.793014526367188;-49.17711639404297
254;1673305220.9563508;47.1309055;7.240203299999999;49.89600372314453;1673305221.1401517;36.53631591796875;10.135282516479492;-42.22990417480469
255;1673305221.1567423;47.1309013;7.2402069;49.69200134277344;1673305221.3393614;38.29301071166992;51.81275177001953;-32.8602180480957
256;1673305221.357896;47.1308973;7.2402105;49.1150016784668;1673305221.541594;32.76303482055664;90.41156768798828;-34.33428192138672
257;1673305221.5572088;47.1308934;7.240214;48.165000915527344;1673305221.7336667;31.04302406311035;114.95265197753906;-48.697242736816406
258;1673305221.7493749;47.130889499999995;7.2402174;46.84700393676758;1673305221.967406;38.936378479003906;119.93743133544922;-72.17271423339844
259;1673305221.9841049;47.1308857;7.2402209;45.17100143432617;1673305222.160169;45.673362731933594;95.13606262207031;-111.1487808227539
260;1673305222.1758525;47.1308821;7.2402244;43.12600326538086;1673305222.3572528;29.305570602416992;48.830814361572266;-154.6759490966797
261;1673305222.373845;47.130878499999994;7.2402282;40.72600173950195;1673305222.5768368;-6.1684770584106445;7.497766971588135;-170.9824981689453
262;1673305222.594404;47.1308747;7.2402324;37.95100021362305;1673305222.783953;-31.48541831970215;-38.29475784301758;-162.2572784423828
263;1673305222.800557;47.130871299999995;7.2402367;34.78000259399414;1673305222.9834356;-33.63371276855469;-68.57767486572266;-159.63026428222656
264;1673305223.0000288;47.1308681;7.240240999999999;31.25200080871582;1673305223.1748703;-25.65129852294922;-61.94076919555664;174.7694854736328
265;1673305223.1941175;47.130865199999995;7.2402451;27.393001556396484;1673305223.3911285;3.4215638637542725;-37.04928207397461;139.3383026123047
266;1673305223.405777;47.1308626;7.2402488;23.178001403808594;1673305223.5845451;45.067466735839844;-10.940314292907715;118.50590515136719
267;1673305223.5972414;47.130859699999995;7.240252399999999;18.58500099182129;1673305223.768107;62.2792854309082;13.27258586883545;112.08124542236328
268;1673305223.78274;47.130856699999995;7.2402564;13.633000373840332;1673305223.9568818;43.10641860961914;16.909467697143555;97.67308807373047
269;1673305223.9745104;47.1308538;7.2402611;8.359000205993652;1673305224.158038;-7.813060760498047;7.387641429901123;86.18875122070312
270;1673305224.1726897;47.130851199999995;7.240266399999999;2.7280001640319824;1673305224.3397672;-3.724897623062134;-1.2308766841888428;81.2735595703125
271;1673305224.3583457;47.130852;7.2402726;-0.036000002175569534;1673305224.5451944;-1.6351426839828491;-2.4503602981567383;79.78382110595703
272;1673305224.5647209;47.130857;7.2402887;-0.14100000262260437;1673305224.7374942;-19.200082778930664;-1.9610410928726196;80.47708892822266
273;1673305224.7540362;47.1308619;7.240306599999999;-0.2550000250339508;1673305224.9387553;-16.40022850036621;-2.7031962871551514;80.37908935546875
274;1673305224.9543707;47.1308667;7.2403241;-0.2770000100135803;1673305225.180245;-14.946925163269043;-3.6802573204040527;80.48362731933594
275;1673305225.1968734;47.1308712;7.2403407;-0.2970000207424164;1673305225.3761995;-14.506587028503418;-3.547624349594116;80.45130157470703
276;1673305225.4223692;47.1308753;7.2403565;-0.3160000145435333;1673305225.6273026;-14.405945777893066;-3.58331036567688;80.54144287109375
277;1673305225.638025;47.1308806;7.2403752;-0.367000013589859;1673305225.787896;-14.333972930908203;-3.660602569580078;80.6593246459961
278;1673305225.8025374;47.130886;7.240395899999999;-0.41200003027915955;1673305225.9598262;-14.280336380004883;-3.69816517829895;80.73147583007812
279;1673305225.9744658;47.130891999999996;7.2404183;-0.5;1673305226.151524;-14.202005386352539;-3.667525291442871;80.8213882446289
280;1673305226.1681154;47.130898099999996;7.240442;-0.5700000524520874;1673305226.3578634;-14.134195327758789;-3.57877516746521;80.8815689086914
281;1673305226.376787;47.1309044;7.2404668;-0.6310000419616699;1673305226.563749;-14.042424201965332;-3.578948974609375;80.98054504394531
282;1673305226.5828083;47.130910799999995;7.2404926;-0.6820000410079956;1673305226.756841;-13.942375183105469;-3.437354803085327;81.02549743652344
283;1673305226.7730057;47.1309174;7.2405194999999996;-0.7360000610351562;1673305226.9456732;-13.910884857177734;-3.3239710330963135;81.1050033569336
284;1673305226.9609513;47.130924199999995;7.2405474;-0.7890000343322754;1673305227.1345656;-13.835935592651367;-3.2144157886505127;81.12322998046875
285;1673305227.151752;47.1309311;7.2405763;-0.8370000123977661;1673305227.3558757;-13.797087669372559;-3.0847349166870117;81.18220520019531
286;1673305227.37359;47.1309383;7.240606499999999;-0.9280000329017639;1673305227.5756452;-13.68570613861084;-2.9939661026000977;81.253173828125
287;1673305227.5946562;47.130945499999996;7.2406375;-0.9960000514984131;1673305227.7690144;-13.636703491210938;-2.8590967655181885;81.27944946289062
288;1673305227.783812;47.1309529;7.2406692999999995;-1.0500000715255737;1673305227.969028;-13.651549339294434;-2.787571668624878;81.30921173095703
289;1673305227.98319;47.130960699999996;7.2407032;-1.099000096321106;1673305228.1546535;-13.613606452941895;-2.624721050262451;81.30165100097656
290;1673305228.170695;47.130967899999995;7.2407353;-1.1400001049041748;1673305228.3598554;-13.522302627563477;-2.5059735774993896;81.3073959350586
291;1673305228.3786733;47.1309757;7.2407696999999995;-1.1810001134872437;1673305228.5566394;-13.478190422058105;-2.4272186756134033;81.3660659790039
292;1673305228.5758874;47.130983699999994;7.240805699999999;-1.2620000839233398;1673305228.7766452;-13.36604118347168;-2.3367068767547607;81.36846160888672
293;1673305228.79468;47.1309918;7.240842;-1.3140000104904175;1673305228.9956126;-13.329042434692383;-2.242098808288574;81.4094009399414
294;1673305229.0124583;47.1309999;7.240879;-1.349000096321106;1673305229.1697528;-13.244175910949707;-2.1723365783691406;81.42212677001953
295;1673305229.1877637;47.131008099999995;7.2409168;-1.3750001192092896;1673305229.370546;-13.140060424804688;-2.112138271331787;81.45637512207031
296;1673305229.3846343;47.1310165;7.2409554;-1.3900001049041748;1673305229.5546541;-13.07687759399414;-2.0560193061828613;81.47792053222656
297;1673305229.571569;47.131025;7.2409949;-1.409000039100647;1673305229.7585828;-12.998306274414062;-2.0106959342956543;81.50399780273438
298;1673305229.779916;47.131033699999996;7.2410352;-1.4140000343322754;1673305229.9786582;-12.919083595275879;-1.946948528289795;81.5478286743164
299;1673305229.9987671;47.1310426;7.2410774;-1.4660000801086426;1673305230.1627376;-12.905380249023438;-1.8949013948440552;81.59394836425781
300;1673305230.1755087;47.131050599999995;7.2411151;-1.4920001029968262;1673305230.3391726;-12.805084228515625;-1.8596633672714233;81.60871887207031
301;;;;;1673305230.5376205;-12.72114372253418;-1.83098304271698;81.64202117919922
302;;;;;1673305230.752574;-12.671080589294434;-1.795470118522644;81.66426086425781
303;;;;;1673305230.9419746;-12.60975456237793;-1.7435084581375122;81.69841766357422
304;;;;;1673305231.1315253;-12.560710906982422;-1.1615393161773682;81.71797180175781
305;;;;;1673305231.3499055;-12.52018928527832;-0.9407280087471008;81.70945739746094
306;;;;;1673305231.5475817;-12.466689109802246;-0.7848654985427856;81.77473449707031
307;;;;;1673305231.7514515;-12.429086685180664;-0.6924742460250854;81.81014251708984
308;;;;;1673305231.9505396;-12.402570724487305;-0.6385269165039062;81.88683319091797
