;pos_time;latitude;longitude;altitude;alt_time;pitch;roll;yaw
0;1673304861.4489436;47.1306425;7.2406198999999996;0.020000001415610313;1673304861.465202;0.031077932566404343;0.07287341356277466;90.30571746826172
1;1673304861.6359425;47.1306425;7.240619799999999;0.01900000125169754;1673304861.6519456;0.2373092770576477;-0.10809953510761261;90.46539306640625
2;1673304861.8319201;47.1306424;7.240619799999999;0.01900000125169754;1673304861.8482368;0.318897008895874;-0.0036308751441538334;90.50479125976562
3;1673304862.0570295;47.1306424;7.240619799999999;0.01600000075995922;1673304862.0718536;1.2052882084390149e-05;-0.030044259503483772;90.50568389892578
4;1673304862.2768686;47.1306423;7.2406198999999996;0.01900000125169754;1673304862.2938695;-0.012500726617872715;-0.10795538127422333;90.63514709472656
5;1673304862.476072;47.1306423;7.2406198999999996;0.023000001907348633;1673304862.493953;-0.1295064091682434;-0.020273175090551376;90.64987182617188
6;1673304862.6607785;47.1306423;7.240619799999999;0.024000000208616257;1673304862.6870697;0.09460152685642242;-0.039071470499038696;90.5335693359375
7;1673304862.8859613;47.1306424;7.2406197;0.02200000174343586;1673304862.9030693;0.21429255604743958;0.01685434952378273;90.40031433105469
8;1673304863.0869968;47.1306424;7.2406197;0.020000001415610313;1673304863.104456;-0.034863825887441635;-0.12924659252166748;90.49919891357422
9;1673304863.2670531;47.1306424;7.240619799999999;0.0;1673304863.2840192;0.009636715985834599;-0.3601021468639374;90.33268737792969
10;1673304863.4718235;47.1306424;7.2406198999999996;0.0;1673304863.486117;-0.04505574330687523;-0.46687403321266174;90.4226303100586
11;1673304863.6749508;47.1306425;7.24062;0.0;1673304863.6928918;0.032803427428007126;-0.32822608947753906;90.24568176269531
12;1673304863.8678713;47.1306425;7.2406201;0.0010000000474974513;1673304863.8819046;-0.1231340542435646;-0.41646552085876465;90.27409362792969
13;1673304864.0427444;47.1306424;7.2406201;0.005000000353902578;1673304864.058965;-0.13604135811328888;-0.3382980525493622;90.42556762695312
14;1673304864.2429702;47.1306424;7.2406201;0.010000000707805157;1673304864.259904;-0.10361997038125992;-0.49526989459991455;90.41126251220703
15;1673304864.4449146;47.1306425;7.2406201;0.00800000037997961;1673304864.4639308;0.13941027224063873;-0.38986411690711975;90.39700317382812
16;1673304864.6768954;47.1306425;7.2406201999999995;0.012000000104308128;1673304864.6919248;-0.30485332012176514;-0.6247714161872864;90.36056518554688
17;1673304864.8729894;47.1306425;7.2406201999999995;0.0;1673304864.8867414;-0.24334199726581573;-0.6493406295776367;90.5013198852539
18;1673304865.0597773;47.1306425;7.2406201;0.003000000026077032;1673304865.0788252;-0.1912117898464203;-0.8242939114570618;90.55892181396484
19;1673304865.2531462;47.1306425;7.2406201;0.004000000189989805;1673304865.2698364;-0.0009456609841436148;-0.5928243398666382;90.5123291015625
20;1673304865.4510193;47.1306425;7.2406201;0.003000000026077032;1673304865.4678621;-0.11887724697589874;-0.04413457214832306;90.54074096679688
21;1673304865.6508143;47.1306425;7.24062;0.003000000026077032;1673304865.6707149;-0.0788976401090622;-0.20210029184818268;90.40642547607422
22;1673304865.837783;47.1306425;7.24062;0.005000000353902578;1673304865.8548439;0.11148454993963242;-0.5697692036628723;90.7556381225586
23;1673304866.0438325;47.1306425;7.2406201;0.009000000543892384;1673304866.0620556;-0.14408382773399353;-0.2338792234659195;90.67920684814453
24;1673304866.2367265;47.1306425;7.24062;0.010000000707805157;1673304866.2543283;0.05152728408575058;-0.40896061062812805;90.79694366455078
25;1673304866.448893;47.1306425;7.24062;0.013000000268220901;1673304866.469653;-0.06730222702026367;-0.27452370524406433;90.9002456665039
26;1673304866.6457362;47.1306425;7.24062;0.017000000923871994;1673304866.6617994;-0.024579647928476334;-0.2533879578113556;90.69195556640625
27;1673304866.840839;47.130642599999995;7.24062;0.017000000923871994;1673304866.861711;0.13192638754844666;1.2014362812042236;92.13195037841797
28;1673304867.03368;47.130642699999996;7.2406203;0.036000002175569534;1673304867.0505655;2.753380298614502;3.118356466293335;92.33100128173828
29;1673304867.239605;47.1306428;7.2406206;0.05400000140070915;1673304867.258154;8.049311637878418;6.71598482131958;91.94290924072266
30;1673304867.4367855;47.1306429;7.2406209;0.09100000560283661;1673304867.4536884;9.922446250915527;6.523633003234863;91.392333984375
31;1673304867.6376026;47.130643;7.240621;0.14500001072883606;1673304867.65877;8.01891803741455;8.092053413391113;90.57457733154297
32;1673304867.8406327;47.1306431;7.240621099999999;0.2150000035762787;1673304867.8577719;7.100529670715332;6.05813455581665;90.48727416992188
33;1673304868.0347996;47.130643299999996;7.240621099999999;0.29200002551078796;1673304868.054015;7.490528106689453;5.6476969718933105;90.53580474853516
34;1673304868.2430391;47.1306434;7.240621;0.38100001215934753;1673304868.261674;8.424613952636719;10.670312881469727;90.2734603881836
35;1673304868.4308155;47.1306434;7.240620799999999;0.48600003123283386;1673304868.4497428;8.51307201385498;8.267860412597656;89.77277374267578
36;1673304868.630537;47.130643199999994;7.2406206;0.6030000448226929;1673304868.649458;8.682902336120605;4.632565021514893;89.01322174072266
37;1673304868.8356974;47.130643;7.2406204999999995;0.7360000610351562;1673304868.8537793;8.88406753540039;6.456850051879883;88.2593765258789
38;1673304869.029361;47.1306428;7.2406201999999995;0.8870000243186951;1673304869.0475829;7.082903861999512;7.092469692230225;88.07941436767578
39;1673304869.2257092;47.130642699999996;7.24062;1.0460000038146973;1673304869.2438297;6.005396842956543;3.1905508041381836;88.19910430908203
40;1673304869.4428716;47.130642699999996;7.240619799999999;1.215000033378601;1673304869.4626813;6.779902935028076;6.189704895019531;88.16703796386719
41;1673304869.6356163;47.130642699999996;7.2406196;1.3990000486373901;1673304869.6536803;7.1744704246521;8.674088478088379;87.73857879638672
42;1673304869.8494823;47.130642699999996;7.240619499999999;1.5840001106262207;1673304869.8684537;7.54970645904541;4.286233901977539;88.222412109375
43;1673304870.0575025;47.1306425;7.2406194;1.7700001001358032;1673304870.077518;7.6811652183532715;4.704960823059082;87.66159057617188
44;1673304870.2736535;47.1306423;7.2406193;1.9550000429153442;1673304870.2890267;7.380051612854004;7.708466529846191;87.04479217529297
45;1673304870.469685;47.1306423;7.2406193;2.1440000534057617;1673304870.4847279;6.347683906555176;3.7040088176727295;86.87724304199219
46;1673304870.6646774;47.1306423;7.2406193;2.330000162124634;1673304870.6826384;6.855561256408691;4.586716651916504;86.9029312133789
47;1673304870.8605492;47.1306424;7.2406193;2.5250000953674316;1673304870.8765316;7.164716720581055;9.257575988769531;86.60498046875
48;1673304871.0545895;47.1306425;7.2406194;2.7230000495910645;1673304871.0725899;7.979877948760986;5.700643062591553;86.13240814208984
49;1673304871.2585163;47.1306424;7.240619499999999;2.9180002212524414;1673304871.276572;8.447248458862305;3.097731590270996;86.26653289794922
50;1673304871.444595;47.1306422;7.2406196;3.117000102996826;1673304871.4636502;8.417444229125977;7.07205057144165;86.66765594482422
51;1673304871.640608;47.1306422;7.2406196;3.320000171661377;1673304871.6594229;7.272828578948975;5.006417274475098;86.9903564453125
52;1673304871.861937;47.1306422;7.2406196;3.5220000743865967;1673304871.878748;7.208639144897461;3.849276304244995;87.2420883178711
53;1673304872.0661037;47.1306423;7.2406196;3.7180001735687256;1673304872.0835657;7.186674118041992;8.227630615234375;86.99488830566406
54;1673304872.256487;47.1306424;7.2406196;3.9180002212524414;1673304872.2744932;7.474292755126953;7.52761173248291;86.36803436279297
55;1673304872.4485755;47.1306424;7.2406196;4.116000175476074;1673304872.4677472;8.312458038330078;3.096250534057617;86.02094268798828
56;1673304872.6574492;47.1306423;7.2406197;4.311000347137451;1673304872.67447;8.317530632019043;5.860023021697998;86.23081970214844
57;1673304872.8675442;47.1306423;7.2406197;4.510000228881836;1673304872.8836067;7.726774215698242;7.250172138214111;86.56997680664062
58;1673304873.068845;47.1306424;7.2406196;4.718000411987305;1673304873.08438;7.135105133056641;3.349412441253662;86.8895263671875
59;1673304873.2736154;47.1306425;7.2406196;4.906000137329102;1673304873.2934055;7.047674179077148;5.739759922027588;86.9793472290039
60;1673304873.5169032;47.130642599999995;7.2406196;5.103000164031982;1673304873.5334442;7.16648006439209;9.10129451751709;86.68489074707031
61;1673304873.6924443;47.130642599999995;7.2406197;5.301000118255615;1673304873.7064679;7.764265060424805;4.755522727966309;86.4582748413086
62;1673304873.8563998;47.1306424;7.240619799999999;5.503000259399414;1673304873.8715734;8.274744033813477;4.546826362609863;86.53925323486328
63;1673304874.048173;47.1306423;7.240619799999999;5.709000110626221;1673304874.0672543;8.301291465759277;8.219072341918945;86.65464782714844
64;1673304874.2543645;47.1306423;7.240619799999999;5.9120001792907715;1673304874.2709947;7.951686859130859;4.63897180557251;86.88190460205078
65;1673304874.460565;47.1306423;7.240619799999999;6.113000392913818;1673304874.4781797;7.3726348876953125;4.272640705108643;86.97344970703125
66;1673304874.660748;47.1306423;7.240619799999999;6.321000099182129;1673304874.677409;7.030421257019043;8.421878814697266;86.7440414428711
67;1673304874.8825223;47.1306423;7.2406197;6.51300048828125;1673304874.9030206;7.10532808303833;6.374894618988037;86.2369613647461
68;1673304875.0651515;47.1306422;7.2406197;6.714000225067139;1673304875.0808048;7.976304531097412;2.9476394653320312;86.43838500976562
69;1673304875.249293;47.130642099999996;7.2406197;6.9170002937316895;1673304875.2664266;7.93413782119751;6.991055965423584;86.82347106933594
70;1673304875.4477434;47.1306422;7.2406196;7.12000036239624;1673304875.463315;7.898309707641602;6.7481889724731445;87.10562896728516
71;1673304875.6498885;47.1306422;7.2406196;7.323000431060791;1673304875.669965;7.384304046630859;3.733342409133911;86.9146728515625
72;1673304875.865478;47.1306423;7.2406196;7.523000240325928;1673304875.8823287;6.847062587738037;7.3408403396606445;86.50865936279297
73;1673304876.0503914;47.1306424;7.2406197;7.725000381469727;1673304876.0666888;7.08042573928833;8.398003578186035;86.09990692138672
74;1673304876.2452745;47.1306424;7.2406197;7.923000335693359;1673304876.2647939;7.9502363204956055;3.593970537185669;86.09197235107422
75;1673304876.4376502;47.1306422;7.2406197;8.131000518798828;1673304876.4557834;8.249204635620117;5.144110679626465;86.65225982666016
76;1673304876.635342;47.1306422;7.240619799999999;8.329000473022461;1673304876.6529202;8.157646179199219;8.08238697052002;87.09626770019531
77;1673304876.8404968;47.1306423;7.240619799999999;8.529000282287598;1673304876.8610222;7.3636579513549805;4.106091499328613;87.20764923095703
78;1673304877.044182;47.1306423;7.2406197;8.723000526428223;1673304877.0605254;7.215266227722168;5.5695672035217285;87.09371185302734
79;1673304877.237296;47.1306423;7.2406197;8.92300033569336;1673304877.2579305;7.199270725250244;8.63872241973877;86.5497817993164
80;1673304877.4587934;47.1306423;7.240619799999999;9.12600040435791;1673304877.4793653;7.90266227722168;4.700082778930664;86.18418884277344
81;1673304877.6510515;47.1306422;7.240619799999999;9.333000183105469;1673304877.6707652;8.214646339416504;3.9230082035064697;86.38179779052734
82;1673304877.868747;47.1306422;7.240619799999999;9.538000106811523;1673304877.8873265;8.127392768859863;7.809936046600342;86.68203735351562
83;1673304878.0691993;47.1306422;7.240619799999999;9.74000072479248;1673304878.0834432;7.803529262542725;5.633796215057373;87.02305603027344
84;1673304878.2721193;47.1306423;7.240619799999999;9.943000793457031;1673304878.2916389;7.343716621398926;4.204379081726074;87.14667510986328
85;1673304878.4600525;47.1306424;7.2406197;10.146000862121582;1673304878.4752338;6.540133953094482;8.162542343139648;86.85901641845703
86;1673304878.6483922;47.1306424;7.2406197;10.415000915527344;1673304878.6659791;7.827083110809326;9.293668746948242;85.88798522949219
87;1673304878.8436441;47.1306422;7.2406197;10.771000862121582;1673304878.8641515;9.783719062805176;5.78970193862915;86.39031982421875
88;1673304879.047043;47.1306418;7.240619499999999;11.159000396728516;1673304879.0646386;8.405102729797363;5.167283535003662;86.69849395751953
89;1673304879.2549026;47.130641499999996;7.2406193;11.557000160217285;1673304879.274967;7.5412421226501465;7.130012035369873;86.91897583007812
90;1673304879.4465284;47.130641399999995;7.2406191;11.961000442504883;1673304879.4650815;6.418956279754639;2.6243648529052734;87.05451202392578
91;1673304879.648235;47.1306413;7.240619;12.366000175476074;1673304879.6687315;6.220729827880859;3.370697259902954;86.98079681396484
92;1673304879.8430033;47.1306413;7.240619;12.769001007080078;1673304879.8634837;6.33786153793335;6.8939666748046875;86.85704040527344
93;1673304880.0482266;47.130641399999995;7.240619;13.169000625610352;1673304880.0667777;6.716115474700928;4.086681842803955;86.84870910644531
94;1673304880.2406626;47.130641399999995;7.2406191;13.572000503540039;1673304880.2583272;7.04708194732666;3.476353645324707;86.8565673828125
95;1673304880.441442;47.130641499999996;7.2406193;13.975000381469727;1673304880.4599926;7.460844039916992;7.451805114746094;86.78197479248047
96;1673304880.6487596;47.1306417;7.2406194;14.383000373840332;1673304880.6664975;7.445617198944092;5.950626373291016;86.9634017944336
97;1673304880.8669014;47.1306419;7.240619499999999;14.78600025177002;1673304880.881625;7.425665378570557;4.079217910766602;86.90497589111328
98;1673304881.065706;47.130641999999995;7.240619499999999;15.188000679016113;1673304881.0824208;7.219240665435791;7.992830276489258;86.62474060058594
99;1673304881.2699788;47.130642099999996;7.2406196;15.593000411987305;1673304881.2861347;7.468392372131348;7.449174880981445;86.66020965576172
100;1673304881.494429;47.130642099999996;7.2406197;16.003000259399414;1673304881.513925;7.604827880859375;3.8023881912231445;86.84698486328125
101;1673304881.7284765;47.130641999999995;7.2406197;16.413000106811523;1673304881.7460446;7.618102073669434;6.296476364135742;86.79022216796875
102;1673304881.9343643;47.130641999999995;7.240619799999999;16.82400131225586;1673304881.9510033;7.8369903564453125;7.8239336013793945;86.83158874511719
103;1673304882.120643;47.130642099999996;7.240619799999999;17.233001708984375;1673304882.1343062;7.911116600036621;4.020155429840088;86.76283264160156
104;1673304882.2896097;47.130642099999996;7.240619799999999;17.637001037597656;1673304882.3081517;7.71190881729126;5.289150714874268;86.83228302001953
105;1673304882.495349;47.130642099999996;7.2406197;18.03900146484375;1673304882.5119386;7.28106164932251;8.123634338378906;86.6740951538086
106;1673304882.6933444;47.130642099999996;7.2406197;18.447999954223633;1673304882.7108977;7.224013328552246;5.254266738891602;86.72197723388672
107;1673304882.9058907;47.130641999999995;7.2406197;18.85700035095215;1673304882.921536;7.01420259475708;3.840811014175415;86.7969741821289
108;1673304883.09531;47.130641999999995;7.2406197;19.268001556396484;1673304883.1119027;7.2418622970581055;7.537825584411621;86.78213500976562
109;1673304883.267907;47.130642099999996;7.2406196;19.6820011138916;1673304883.2825665;7.453592777252197;6.063612461090088;86.6509780883789
110;1673304883.4458075;47.1306422;7.2406196;20.097000122070312;1673304883.4653363;7.59314489364624;3.7306089401245117;86.7006607055664
111;1673304883.6663675;47.1306423;7.2406196;20.505001068115234;1673304883.681555;7.649629592895508;7.068835735321045;86.73353576660156
112;1673304883.8747811;47.1306424;7.2406197;20.910001754760742;1673304883.8895142;7.722842216491699;7.463785171508789;86.80130004882812
113;1673304884.06192;47.1306424;7.2406197;21.316001892089844;1673304884.0810518;7.4709014892578125;4.430576801300049;86.76811218261719
114;1673304884.2664504;47.1306423;7.2406197;21.72300148010254;1673304884.2840717;7.452520370483398;5.591897964477539;86.82711029052734
115;1673304884.478645;47.1306423;7.2406196;22.136001586914062;1673304884.496214;7.430232048034668;8.093442916870117;86.78816986083984
116;1673304884.6682568;47.1306424;7.2406196;22.547000885009766;1673304884.6848955;7.542261600494385;4.572348594665527;86.60987091064453
117;1673304884.8680353;47.1306425;7.2406196;22.955001831054688;1673304884.885149;7.550649166107178;4.8756937980651855;86.8447036743164
118;1673304885.083219;47.1306425;7.2406196;23.35500144958496;1673304885.1008005;7.58384370803833;8.490201950073242;86.93216705322266
119;1673304885.2820485;47.1306425;7.2406196;23.75800132751465;1673304885.3005986;7.571969509124756;5.776986122131348;86.74751281738281
120;1673304885.4875755;47.1306424;7.2406196;24.161001205444336;1673304885.5041666;7.5586419105529785;3.8442800045013428;86.6460952758789
121;1673304885.693829;47.1306424;7.2406196;24.565000534057617;1673304885.712431;7.3754563331604;7.533023834228516;86.79434204101562
122;1673304885.8884127;47.1306424;7.2406196;24.972002029418945;1673304885.9079628;7.399596214294434;6.604146480560303;86.83756256103516
123;1673304886.0743415;47.1306424;7.240619499999999;25.375001907348633;1673304886.0924826;7.498193264007568;3.4737067222595215;86.62410736083984
124;1673304886.2764575;47.1306425;7.240619499999999;25.770000457763672;1673304886.295572;7.269509792327881;7.495589256286621;86.78108215332031
125;1673304886.4867308;47.130642599999995;7.2406194;26.166000366210938;1673304886.5092485;7.4337239265441895;7.755136489868164;86.92564392089844
126;1673304886.682067;47.130642599999995;7.2406194;26.567001342773438;1673304886.7001758;7.603267192840576;4.016419887542725;86.69020080566406
127;1673304886.883901;47.1306425;7.2406194;26.968000411987305;1673304886.899523;7.548971176147461;5.873126983642578;86.62602233886719
128;1673304887.0720494;47.1306425;7.2406194;27.371002197265625;1673304887.1215625;7.182550430297852;8.160174369812012;86.77117919921875
129;1673304887.3140202;47.1306425;7.2406193;27.775001525878906;1673304887.3306124;7.160940647125244;4.264795303344727;86.80368041992188
130;1673304887.5013504;47.130642599999995;7.2406193;28.180002212524414;1673304887.518525;7.175685405731201;5.321571350097656;86.68954467773438
131;1673304887.703932;47.130642599999995;7.2406194;28.577001571655273;1673304887.722629;7.385980129241943;8.569437026977539;86.8349380493164
132;1673304887.8908765;47.1306425;7.2406194;28.990001678466797;1673304887.9074528;7.457065105438232;5.194151401519775;86.8628158569336
133;1673304888.0923827;47.1306425;7.2406194;29.376001358032227;1673304888.110935;7.637002468109131;3.9290997982025146;86.75869750976562
134;1673304888.2756917;47.1306425;7.2406194;29.781002044677734;1673304888.2918348;7.479812145233154;8.079680442810059;86.6279296875
135;1673304888.463214;47.130642599999995;7.2406194;30.202001571655273;1673304888.4819667;7.485227108001709;6.4699201583862305;86.77703857421875
136;1673304888.6594517;47.130642599999995;7.240619499999999;30.588001251220703;1673304888.6809604;7.24833869934082;4.175489902496338;86.84486389160156
137;1673304888.8674867;47.130642699999996;7.240619499999999;30.98200225830078;1673304888.8851473;7.4804277420043945;7.856429100036621;86.80286407470703
138;1673304889.0554297;47.130642699999996;7.2406196;31.378002166748047;1673304889.0749812;7.451632499694824;7.5056281089782715;86.71047973632812
139;1673304889.2482092;47.130642599999995;7.2406196;31.7710018157959;1673304889.2687545;7.473466396331787;4.152194499969482;86.80084228515625
140;1673304889.4546785;47.1306425;7.2406196;32.163002014160156;1673304889.4702928;7.56130313873291;6.46078634262085;86.82577514648438
141;1673304889.6706355;47.1306425;7.2406197;32.560001373291016;1673304889.7025754;7.533567428588867;8.305195808410645;86.67256164550781
142;1673304889.8762758;47.1306425;7.2406197;32.95600128173828;1673304889.8934476;7.677811622619629;4.082997798919678;86.70500183105469
143;1673304890.0684054;47.1306425;7.2406197;33.35300064086914;1673304890.0811076;7.2805962562561035;5.397847652435303;86.7707748413086
144;1673304890.2916617;47.1306424;7.2406197;33.74500274658203;1673304890.3102055;7.452600955963135;8.153759002685547;86.80396270751953
145;1673304890.4899368;47.1306424;7.2406197;34.145999908447266;1673304890.5095754;7.51693868637085;4.880278587341309;86.70594024658203
146;1673304890.6913195;47.1306423;7.2406197;34.54600143432617;1673304890.708886;7.560822010040283;4.318125247955322;86.8070297241211
147;1673304890.8763683;47.1306423;7.2406197;34.94900131225586;1673304890.900329;7.475400924682617;8.033499717712402;86.8048324584961
148;1673304891.0719965;47.1306424;7.2406197;35.35300064086914;1673304891.0896492;7.508232116699219;5.674293518066406;86.70545959472656
149;1673304891.264813;47.1306425;7.2406197;35.75400161743164;1673304891.2833567;7.297824382781982;4.014642238616943;86.75867462158203
150;1673304891.4713497;47.1306425;7.2406197;36.14800262451172;1673304891.4889376;7.235431671142578;8.125109672546387;86.86571502685547
151;1673304891.669122;47.130642599999995;7.2406197;36.54900360107422;1673304891.6896186;7.433017730712891;6.900376319885254;86.75775146484375
152;1673304891.8980443;47.1306425;7.2406197;36.95000076293945;1673304891.9146361;7.5252790451049805;3.7234411239624023;86.70438385009766
153;1673304892.0943553;47.1306425;7.240619799999999;37.36900329589844;1673304892.1148946;7.569957256317139;6.691339492797852;86.87057495117188
154;1673304892.2831824;47.1306425;7.240619799999999;37.75600051879883;1673304892.2993293;7.537210464477539;7.917058944702148;86.87869262695312
155;1673304892.4831948;47.130642599999995;7.240619799999999;38.15800094604492;1673304892.502275;7.676501274108887;4.023137092590332;86.66205596923828
156;1673304892.692406;47.130642599999995;7.240619799999999;38.55800247192383;1673304892.7109492;7.447088241577148;6.297085285186768;86.65276336669922
157;1673304892.8773203;47.130642599999995;7.240619799999999;38.948001861572266;1673304892.8944502;7.411716938018799;8.221704483032227;86.80308532714844
158;1673304893.090356;47.130642599999995;7.240619799999999;39.336002349853516;1673304893.1094334;7.462303161621094;4.716684818267822;86.73719024658203
159;1673304893.3065448;47.1306425;7.2406197;39.74300003051758;1673304893.3270473;7.3623528480529785;4.643817901611328;86.78784942626953
160;1673304893.493398;47.130642599999995;7.2406197;40.12600326538086;1673304893.5080373;7.313939571380615;8.573800086975098;86.96241760253906
161;1673304893.687951;47.130642699999996;7.2406197;40.52900314331055;1673304893.7037494;7.401200294494629;5.852112293243408;86.8838882446289
162;1673304893.8623898;47.130642699999996;7.2406197;40.927001953125;1673304893.8780205;7.423431873321533;4.2005295753479;86.58091735839844
163;1673304894.0633993;47.130642699999996;7.2406197;41.31800079345703;1673304894.0829105;7.4302568435668945;8.249326705932617;86.7604751586914
164;1673304894.2953982;47.1306428;7.2406196;41.7130012512207;1673304894.3110127;7.235101222991943;6.885624885559082;86.84185028076172
165;1673304894.4872696;47.130642699999996;7.2406197;42.105003356933594;1673304894.5043957;7.341784477233887;3.945223808288574;86.82325744628906
166;1673304894.6978724;47.130642699999996;7.2406197;42.50200271606445;1673304894.7151313;7.339057445526123;7.232768535614014;86.76661682128906
167;1673304894.890191;47.130642699999996;7.2406196;42.9010009765625;1673304894.9069076;7.501409530639648;7.929281234741211;86.88104248046875
168;1673304895.076217;47.1306428;7.2406196;43.29800033569336;1673304895.0928743;7.494691848754883;4.406032562255859;86.72045135498047
169;1673304895.311863;47.1306428;7.2406196;43.691001892089844;1673304895.3284667;7.538636684417725;6.677205562591553;86.65818786621094
170;1673304895.5034711;47.1306428;7.2406196;44.07600021362305;1673304895.5210774;7.547696590423584;8.053397178649902;86.72097778320312
171;1673304895.7102253;47.130642699999996;7.2406196;44.46600341796875;1673304895.734642;7.4279022216796875;4.56292724609375;86.85981750488281
172;1673304895.905586;47.130642599999995;7.2406196;44.85900115966797;1673304895.9192526;7.2892022132873535;4.76983118057251;86.76959228515625
173;1673304896.0774648;47.130642599999995;7.2406196;45.25600051879883;1673304896.09526;7.299610614776611;8.307764053344727;86.75267791748047
174;1673304896.2747984;47.130642599999995;7.2406196;45.65500259399414;1673304896.2913935;7.521460056304932;5.1186723709106445;86.6868896484375
175;1673304896.5011065;47.130642699999996;7.240619499999999;46.06500244140625;1673304896.5215704;7.466455936431885;4.580061912536621;86.77821350097656
176;1673304896.72;47.130642699999996;7.240619499999999;46.43400192260742;1673304896.7375574;7.544900417327881;8.616063117980957;86.89604187011719
177;1673304896.919904;47.130642699999996;7.240619499999999;46.82400131225586;1673304896.9355114;7.560122489929199;6.465513706207275;86.77581787109375
178;1673304897.1104748;47.130642699999996;7.240619499999999;47.21800231933594;1673304897.1270626;7.457512378692627;4.001333713531494;86.76646423339844
179;1673304897.3031511;47.130642599999995;7.240619499999999;47.61100387573242;1673304897.3197405;7.313385486602783;7.475866794586182;86.891845703125
180;1673304897.4955187;47.130642599999995;7.240619499999999;48.00300216674805;1673304897.5125248;7.3406171798706055;7.165952205657959;86.90048217773438
181;1673304897.6832309;47.130642699999996;7.240619499999999;48.35900115966797;1673304897.700842;7.252912521362305;4.529611587524414;86.37352752685547
182;1673304897.8931882;47.1306428;7.240619499999999;48.6660041809082;1673304897.9107938;7.237971782684326;7.034167766571045;86.31123352050781
183;1673304898.0775876;47.1306428;7.2406196;48.915000915527344;1673304898.0947244;7.564144611358643;7.386780261993408;86.33811950683594
184;1673304898.2792735;47.1306428;7.240619799999999;49.12900161743164;1673304898.2949045;7.637719631195068;3.3980798721313477;86.22498321533203
185;1673304898.4562442;47.1306428;7.2406198999999996;49.307003021240234;1673304898.4738834;11.864068031311035;8.197275161743164;86.52873229980469
186;1673304898.6719162;47.1306429;7.2406197;49.44200134277344;1673304898.6894932;20.509952545166016;17.96328353881836;82.12735748291016
187;1673304898.873097;47.1306425;7.240619;49.51700210571289;1673304898.8896608;16.606708526611328;10.753677368164062;68.67195129394531
188;1673304899.0663888;47.1306418;7.240617899999999;49.573001861572266;1673304899.0846586;13.296113014221191;4.370720863342285;58.75790023803711
189;1673304899.2774534;47.130640899999996;7.2406168;49.61300277709961;1673304899.294694;16.906116485595703;2.367948055267334;50.35095977783203
190;1673304899.4704127;47.1306398;7.2406156;49.6510009765625;1673304899.4863575;13.975960731506348;-1.1328452825546265;41.712528228759766
191;1673304899.6845567;47.1306386;7.240614399999999;49.67900085449219;1673304899.7004957;12.076680183410645;-4.110670566558838;32.7962532043457
192;1673304899.8966384;47.1306374;7.2406134;49.702003479003906;1673304899.9126227;9.0147705078125;-4.503728866577148;23.83629608154297
193;1673304900.0884876;47.1306364;7.240612499999999;49.724002838134766;1673304900.1082716;6.012190818786621;-3.174086093902588;14.697713851928711
194;1673304900.290426;47.1306356;7.240611899999999;49.742000579833984;1673304900.308272;3.489003896713257;-2.800163507461548;5.351940631866455
195;1673304900.4923666;47.130635;7.2406114;49.75800323486328;1673304900.51247;2.0766172409057617;-3.2698066234588623;-3.979076385498047
196;1673304900.7613997;47.130634699999995;7.2406111;49.7660026550293;1673304900.811702;2.1034722328186035;-5.284557819366455;-12.910213470458984
197;1673304900.9593349;47.130634699999995;7.2406112;49.77400207519531;1673304900.9726248;2.349548816680908;-9.310324668884277;-22.31891632080078
198;1673304901.1320438;47.1306349;7.2406114;49.78400421142578;1673304901.148252;1.6515203714370728;-12.714784622192383;-31.49701690673828
199;1673304901.3372772;47.1306352;7.2406115;49.798004150390625;1673304901.355051;0.30491259694099426;-14.285152435302734;-40.6668701171875
200;1673304901.5255578;47.130635399999996;7.2406114;49.81300354003906;1673304901.5431557;-2.636533498764038;-13.29942512512207;-49.44322204589844
201;1673304901.7034507;47.130635399999996;7.240611299999999;49.82500076293945;1673304901.7180955;-5.049553871154785;-10.284804344177246;-52.96601104736328
202;1673304901.875239;47.1306355;7.2406109;49.829002380371094;1673304901.8947532;-3.4020702838897705;-8.425151824951172;-50.85903549194336
203;1673304902.0718904;47.1306356;7.240610299999999;49.83500289916992;1673304902.0865371;-0.1447019726037979;-8.236623764038086;-47.92744445800781
204;1673304902.298478;47.1306357;7.2406099;49.84300231933594;1673304902.314259;1.8140149116516113;-9.867161750793457;-46.86675262451172
205;1673304902.4843059;47.1306358;7.2406095;49.85100173950195;1673304902.5028837;1.7763781547546387;-12.25542163848877;-46.86164093017578
206;1673304902.6906538;47.130635899999994;7.240609399999999;49.85600280761719;1673304902.7062683;0.5086435675621033;-13.22534465789795;-46.735172271728516
207;1673304902.8714802;47.130635899999994;7.2406093;49.86000061035156;1673304902.8920205;-1.3255772590637207;-12.712646484375;-46.917118072509766
208;1673304903.0716226;47.1306358;7.240609399999999;49.8650016784668;1673304903.0894969;-1.6981823444366455;-10.115086555480957;-47.03396224975586
209;1673304903.2831514;47.1306356;7.2406093;49.862003326416016;1673304903.3007514;-1.6110260486602783;-8.08139419555664;-46.89495086669922
210;1673304903.477586;47.1306355;7.2406092;49.862003326416016;1673304903.498078;0.23323599994182587;-8.057525634765625;-46.75871276855469
211;1673304903.6873872;47.130635399999996;7.240609;49.8650016784668;1673304903.7059293;-11.539053916931152;-10.625724792480469;-46.710025787353516
212;1673304903.8829103;47.1306358;7.240608;49.875003814697266;1673304903.89766;-35.493465423583984;-6.974600791931152;-47.284786224365234
213;1673304904.073763;47.1306375;7.2406052;49.87800216674805;1673304904.0920455;-52.0723762512207;-4.975831985473633;-48.158546447753906
214;1673304904.2797072;47.1306413;7.2405997;49.85300064086914;1673304904.29957;-49.79449462890625;-4.910335063934326;-48.13164138793945
215;1673304904.4909787;47.1306473;7.2405912;49.82400131225586;1673304904.5094917;-50.939697265625;-3.7643535137176514;-49.19997787475586
216;1673304904.7146409;47.1306552;7.2405798;49.827003479003906;1673304904.7318044;-56.35366439819336;-2.756344795227051;-50.07381057739258
217;1673304904.9114575;47.130665;7.2405653999999995;49.84100341796875;1673304904.9296312;-58.29668426513672;-2.4230153560638428;-50.244468688964844
218;1673304905.0996106;47.1306765;7.2405481;49.855003356933594;1673304905.117582;-57.29145812988281;-2.5856754779815674;-49.9433708190918
219;1673304905.328537;47.1306897;7.2405284;49.867000579833984;1673304905.3423357;-56.204017639160156;-1.9240936040878296;-49.369117736816406
220;1673304905.5174358;47.1307042;7.2405069;49.87600326538086;1673304905.5415878;-53.92056655883789;-3.1821627616882324;-48.21424102783203
221;1673304905.7376058;47.1307197;7.2404839999999995;49.87000274658203;1673304905.7508395;-54.34345245361328;-4.472367763519287;-47.79023742675781
222;1673304905.90071;47.130736;7.2404601;49.85000228881836;1673304905.9197361;-52.59221649169922;-4.704109191894531;-47.67920684814453
223;1673304906.087716;47.1307529;7.240435199999999;49.816001892089844;1673304906.1025293;-48.75677490234375;-5.244744300842285;-47.77344512939453
224;1673304906.2655475;47.1307702;7.2404096;49.78200149536133;1673304906.2828813;-47.30659103393555;-5.966587066650391;-47.76235580444336
225;1673304906.4545403;47.1307876;7.2403837;49.77000045776367;1673304906.47182;-46.67564010620117;-7.91807746887207;-47.60741424560547
226;1673304906.6490376;47.130805099999996;7.2403574;49.768001556396484;1673304906.6681294;-48.15726089477539;-5.470904350280762;-48.730499267578125
227;1673304906.8545597;47.130822599999995;7.2403308;49.76700210571289;1673304906.8722048;-49.600093841552734;-6.142054557800293;-48.756690979003906
228;1673304907.083496;47.1308401;7.2403039;49.76300048828125;1673304907.103533;-47.772315979003906;-8.354660987854004;-48.5354118347168
229;1673304907.2835903;47.1308575;7.2402766;49.762001037597656;1673304907.3023586;-46.987464904785156;-11.551848411560059;-48.30348587036133
230;1673304907.4933407;47.1308747;7.2402488;49.76900100708008;1673304907.509497;-45.280696868896484;-12.899346351623535;-49.04027557373047
231;1673304907.6947863;47.130891999999996;7.240219799999999;49.80400085449219;1673304907.7115343;-19.119522094726562;-11.614250183105469;-49.45112609863281
232;1673304907.8831422;47.1309067;7.240194799999999;49.829002380371094;1673304907.9004085;24.8013973236084;-9.269076347351074;-50.11861038208008
233;1673304908.0925233;47.1309203;7.2401722;49.698001861572266;1673304908.1104765;26.458023071289062;-1.4662445783615112;-52.88862609863281
234;1673304908.3014529;47.130932099999995;7.2401538;49.40800094604492;1673304908.320447;16.552547454833984;-1.8966187238693237;-48.07198715209961
235;1673304908.5003088;47.1309417;7.2401401;49.1410026550293;1673304908.5194707;14.649242401123047;-1.1181550025939941;-46.9115104675293
236;1673304908.6946218;47.1309496;7.2401303;48.98400115966797;1673304908.710318;13.827791213989258;-0.9132280349731445;-46.758056640625
237;1673304908.8932893;47.1309557;7.240124;48.99800109863281;1673304908.9105833;30.39851951599121;-4.051019668579102;-46.99676513671875
238;1673304909.0930712;47.1309599;7.2401211;49.08400344848633;1673304909.1123052;40.172935485839844;-5.719497203826904;-45.35614013671875
239;1673304909.3282762;47.1309617;7.2401216999999995;49.18700408935547;1673304909.3445196;45.25276184082031;-8.532066345214844;-44.44832229614258
240;1673304909.5109363;47.130961;7.2401256;49.29300308227539;1673304909.5296245;48.93446731567383;-13.411162376403809;-45.366268157958984
241;1673304909.685159;47.1309574;7.2401323;49.39600372314453;1673304909.7017884;50.548728942871094;-18.45563316345215;-46.05414581298828
242;1673304909.8638108;47.1309512;7.2401412;49.49400329589844;1673304909.8814244;41.569278717041016;-20.56474494934082;-44.85704803466797
243;1673304910.111074;47.1309433;7.2401512;49.56900405883789;1673304910.1296098;24.711645126342773;-21.399944305419922;-44.879493713378906
244;1673304910.313881;47.130934599999996;7.240160899999999;49.6150016784668;1673304910.3304725;3.2009706497192383;-17.46043586730957;-45.091033935546875
245;1673304910.5083816;47.1309263;7.2401694999999995;49.6400032043457;1673304910.5270154;-15.50695514678955;-3.677691698074341;-46.21875762939453
246;1673304910.7119622;47.1309192;7.240176399999999;49.64600372314453;1673304910.7295492;-24.904767990112305;-7.883205890655518;-48.73334884643555
247;1673304910.8996148;47.1309137;7.2401816;49.63900375366211;1673304910.9192388;-11.029738426208496;-1.635298728942871;-48.29488754272461
248;1673304911.0967495;47.1309098;7.240185599999999;49.65400314331055;1673304911.1143405;5.9568352699279785;-10.679140090942383;-49.408782958984375
249;1673304911.285437;47.1309063;7.2401895;49.68700408935547;1673304911.304959;17.242355346679688;-5.278097629547119;-49.04906463623047
250;1673304911.485859;47.130902999999996;7.2401941;49.72900390625;1673304911.5004935;18.111398696899414;-4.506412029266357;-48.27519226074219
251;1673304911.6901057;47.1308997;7.2401991;49.65800094604492;1673304911.709625;6.8361310958862305;-26.91939926147461;-47.778053283691406
252;1673304911.8955507;47.1308967;7.240203999999999;49.237003326416016;1673304911.9092135;-8.026309967041016;-43.40554428100586;-41.396785736083984
253;1673304912.0820742;47.130893799999996;7.2402090999999995;48.44700241088867;1673304912.1031022;-23.27256965637207;-55.15319061279297;-28.671497344970703
254;1673304912.2803714;47.1308911;7.2402142;47.2660026550293;1673304912.2979298;-37.068084716796875;-60.60384750366211;-11.235379219055176
255;1673304912.4646876;47.1308886;7.240219499999999;45.72300338745117;1673304912.4837754;-48.41441345214844;-54.717220306396484;5.247683525085449
256;1673304912.692918;47.130886;7.240225;43.816001892089844;1673304912.7134123;-55.54240036010742;-30.077808380126953;11.169387817382812
257;1673304912.9030519;47.1308832;7.2402307;41.54300308227539;1673304912.92062;-50.66244888305664;8.01333236694336;8.013846397399902
258;1673304913.0724416;47.1308803;7.240236299999999;38.89600372314453;1673304913.0886405;-33.93452453613281;34.163291931152344;15.531489372253418
259;1673304913.2789924;47.130877399999996;7.2402416;35.87700271606445;1673304913.2956004;-11.295819282531738;42.62467956542969;31.729665756225586
260;1673304913.4719944;47.1308747;7.2402465;32.49100112915039;1673304913.4891245;12.689925193786621;32.71723556518555;45.930816650390625
261;1673304913.6684482;47.1308723;7.2402511;28.72100067138672;1673304913.6885405;28.592744827270508;2.66508150100708;49.481201171875
262;1673304913.8799007;47.1308702;7.240256;24.57200050354004;1673304913.895494;26.025663375854492;-33.30487823486328;50.09764862060547
263;1673304914.0832841;47.130868;7.240261299999999;20.060001373291016;1673304914.1018648;9.43034553527832;-48.93672180175781;63.536991119384766
264;1673304914.3042393;47.1308656;7.2402671;15.200000762939453;1673304914.3233843;-12.442278861999512;-38.29191970825195;81.74937438964844
265;1673304914.4956932;47.1308629;7.2402728;9.982000350952148;1673304914.5122855;-29.357318878173828;-4.99686336517334;88.93181610107422
266;1673304914.6949098;47.1308601;7.240278;4.39300012588501;1673304914.7115006;-24.631486892700195;27.488122940063477;90.14803314208984
267;1673304914.8816633;47.1308539;7.240285699999999;-0.07500000298023224;1673304914.900206;-11.513799667358398;12.16743278503418;93.55113220214844
268;1673304915.0717816;47.1308331;7.2403059999999995;-0.6140000224113464;1673304915.0918684;-20.3131160736084;18.712282180786133;94.57984924316406
269;1673304915.2608013;47.1308112;7.2403261;-1.3070000410079956;1673304915.2783692;-17.63442611694336;22.41695785522461;95.15251159667969
270;1673304915.4878912;47.130789199999995;7.240346199999999;-1.9510000944137573;1673304915.5044754;-17.17345428466797;21.482816696166992;95.22129821777344
271;1673304915.6778526;47.1307656;7.2403680999999995;-2.5980000495910645;1673304915.6959617;-17.069597244262695;21.021793365478516;95.22260284423828
272;1673304915.8751888;47.1307403;7.2403916;-3.250000238418579;1673304915.8962185;-16.953306198120117;20.574604034423828;95.26949310302734
273;1673304916.0666158;47.1307137;7.2404164;-3.8990001678466797;1673304916.0838027;-16.91027069091797;20.23171615600586;95.24427795410156
274;1673304916.2610552;47.130684699999996;7.2404436;-4.569000244140625;1673304916.2786436;-16.8601016998291;19.85080337524414;95.29267120361328
275;1673304916.4527082;47.130657899999996;7.240469;-4.924000263214111;1673304916.4679537;-16.66254997253418;19.327672958374023;95.39383697509766
276;1673304916.6621892;47.1306295;7.2404959;-5.082000255584717;1673304916.6774418;-16.49832534790039;18.82611656188965;95.50650787353516
277;1673304916.848271;47.1305996;7.2405243;-0.5360000133514404;1673304916.8663507;-16.458389282226562;18.56560516357422;95.5267105102539
278;1673304917.0445235;47.130567899999996;7.240554299999999;-0.25;1673304917.0635204;-16.39910125732422;18.321186065673828;95.59838104248047
279;1673304917.2591794;47.1305347;7.240585599999999;-0.1290000081062317;1673304917.2794242;-16.422313690185547;18.094512939453125;95.66202545166016
280;1673304917.4792936;47.1305002;7.2406182;-0.11100000888109207;1673304917.4995074;-16.372840881347656;17.886062622070312;95.71865844726562
281;1673304917.6763976;47.1304644;7.240652;-0.11800000816583633;1673304917.6982982;-16.395387649536133;17.729951858520508;95.75587463378906
282;1673304917.8723125;47.130427399999995;7.2406869;-0.13199999928474426;1673304917.889579;-16.407739639282227;17.531301498413086;95.86870574951172
283;1673304918.0643058;47.130389099999995;7.240723;-0.14600001275539398;1673304918.0822952;-16.447412490844727;17.227983474731445;95.92279052734375
284;1673304918.2763433;47.1303497;7.2407601999999995;-0.16300000250339508;1673304918.2902439;-16.461322784423828;17.005861282348633;95.99697875976562
285;1673304918.4635277;47.130309;7.2407984999999995;-0.17500001192092896;1673304918.4825442;-16.400840759277344;16.8156681060791;96.08451843261719
286;1673304918.691284;47.1302672;7.2408377999999995;-0.18400001525878906;1673304918.7092464;-16.38184356689453;16.6795654296875;96.15644836425781
287;1673304918.9043846;47.1302241;7.2408784;-0.23200000822544098;1673304918.9224658;-16.36712074279785;16.567094802856445;96.2232666015625
288;1673304919.114122;47.130179899999995;7.2409199;-0.25699999928474426;1673304919.129446;-16.352935791015625;16.438251495361328;96.29293060302734
289;1673304919.3423443;47.1301345;7.2409626;-0.26500001549720764;1673304919.359142;-16.317325592041016;16.347190856933594;96.34756469726562
290;1673304919.5062926;47.1300879;7.2410063;-0.2639999985694885;1673304919.5253015;-16.296062469482422;16.28827476501465;96.41938781738281
291;1673304919.686726;47.130040099999995;7.241051199999999;-0.26100000739097595;1673304919.7052443;-16.28360366821289;16.20313262939453;96.49552154541016
292;1673304919.909114;47.1299911;7.241097099999999;-0.2580000162124634;1673304919.9293432;-16.25447654724121;16.16002082824707;96.55200958251953
293;1673304920.0982118;47.1299409;7.2411441;-0.2970000207424164;1673304920.1172712;-16.248371124267578;16.112728118896484;96.64231872558594
294;1673304920.3123994;47.1298895;7.241192099999999;-0.31200000643730164;1673304920.3643498;-16.24036979675293;16.054960250854492;96.70650482177734
295;1673304920.5143008;47.1298791;7.2412019;-0.3190000057220459;1673304920.528265;-16.242279052734375;16.02019500732422;96.77262878417969
296;;;;;1673304920.7161894;-16.289640426635742;15.9789400100708;96.81150817871094
297;;;;;1673304920.9115067;-16.327423095703125;15.81659984588623;96.89399719238281
298;;;;;1673304921.1052365;-16.30527687072754;15.685762405395508;96.99519348144531
299;;;;;1673304921.3171883;-16.311819076538086;15.61314582824707;97.06280517578125
300;;;;;1673304921.521409;-16.29401397705078;15.574597358703613;97.1762466430664
301;;;;;1673304921.7081509;-16.246173858642578;15.850530624389648;97.2436752319336
302;;;;;1673304921.8992097;-16.22844696044922;15.908049583435059;97.32941436767578
303;;;;;1673304922.0891123;-16.253673553466797;15.973796844482422;97.4177474975586
