;pos_time;latitude;longitude;altitude;alt_time;pitch;roll;yaw
0;1673367379.706609;47.1306424;7.2406201;-0.017000000923871994;1673367379.8581758;0.006348153576254845;-0.521084725856781;90.26873016357422
1;1673367379.9129753;47.1306424;7.2406201;-0.017000000923871994;1673367380.0645697;0.06577758491039276;-0.39612293243408203;90.18771362304688
2;1673367380.128597;47.1306424;7.2406201;-0.01600000075995922;1673367380.2706902;0.32624056935310364;-0.4875286817550659;90.30741882324219
3;1673367380.3269792;47.1306423;7.2406201;-0.017000000923871994;1673367380.4723127;0.14924149215221405;-0.10125669836997986;90.22412109375
4;1673367380.5325172;47.1306423;7.24062;-0.015000000596046448;1673367380.6659052;0.11320050805807114;-0.12495329976081848;90.41658020019531
5;1673367380.720595;47.1306423;7.24062;-0.012000000104308128;1673367380.8642273;-0.06123106926679611;0.0179760605096817;90.14199829101562
6;1673367380.9196787;47.1306423;7.24062;-0.010000000707805157;1673367381.063302;-0.042234789580106735;-0.15153494477272034;90.25891876220703
7;1673367381.1245859;47.1306423;7.24062;-0.00800000037997961;1673367381.2967868;0.03761763498187065;-0.015091730281710625;90.2876205444336
8;1673367381.3617818;47.1306422;7.24062;-0.006000000052154064;1673367381.4932108;0.14081814885139465;-0.020576447248458862;89.97146606445312
9;1673367381.5504081;47.1306422;7.24062;-0.005000000353902578;1673367381.686792;0.11833510547876358;-0.008137140423059464;90.09180450439453
10;1673367381.7399774;47.1306422;7.24062;-0.005000000353902578;1673367381.8787057;0.056508298963308334;0.026833686977624893;89.9765396118164
11;1673367381.9369524;47.1306423;7.24062;-0.006000000052154064;1673367382.0802274;-0.204718217253685;-0.1222759485244751;90.19834899902344
12;1673367382.1373973;47.1306423;7.2406201;-0.007000000216066837;1673367382.2790546;-0.08176248520612717;0.12009826302528381;90.04499053955078
13;1673367382.3367448;47.1306423;7.2406201;-0.009000000543892384;1673367382.473044;0.08931662887334824;-0.10514312982559204;89.98011016845703
14;1673367382.5316887;47.1306423;7.2406201;0.0;1673367382.6762516;0.054133567959070206;0.07047298550605774;90.05926513671875
15;1673367382.7392676;47.1306423;7.2406201;-0.0020000000949949026;1673367382.8832989;-0.07808757573366165;-0.2673290967941284;90.2428970336914
16;1673367382.9485428;47.1306424;7.2406201999999995;0.0;1673367383.0816002;-0.2801376283168793;-0.001016616472043097;90.13426971435547
17;1673367383.1368034;47.1306424;7.2406201999999995;0.0;1673367383.2859015;-0.19256848096847534;-0.05633891746401787;90.0165023803711
18;1673367383.332317;47.1306424;7.2406201999999995;-0.0010000000474974513;1673367383.464434;0.002983845304697752;-0.2573307156562805;90.06432342529297
19;1673367383.5200102;47.1306424;7.2406203;-0.005000000353902578;1673367383.6655478;-0.11387137323617935;-0.17492637038230896;90.2469253540039
20;1673367383.727743;47.1306424;7.2406203;-0.012000000104308128;1673367383.8634427;-0.041798610240221024;0.3550320863723755;90.20263671875
21;1673367383.9316525;47.1306424;7.2406201999999995;-0.01900000125169754;1673367384.0824914;-0.05432602018117905;0.1986081898212433;90.1511001586914
22;1673367384.1408727;47.1306424;7.2406201999999995;-0.0010000000474974513;1673367384.2715523;-0.18746371567249298;-0.009278534911572933;90.09191131591797
23;1673367384.3255558;47.1306424;7.2406201;-0.0020000000949949026;1673367384.4706922;-0.10739702731370926;0.18705518543720245;90.111572265625
24;1673367384.5196452;47.1306424;7.24062;-0.0010000000474974513;1673367384.6554391;-0.35077032446861267;0.1522429883480072;90.25631713867188
25;1673367384.7211037;47.1306424;7.24062;0.0010000000474974513;1673367384.8708968;-0.4088485538959503;-0.2528309226036072;90.0948715209961
26;1673367384.925375;47.1306424;7.24062;0.0010000000474974513;1673367385.0795672;-0.3618395924568176;-0.16148702800273895;90.1053466796875
27;1673367385.1339333;47.1306424;7.24062;-0.0010000000474974513;1673367385.2790134;-0.48712778091430664;-0.12457569688558578;90.1396713256836
28;1673367385.3305852;47.1306424;7.2406198999999996;0.0;1673367385.468678;-0.19666717946529388;-0.09078988432884216;90.18302917480469
29;1673367385.5305252;47.1306424;7.2406198999999996;-0.0010000000474974513;1673367385.668696;-0.6040682196617126;-0.12425961345434189;90.1114273071289
30;1673367385.7142212;47.1306424;7.24062;-0.007000000216066837;1673367385.8636286;-1.0776163339614868;-0.23004916310310364;90.14781951904297
31;1673367385.9677236;47.1306424;7.24062;-0.006000000052154064;1673367386.0844002;-1.3921146392822266;-0.3053737282752991;89.58401489257812
32;1673367386.1333992;47.1306424;7.2406201999999995;-0.009000000543892384;1673367386.2855015;3.7216315269470215;0.4212386906147003;87.62673950195312
33;1673367386.3424737;47.1306424;7.2406207;0.004000000189989805;1673367386.486542;9.735991477966309;1.8967938423156738;88.4833984375
34;1673367386.5394409;47.1306424;7.2406213;0.032999999821186066;1673367386.6775436;11.772510528564453;-1.5620189905166626;88.98844909667969
35;1673367386.7278204;47.1306425;7.2406217999999996;0.07500000298023224;1673367386.8765597;11.924691200256348;-1.818506121635437;89.37033081054688
36;1673367386.9305873;47.1306425;7.240622;0.13100001215934753;1673367387.0742154;12.654364585876465;2.4808692932128906;90.02172088623047
37;1673367387.1315315;47.1306425;7.240622;0.203000009059906;1673367387.27999;12.885825157165527;0.18667301535606384;90.42436218261719
38;1673367387.3357766;47.1306425;7.2406217999999996;0.29200002551078796;1673367387.4671457;11.739642143249512;-1.887084722518921;89.9718017578125
39;1673367387.524736;47.1306425;7.2406215;0.38700002431869507;1673367387.6694791;10.89301586151123;1.4816868305206299;90.01615142822266
40;1673367387.7261178;47.130642599999995;7.240621;0.4930000305175781;1673367387.8746095;9.764095306396484;0.8614575266838074;90.00950622558594
41;1673367387.9351141;47.130642699999996;7.2406206;0.6140000224113464;1673367388.0913286;8.778270721435547;-2.2426860332489014;90.0504379272461
42;1673367388.1526113;47.130642699999996;7.2406201999999995;0.7470000386238098;1673367388.2955258;8.9027681350708;1.0311661958694458;90.79801177978516
43;1673367388.3519404;47.130642599999995;7.2406198999999996;0.8950000405311584;1673367388.4951012;9.3097505569458;2.2864794731140137;91.44873046875
44;1673367388.5463984;47.130642599999995;7.2406197;1.058000087738037;1673367388.6827638;9.352459907531738;-1.8787002563476562;91.04655456542969
45;1673367388.736448;47.130642599999995;7.240619499999999;1.2320001125335693;1673367388.873043;9.544438362121582;-0.508013129234314;90.61666107177734
46;1673367388.9220665;47.130642599999995;7.240619499999999;1.415000081062317;1673367389.0554132;9.578483581542969;1.9139000177383423;91.38347625732422
47;1673367389.1210105;47.130642599999995;7.240619499999999;1.6050000190734863;1673367389.2754626;9.018758773803711;-0.34105169773101807;91.02118682861328
48;1673367389.33115;47.130642699999996;7.240619499999999;1.7940000295639038;1673367389.476722;9.19803524017334;-1.4354782104492188;91.14013671875
49;1673367389.5354042;47.130642599999995;7.2406196;1.9830000400543213;1673367389.6797154;9.368931770324707;2.5010669231414795;91.2511215209961
50;1673367389.7428732;47.130642599999995;7.2406196;2.1710000038146973;1673367389.8847651;9.663444519042969;-0.22418558597564697;91.38558197021484
51;1673367389.9428813;47.1306425;7.2406196;2.3610000610351562;1673367390.0834322;10.39523696899414;-1.9296427965164185;91.0230712890625
52;1673367390.1381073;47.1306425;7.2406197;2.552000045776367;1673367390.2872493;10.522202491760254;2.1855900287628174;91.17329406738281
53;1673367390.3380015;47.130642599999995;7.240619799999999;2.742000102996826;1673367390.4717498;9.564754486083984;1.4603955745697021;91.43724822998047
54;1673367390.542091;47.130642599999995;7.240619799999999;2.936000108718872;1673367390.6839345;9.490139961242676;-1.459157109260559;91.4417953491211
55;1673367390.7385972;47.1306425;7.240619799999999;3.132000207901001;1673367390.876488;9.356366157531738;1.3054471015930176;91.5471420288086
56;1673367390.934537;47.1306423;7.2406198999999996;3.3310000896453857;1673367391.0737264;9.845816612243652;1.0408481359481812;91.26283264160156
57;1673367391.1323845;47.1306422;7.24062;3.5300002098083496;1673367391.2654052;10.141942977905273;-2.477355480194092;90.82764434814453
58;1673367391.3220131;47.130642099999996;7.2406201;3.7210001945495605;1673367391.4763813;10.429941177368164;0.10124599933624268;90.94942474365234
59;1673367391.5350547;47.1306422;7.2406201;3.9140002727508545;1673367391.6797645;10.059609413146973;2.3673689365386963;91.37454223632812
60;1673367391.7315516;47.1306422;7.2406201999999995;4.109000205993652;1673367391.8634953;9.560385704040527;-1.5518531799316406;91.62139892578125
61;1673367391.9204571;47.1306422;7.2406201999999995;4.302999973297119;1673367392.0692863;9.65172004699707;-1.0146430730819702;91.58539581298828
62;1673367392.1278799;47.130641999999995;7.2406203;4.502000331878662;1673367392.2521696;9.927315711975098;2.124190092086792;91.60301208496094
63;1673367392.3175535;47.130641999999995;7.2406204;4.701000213623047;1673367392.4632804;10.268115997314453;-1.1871657371520996;91.47468566894531
64;1673367392.5268426;47.130641999999995;7.2406204999999995;4.900000095367432;1673367392.694874;10.734701156616211;-1.4917802810668945;91.03338623046875
65;1673367392.745642;47.130642099999996;7.2406204999999995;5.095000267028809;1673367392.8748035;10.686720848083496;2.831094264984131;91.28579711914062
66;1673367392.9423242;47.1306422;7.2406204999999995;5.295000076293945;1673367393.0911539;9.941680908203125;0.7087336182594299;91.51885223388672
67;1673367393.1468813;47.1306422;7.2406204;5.49500036239624;1673367393.2849042;9.78632926940918;-1.6350936889648438;91.3746337890625
68;1673367393.3402293;47.130642099999996;7.2406203;5.693000316619873;1673367393.477488;9.574356079101562;1.5457396507263184;91.34156799316406
69;1673367393.529258;47.130641999999995;7.2406203;5.890000343322754;1673367393.6661482;9.329910278320312;0.9316950440406799;91.12638092041016
70;1673367393.7198732;47.1306419;7.2406201999999995;6.086000442504883;1673367393.858909;9.663592338562012;-2.8316421508789062;91.14657592773438
71;1673367393.9165075;47.1306419;7.2406201999999995;6.28000020980835;1673367394.06623;9.943822860717773;0.5702834129333496;91.23339080810547
72;1673367394.131874;47.130641999999995;7.2406201999999995;6.474000453948975;1673367394.2862718;10.369950294494629;2.5440802574157715;91.53414154052734
73;1673367394.3438938;47.130641999999995;7.2406203;6.673000335693359;1673367394.4902482;10.104241371154785;-1.7475943565368652;91.17388153076172
74;1673367394.5522895;47.130641999999995;7.2406203;6.871000289916992;1673367394.673213;9.669825553894043;-0.32664987444877625;91.11270141601562
75;1673367394.7241356;47.1306419;7.2406203;7.068000316619873;1673367394.8619778;9.357382774353027;1.9275270700454712;91.26298522949219
76;1673367394.9205298;47.1306418;7.2406203;7.261000156402588;1673367395.070146;9.617111206054688;-2.1685125827789307;91.0560531616211
77;1673367395.12881;47.1306418;7.2406204;7.455000400543213;1673367395.2824209;9.752410888671875;-1.1814866065979004;91.2104263305664
78;1673367395.3401;47.1306419;7.2406203;7.64900016784668;1673367395.4777007;10.341897964477539;3.052610397338867;91.57369995117188
79;1673367395.5323899;47.130642099999996;7.2406204;7.841000556945801;1673367395.6669762;10.414262771606445;0.038983896374702454;91.33946228027344
80;1673367395.7235868;47.130642099999996;7.2406204;8.038000106811523;1673367395.8761706;10.3006010055542;-2.07822847366333;91.22856140136719
81;1673367395.9299505;47.130641999999995;7.2406204999999995;8.241000175476074;1673367396.075132;9.699519157409668;1.8162808418273926;91.14022064208984
82;1673367396.1268506;47.1306419;7.2406204999999995;8.440999984741211;1673367396.2595422;9.608418464660645;0.7614688873291016;91.05514526367188
83;1673367396.3135304;47.1306418;7.2406204999999995;8.640000343322754;1673367396.452357;9.393861770629883;-2.7897894382476807;91.25650024414062
84;1673367396.5106742;47.1306418;7.2406204999999995;8.838000297546387;1673367396.6721835;9.75026798248291;0.6444244980812073;91.50929260253906
85;1673367396.72977;47.1306419;7.2406204999999995;9.03700065612793;1673367396.8735757;10.200356483459473;2.3068814277648926;91.52932739257812
86;1673367396.9321473;47.130641999999995;7.2406206;9.237000465393066;1673367397.06795;10.476633071899414;-1.8271580934524536;91.20724487304688
87;1673367397.1280267;47.130641999999995;7.2406206;9.433000564575195;1673367397.2789004;10.5284423828125;-1.1904804706573486;91.15594482421875
88;1673367397.3335564;47.1306419;7.2406207;9.62700080871582;1673367397.478074;10.160955429077148;2.1655662059783936;91.23423767089844
89;1673367397.5347388;47.1306419;7.240620799999999;9.820000648498535;1673367397.6764133;9.571660041809082;-1.4588723182678223;91.20957946777344
90;1673367397.7389371;47.1306419;7.240620799999999;10.016000747680664;1673367397.88081;9.738717079162598;-1.7188491821289062;91.64306640625
91;1673367397.9318686;47.130641999999995;7.2406207;10.220000267028809;1673367398.0672517;10.456446647644043;2.2968862056732178;91.51500701904297
92;1673367398.1176193;47.1306422;7.2406206;10.506000518798828;1673367398.2667918;11.44411849975586;1.416214942932129;91.17901611328125
93;1673367398.3246794;47.1306422;7.2406203;10.866000175476074;1673367398.465014;10.550872802734375;-1.9852765798568726;91.01835632324219
94;1673367398.519708;47.130642099999996;7.2406198999999996;11.248000144958496;1673367398.665489;9.72879695892334;1.2974857091903687;91.33898162841797
95;1673367398.721307;47.130641999999995;7.240619499999999;11.63700008392334;1673367398.868776;9.005682945251465;1.776444435119629;91.48130798339844
96;1673367398.9244113;47.1306419;7.2406191;12.033000946044922;1673367399.0691748;8.115119934082031;-2.401303291320801;91.22529602050781
97;1673367399.1328115;47.1306419;7.240618899999999;12.430000305175781;1673367399.2838225;7.988713264465332;-0.9499539732933044;91.24052429199219
98;1673367399.3395758;47.1306419;7.2406188;12.833000183105469;1673367399.4794211;7.838132381439209;2.377249002456665;91.43087768554688
99;1673367399.5371783;47.130641999999995;7.240618899999999;13.237000465393066;1673367399.6790273;8.62131404876709;-1.352983832359314;91.253173828125
100;1673367399.7464995;47.130641999999995;7.240619;13.647000312805176;1673367399.8834984;9.258502960205078;-1.413725733757019;91.22795867919922
101;1673367399.9420707;47.1306419;7.240619199999999;14.058000564575195;1673367400.0702841;9.8096923828125;2.0718367099761963;91.52682495117188
102;1673367400.1280837;47.1306418;7.2406194;14.467000961303711;1673367400.2756193;10.151388168334961;-0.023041628301143646;91.33411407470703
103;1673367400.3361368;47.1306419;7.2406196;14.874000549316406;1673367400.4840624;10.194642066955566;-2.0720362663269043;91.10560607910156
104;1673367400.542806;47.130641999999995;7.2406197;15.278000831604004;1673367400.694774;10.028849601745605;1.58966064453125;91.1954345703125
105;1673367400.753452;47.130642099999996;7.240619799999999;15.684000968933105;1673367400.9248219;9.636728286743164;1.599919080734253;91.35562133789062
106;1673367400.9793162;47.1306422;7.2406198999999996;16.095001220703125;1673367401.1119733;9.713482856750488;-1.616136074066162;91.3189697265625
107;1673367401.1678405;47.1306422;7.240619799999999;16.506000518798828;1673367401.303332;9.787449836730957;1.2243188619613647;91.34663391113281
108;1673367401.358972;47.130642099999996;7.240619799999999;16.917001724243164;1673367401.4899886;9.875;2.127332925796509;91.47627258300781
109;1673367401.5506327;47.130641999999995;7.2406197;17.32900047302246;1673367401.6845846;10.016783714294434;-2.379808187484741;91.11646270751953
110;1673367401.734379;47.130641999999995;7.2406197;17.737001419067383;1673367401.8682392;9.743212699890137;-0.6112286448478699;91.15657043457031
111;1673367401.9298284;47.130642099999996;7.2406196;18.154001235961914;1673367402.0739439;9.561199188232422;2.48399019241333;91.30211639404297
112;1673367402.139446;47.130642099999996;7.2406196;18.569000244140625;1673367402.2828262;9.308035850524902;-0.7599712610244751;91.23211669921875
113;1673367402.3365061;47.1306422;7.2406196;18.983001708984375;1673367402.503415;9.261146545410156;-1.2460731267929077;91.2289047241211
114;1673367402.5602853;47.130642099999996;7.2406196;19.400001525878906;1673367402.7057726;9.42558479309082;2.212144374847412;91.242431640625
115;1673367402.7637062;47.130642099999996;7.2406196;19.82000160217285;1673367402.9038627;9.49319076538086;-0.16332046687602997;91.31616973876953
116;1673367402.964389;47.130642099999996;7.2406197;20.237001419067383;1673367403.1476438;9.699480056762695;-1.593207836151123;91.17137145996094
117;1673367403.196573;47.1306422;7.2406197;20.644001007080078;1673367403.325969;9.810966491699219;2.2019224166870117;91.38495635986328
118;1673367403.3753371;47.1306423;7.240619799999999;21.05000114440918;1673367403.500857;9.94483470916748;1.1657785177230835;91.36997985839844
119;1673367403.5546308;47.1306423;7.240619799999999;21.459001541137695;1673367403.6904697;9.609891891479492;-1.7184756994247437;91.32122039794922
120;1673367403.7424622;47.1306423;7.240619799999999;21.865001678466797;1673367403.897209;9.669163703918457;0.24539069831371307;91.38471221923828
121;1673367403.9540052;47.1306422;7.240619799999999;22.2710018157959;1673367404.0855126;9.290506362915039;1.4969686269760132;91.36568450927734
122;1673367404.1421216;47.130642099999996;7.2406197;22.68000030517578;1673367404.2792468;9.399003982543945;-2.1925559043884277;91.2876968383789
123;1673367404.333949;47.130642099999996;7.2406197;23.08300018310547;1673367404.4726887;9.609732627868652;-0.11721725761890411;91.26625061035156
124;1673367404.527505;47.1306422;7.2406197;23.483001708984375;1673367404.6858044;9.695439338684082;2.495300531387329;91.33111572265625
125;1673367404.7473414;47.1306423;7.2406197;23.886001586914062;1673367404.895958;9.7321138381958;-1.0768553018569946;91.26995086669922
126;1673367404.95189;47.1306423;7.2406197;24.292001724243164;1673367405.09164;9.747716903686523;-1.0483273267745972;91.2969970703125
127;1673367405.1846795;47.1306423;7.2406197;24.700000762939453;1673367405.3122582;9.494336128234863;2.6234066486358643;91.38573455810547
128;1673367405.356227;47.1306423;7.2406197;25.106000900268555;1673367405.4892979;9.261545181274414;-0.4719046354293823;91.25163269042969
129;1673367405.5459194;47.1306423;7.2406197;25.509000778198242;1673367405.6818318;9.240697860717773;-1.2711076736450195;91.21443176269531
130;1673367405.74038;47.1306424;7.2406197;25.90300178527832;1673367405.8689926;9.692418098449707;2.6142423152923584;91.2913589477539
131;1673367405.932035;47.1306425;7.240619799999999;26.303001403808594;1673367406.07348;9.727204322814941;1.8728421926498413;91.3309097290039
132;1673367406.124494;47.130642599999995;7.240619799999999;26.703001022338867;1673367406.2854328;9.923720359802246;-1.6041510105133057;91.02938842773438
133;1673367406.3381693;47.1306425;7.240619799999999;27.10500144958496;1673367406.50868;9.703781127929688;1.289124608039856;91.32475280761719
134;1673367406.5556183;47.1306424;7.240619799999999;27.506000518798828;1673367406.6878836;9.675780296325684;2.0506856441497803;91.39399719238281
135;1673367406.7444797;47.1306423;7.240619799999999;27.909000396728516;1673367406.8755174;9.173565864562988;-2.0128328800201416;91.3707275390625
136;1673367406.9361327;47.1306423;7.240619799999999;28.303001403808594;1673367407.0692136;9.383064270019531;0.18681937456130981;91.36241149902344
137;1673367407.1235929;47.1306423;7.240619799999999;28.69700050354004;1673367407.2753031;9.538818359375;2.586507558822632;91.42446899414062
138;1673367407.33298;47.1306423;7.2406198999999996;29.093002319335938;1673367407.5032709;9.62353515625;-0.9705899953842163;91.26802062988281
139;1673367407.568007;47.1306423;7.2406198999999996;29.489002227783203;1673367407.7252038;9.738968849182129;-1.3334591388702393;91.18465423583984
140;1673367407.7721996;47.1306422;7.2406198999999996;29.884000778198242;1673367407.9277782;9.848743438720703;2.4567830562591553;91.39262390136719
141;1673367407.9777274;47.1306422;7.2406198999999996;30.281002044677734;1673367408.162905;9.724507331848145;-0.11543645709753036;91.19237518310547
142;1673367408.2073748;47.1306422;7.2406198999999996;30.678001403808594;1673367408.3261368;9.77921199798584;-2.0591697692871094;91.13259887695312
143;1673367408.3710184;47.1306422;7.2406198999999996;31.071001052856445;1673367408.4961224;9.379890441894531;1.9662339687347412;91.23494720458984
144;1673367408.597052;47.1306423;7.2406198999999996;31.466001510620117;1673367408.731498;9.372687339782715;1.6086853742599487;91.33841705322266
145;1673367408.8084745;47.1306424;7.2406198999999996;31.871002197265625;1673367408.9393272;9.447163581848145;-1.7832568883895874;91.13518524169922
146;1673367408.9935915;47.1306424;7.240619799999999;32.27900314331055;1673367409.1108468;9.500262260437012;0.7192310094833374;91.24612426757812
147;1673367409.162635;47.1306423;7.240619799999999;32.68600082397461;1673367409.2999074;9.708833694458008;2.2062883377075195;91.38260650634766
148;1673367409.3517854;47.1306422;7.240619799999999;33.092002868652344;1673367409.4878466;9.777880668640137;-2.149515151977539;91.22126007080078
149;1673367409.544845;47.1306422;7.240619799999999;33.4900016784668;1673367409.7633653;9.702680587768555;-0.3474298417568207;91.26579284667969
150;1673367409.813729;47.1306422;7.2406198999999996;33.888999938964844;1673367409.9556851;9.825522422790527;2.574312448501587;91.4232177734375
151;1673367410.0026147;47.1306422;7.2406198999999996;34.29199981689453;1673367410.1480076;9.568527221679688;-0.5804361701011658;91.44896697998047
152;1673367410.204659;47.1306423;7.2406198999999996;34.698001861572266;1673367410.3382108;9.670327186584473;-1.546142339706421;91.20086669921875
153;1673367410.4072018;47.1306422;7.24062;35.10200119018555;1673367410.529801;9.545833587646484;2.104508876800537;91.28168487548828
154;1673367410.5811102;47.1306422;7.24062;35.50400161743164;1673367410.7086248;9.617127418518066;1.0377293825149536;91.21621704101562
155;1673367410.7585545;47.1306423;7.24062;35.906002044677734;1673367410.9070039;9.917826652526855;-1.734649896621704;91.16712951660156
156;1673367410.9637606;47.1306424;7.24062;36.301002502441406;1673367411.0935473;9.998615264892578;1.56087064743042;91.30364990234375
157;1673367411.1443343;47.1306425;7.24062;36.69900131225586;1673367411.274132;9.772010803222656;2.6867451667785645;91.41644287109375
158;1673367411.3249674;47.130642599999995;7.24062;37.10000228881836;1673367411.4707828;9.609942436218262;-1.224338412284851;91.29634094238281
159;1673367411.5367663;47.130642599999995;7.24062;37.50300216674805;1673367411.6947682;9.38939380645752;0.9329470992088318;91.26655578613281
160;1673367411.7514007;47.130642599999995;7.2406201;37.90400314331055;1673367411.903238;9.264910697937012;2.2212371826171875;91.40388488769531
161;1673367411.961036;47.1306425;7.2406201;38.303001403808594;1673367412.110343;9.417352676391602;-1.647075891494751;91.19869995117188
162;1673367412.1633348;47.1306424;7.2406201;38.694000244140625;1673367412.3032458;9.58689022064209;-0.9024088382720947;91.2533950805664
163;1673367412.359579;47.1306423;7.2406201;39.08400344848633;1673367412.497623;9.763322830200195;2.556914806365967;91.36600494384766
164;1673367412.563328;47.1306424;7.2406201999999995;39.47700119018555;1673367412.7045386;9.793645858764648;-0.16041891276836395;91.36611938476562
165;1673367412.7533867;47.1306424;7.2406201999999995;39.87200164794922;1673367412.8922002;10.02552318572998;-1.1589289903640747;91.14891815185547
166;1673367412.951982;47.1306424;7.2406203;40.27000045776367;1673367413.0887613;9.86470890045166;2.6219210624694824;91.23359680175781
167;1673367413.1533692;47.1306424;7.2406201999999995;40.669002532958984;1673367413.2959616;9.811469078063965;0.4921489357948303;91.34847259521484
168;1673367413.350618;47.1306424;7.2406201999999995;41.070003509521484;1673367413.50104;9.478934288024902;-1.431128978729248;91.32807159423828
169;1673367413.555701;47.1306424;7.2406201;41.4640007019043;1673367413.69633;9.489240646362305;1.922795057296753;91.23260498046875
170;1673367413.7588277;47.1306425;7.2406201;41.862003326416016;1673367413.8966103;9.52409839630127;1.6928867101669312;91.26100158691406
171;1673367413.9542413;47.1306425;7.24062;42.262001037597656;1673367414.0950959;9.45536994934082;-1.7846667766571045;91.22312927246094
172;1673367414.1468408;47.1306424;7.24062;42.663002014160156;1673367414.296244;9.519432067871094;0.8360075950622559;91.25833892822266
173;1673367414.3489482;47.1306424;7.2406198999999996;43.064002990722656;1673367414.4847047;9.743779182434082;2.074709177017212;91.48503875732422
174;1673367414.5500963;47.1306423;7.2406198999999996;43.4640007019043;1673367414.7024896;9.7520170211792;-1.7071235179901123;91.25737762451172
175;1673367414.7591045;47.1306423;7.2406198999999996;43.85700225830078;1673367414.8949327;9.752087593078613;-0.5435844659805298;91.38198852539062
176;1673367414.9584098;47.1306423;7.2406198999999996;44.249000549316406;1673367415.095135;9.477714538574219;2.6545333862304688;91.46782684326172
177;1673367415.1527562;47.1306424;7.2406198999999996;44.64400100708008;1673367415.2933185;9.43979263305664;-0.41607892513275146;91.22532653808594
178;1673367415.3391871;47.1306424;7.2406198999999996;45.04500198364258;1673367415.4713147;9.455318450927734;-1.0064334869384766;91.150390625
179;1673367415.5328548;47.1306424;7.240619799999999;45.44600296020508;1673367415.6761522;9.622767448425293;2.7033934593200684;91.26473999023438
180;1673367415.735234;47.1306424;7.2406198999999996;45.84600067138672;1673367415.8967772;9.652107238769531;0.6342934966087341;91.27000427246094
181;1673367415.9584246;47.1306424;7.2406198999999996;46.24500274658203;1673367416.107133;9.7710542678833;-1.816629409790039;91.22659301757812
182;1673367416.1608334;47.1306424;7.2406198999999996;46.63800048828125;1673367416.3034153;9.73910903930664;1.9338985681533813;91.3104019165039
183;1673367416.3570933;47.1306424;7.2406198999999996;47.03300094604492;1673367416.4892902;9.669544219970703;1.6156636476516724;91.3746109008789
184;1673367416.551099;47.1306425;7.2406198999999996;47.43000411987305;1673367416.6952415;9.335840225219727;-1.821967363357544;91.19457244873047
185;1673367416.7498977;47.1306424;7.2406198999999996;47.82600402832031;1673367416.8863416;9.405744552612305;0.8926377296447754;91.30045318603516
186;1673367416.9406083;47.1306423;7.2406198999999996;48.20600128173828;1673367417.0805624;9.257101058959961;2.1420764923095703;91.08784484863281
187;1673367417.1362245;47.1306423;7.2406198999999996;48.5420036315918;1673367417.279343;9.413101196289062;-1.9295588731765747;91.0796127319336
188;1673367417.3298094;47.1306423;7.24062;48.82100296020508;1673367417.4770515;9.575592041015625;-0.18033646047115326;91.19313049316406
189;1673367417.5400372;47.1306423;7.2406201999999995;49.05600357055664;1673367417.6967673;9.738378524780273;2.8477017879486084;91.3205337524414
190;1673367417.7514591;47.1306424;7.2406204;49.255001068115234;1673367417.900256;12.634744644165039;2.39288067817688;91.2712173461914
191;1673367417.952996;47.1306424;7.2406206;49.423004150390625;1673367418.0936017;20.811002731323242;5.623575687408447;88.76219177246094
192;1673367418.1483407;47.1306422;7.2406204;49.52800369262695;1673367418.296937;19.94996452331543;11.230936050415039;77.19414520263672
193;1673367418.3469257;47.130641499999996;7.2406196;49.58400344848633;1673367418.4868264;10.909586906433105;-2.6793665885925293;66.11992645263672
194;1673367418.538781;47.1306405;7.2406185999999995;49.63500213623047;1673367418.6797142;14.349311828613281;-1.9927186965942383;56.895172119140625
195;1673367418.7348907;47.1306395;7.2406174;49.67100143432617;1673367418.8869073;10.298852920532227;-3.7176513671875;48.17416000366211
196;1673367418.9392707;47.1306383;7.2406160999999996;49.702003479003906;1673367419.07686;7.190745830535889;-7.100077152252197;39.30275344848633
197;1673367419.1317122;47.1306371;7.240615;49.73200225830078;1673367419.2817905;4.47520112991333;-10.031886100769043;30.086400985717773
198;1673367419.3398092;47.130635999999996;7.240614;49.759002685546875;1673367419.4819303;2.3248422145843506;-11.538148880004883;20.715238571166992
199;1673367419.5447414;47.1306352;7.2406133;49.785003662109375;1673367419.6890159;0.34005916118621826;-9.670858383178711;11.526738166809082
200;1673367419.7488844;47.1306345;7.2406127;49.81100082397461;1673367419.8859575;-2.046604633331299;-6.892557621002197;2.4733169078826904
201;1673367419.9348683;47.130634099999995;7.2406124;49.83100128173828;1673367420.0749323;-4.2298078536987305;-6.685125827789307;-6.530483722686768
202;1673367420.1298358;47.1306339;7.2406121;49.849002838134766;1673367420.282734;-6.037063121795654;-7.789763927459717;-15.077241897583008
203;1673367420.3412447;47.1306338;7.240611899999999;49.8640022277832;1673367420.4878838;-5.27195405960083;-9.06594467163086;-23.34644889831543
204;1673367420.5390809;47.1306338;7.2406118;49.880001068115234;1673367420.670726;-4.322041988372803;-12.822042465209961;-32.843990325927734
205;1673367420.7229407;47.1306339;7.2406118;49.893001556396484;1673367420.8609686;-3.990347385406494;-9.94208812713623;-42.040462493896484
206;1673367420.9274883;47.130634099999995;7.240611599999999;49.90300369262695;1673367421.084178;-6.212024211883545;-5.787593364715576;-50.35329055786133
207;1673367421.154461;47.130634199999996;7.2406114;49.913002014160156;1673367421.2962778;-9.07032299041748;-4.420417308807373;-52.865814208984375
208;1673367421.3570287;47.130634199999996;7.2406111;49.9160041809082;1673367421.4876156;-9.389589309692383;-7.161592483520508;-50.11074447631836
209;1673367421.539424;47.130634199999996;7.2406109;49.92000198364258;1673367421.6694324;-8.165916442871094;-8.505512237548828;-47.721214294433594
210;1673367421.7242458;47.130634199999996;7.2406108;49.926002502441406;1673367421.8796504;-6.438394069671631;-9.723557472229004;-46.96953582763672
211;1673367421.9423027;47.130634199999996;7.240610599999999;49.93300247192383;1673367422.0856307;-5.153113842010498;-9.372337341308594;-46.63142395019531
212;1673367422.145426;47.130634199999996;7.2406105;49.93700408935547;1673367422.30061;-5.5200958251953125;-6.429400444030762;-46.53179931640625
213;1673367422.349443;47.130634199999996;7.2406102;49.939002990722656;1673367422.5146704;-7.044075012207031;-5.2880401611328125;-45.8789176940918
214;1673367422.5963168;47.130634199999996;7.240609999999999;49.93400192260742;1673367422.7285712;-8.019316673278809;-6.688886642456055;-45.75398254394531
215;1673367422.7760074;47.130634099999995;7.2406099;49.92900085449219;1673367422.9082682;-8.266425132751465;-8.187256813049316;-45.77547073364258
216;1673367422.954144;47.1306339;7.2406099;49.92900085449219;1673367423.091908;-16.736309051513672;-12.322184562683105;-45.41278076171875
217;1673367423.1495724;47.1306338;7.240609699999999;49.935001373291016;1673367423.3089504;-37.691768646240234;-6.23084020614624;-46.252479553222656
218;1673367423.358784;47.1306344;7.240608399999999;49.95100402832031;1673367423.5172973;-52.80093002319336;-2.9735233783721924;-48.02210235595703
219;1673367423.5881805;47.130636599999995;7.240604899999999;49.961002349853516;1673367423.7246068;-56.09595489501953;-1.3908690214157104;-48.890350341796875
220;1673367423.7826595;47.130641;7.2405984;49.94700241088867;1673367423.9242444;-51.73813247680664;-2.0678231716156006;-48.85466766357422
221;1673367423.97999;47.130647499999995;7.2405889;49.923004150390625;1673367424.1233876;-55.421138763427734;-3.1151647567749023;-48.43961715698242
222;1673367424.17735;47.1306556;7.2405767;49.926002502441406;1673367424.3103292;-59.94670104980469;-1.7363876104354858;-49.27304458618164
223;1673367424.3604317;47.1306654;7.240561899999999;49.94200134277344;1673367424.5075264;-56.84458923339844;-1.2823318243026733;-49.67388153076172
224;1673367424.5773015;47.130676799999996;7.2405447999999994;49.94300079345703;1673367424.7124512;-54.029876708984375;-1.6149146556854248;-48.77152633666992
225;1673367424.7625155;47.1306894;7.2405259;49.939002990722656;1673367424.8925107;-54.365665435791016;-1.8639726638793945;-48.26034927368164
226;1673367424.9532857;47.130703;7.240505799999999;49.93400192260742;1673367425.086832;-53.171295166015625;-2.991183042526245;-47.7495002746582
227;1673367425.1404603;47.1307173;7.240484599999999;49.919002532958984;1673367425.276609;-51.911888122558594;-3.523383140563965;-47.53670883178711
228;1673367425.3324907;47.1307323;7.2404625;49.90400314331055;1673367425.4744134;-48.97026443481445;-3.844456672668457;-47.630577087402344
229;1673367425.5314362;47.1307477;7.240439899999999;49.88300323486328;1673367425.6753588;-48.3129768371582;-4.423758029937744;-47.61274337768555
230;1673367425.7416186;47.1307633;7.240416799999999;49.86300277709961;1673367425.8840494;-48.866416931152344;-5.676668167114258;-47.391998291015625
231;1673367425.9413831;47.130779;7.2403933;49.849002838134766;1673367426.0818827;-48.46653747558594;-4.258018970489502;-48.2536735534668
232;1673367426.1469333;47.1307948;7.2403695;49.84400177001953;1673367426.2940652;-49.063350677490234;-3.881399154663086;-48.53432846069336
233;1673367426.3412905;47.1308106;7.2403452999999995;49.84400177001953;1673367426.4840786;-48.93277359008789;-4.759798049926758;-48.315940856933594
234;1673367426.541025;47.1308265;7.240321;49.84100341796875;1673367426.6661088;-48.047088623046875;-6.391925811767578;-48.12470626831055
235;1673367426.7220454;47.1308423;7.2402966;49.840003967285156;1673367426.8639777;-48.35354995727539;-9.149261474609375;-47.698387145996094
236;1673367426.9196398;47.130857999999996;7.2402717999999995;49.842002868652344;1673367427.065824;-47.84174728393555;-8.768488883972168;-48.75295639038086
237;1673367427.1241097;47.1308735;7.2402466;49.84400177001953;1673367427.2598774;-32.07841110229492;-7.720304012298584;-48.583892822265625
238;1673367427.3128893;47.1308885;7.2402215;49.86300277709961;1673367427.4532828;12.463947296142578;-10.874475479125977;-49.03215026855469
239;1673367427.5178719;47.1309022;7.2401985;49.87300109863281;1673367427.6700678;35.7540168762207;-1.230875849723816;-53.76677703857422
240;1673367427.7301319;47.130913899999996;7.2401792;49.69200134277344;1673367427.8819714;19.112953186035156;-4.024551868438721;-48.875152587890625
241;1673367427.942607;47.1309237;7.2401637999999995;49.355003356933594;1673367428.0898645;15.628908157348633;-3.711574077606201;-46.86002731323242
242;1673367428.162151;47.1309312;7.2401526;49.02800369262695;1673367428.304874;14.497966766357422;-3.12127685546875;-46.55400848388672
243;1673367428.3602898;47.1309368;7.2401449;48.80500411987305;1673367428.5027795;14.369556427001953;-2.3640692234039307;-46.67059326171875
244;1673367428.5583818;47.1309404;7.2401406999999995;48.78900146484375;1673367428.7099373;46.724369049072266;-10.524978637695312;-48.24819564819336
245;1673367428.7656424;47.1309416;7.2401402;48.94200134277344;1673367428.9312825;49.01530075073242;-9.198999404907227;-44.731842041015625
246;1673367428.993072;47.1309397;7.2401436;49.090003967285156;1673367429.110282;44.24184036254883;-11.55366325378418;-44.029075622558594
247;1673367429.18936;47.130935;7.2401501999999995;49.22800064086914;1673367429.3217986;31.043989181518555;-15.794510841369629;-43.93982696533203
248;1673367429.3726883;47.130928399999995;7.2401588;49.35000228881836;1673367429.5284705;10.77182674407959;-16.034751892089844;-43.622562408447266
249;1673367429.6072555;47.1309208;7.240168;49.44900131225586;1673367429.746205;-9.583529472351074;-11.957292556762695;-44.35130310058594
250;1673367429.802683;47.1309134;7.240176699999999;49.52400207519531;1673367429.93567;-23.218366622924805;-4.244724273681641;-46.01222229003906
251;1673367429.991071;47.1309069;7.2401839;49.57200241088867;1673367430.1283891;-34.500244140625;-1.032486081123352;-47.59010696411133
252;1673367430.1845565;47.130902;7.240189099999999;49.58400344848633;1673367430.3288875;-41.257904052734375;-2.808109760284424;-48.761234283447266
253;1673367430.3911705;47.130899;7.2401918;49.557003021240234;1673367430.5312154;-31.281253814697266;-5.739079475402832;-47.910003662109375
254;1673367430.5910046;47.1308976;7.240192599999999;49.505001068115234;1673367430.7332056;-24.8623046875;-9.884361267089844;-46.899810791015625
255;1673367430.7845166;47.1308973;7.2401919999999995;49.46800231933594;1673367430.9257603;-18.399463653564453;-18.79323959350586;-47.7963752746582
256;1673367430.9780798;47.1308976;7.240189999999999;49.4530029296875;1673367431.1128633;-18.903379440307617;-11.422662734985352;-49.30799865722656
257;1673367431.1753938;47.130897999999995;7.2401877;49.20000076293945;1673367431.3067613;-13.494582176208496;0.9182077646255493;-51.793033599853516
258;1673367431.3609843;47.1308984;7.2401854;48.58100128173828;1673367431.5030398;-1.699373483657837;15.84145450592041;-52.01169204711914
259;1673367431.5758185;47.1308988;7.2401832;47.582000732421875;1673367431.732529;14.032261848449707;31.278623580932617;-47.337074279785156
260;1673367431.8023667;47.130899299999996;7.240181;46.178001403808594;1673367431.9398723;28.61651039123535;44.37880325317383;-38.06386184692383
261;1673367431.998965;47.1308996;7.2401786999999995;44.39200210571289;1673367432.1250162;38.207366943359375;49.0248908996582;-29.334304809570312
262;1673367432.1807034;47.1309;7.2401763;42.2390022277832;1673367432.3061728;40.84036636352539;38.13368225097656;-29.142749786376953
263;1673367432.3545344;47.1309003;7.2401737;39.72300338745117;1673367432.4926949;32.39707946777344;14.223577499389648;-36.26924514770508
264;1673367432.5473506;47.1309007;7.2401709;36.8380012512207;1673367432.6880472;12.43310832977295;-7.9503583908081055;-39.32516860961914
265;1673367432.7466426;47.1309012;7.240168;33.56500244140625;1673367432.890284;-8.965300559997559;-18.9866886138916;-36.46245193481445
266;1673367432.9449718;47.1309018;7.240165299999999;29.89000129699707;1673367433.0892475;-21.266435623168945;-14.089301109313965;-35.32893371582031
267;1673367433.146834;47.1309025;7.240163099999999;25.83700180053711;1673367433.2869997;-17.043319702148438;5.0580267906188965;-38.265533447265625
268;1673367433.350437;47.130902899999995;7.2401613;21.404001235961914;1673367433.4861982;1.7652755975723267;22.886856079101562;-36.07756805419922
269;1673367433.5560338;47.1309032;7.240159599999999;16.58300018310547;1673367433.6981018;21.24746322631836;27.790599822998047;-29.34993553161621
270;1673367433.7601414;47.1309034;7.2401576;11.385000228881836;1673367433.8963532;28.16322135925293;13.777832984924316;-28.839519500732422
271;1673367433.9470959;47.1309037;7.240155199999999;5.816000461578369;1673367434.0829453;15.502890586853027;-7.19642972946167;-31.484800338745117
272;1673367434.1586783;47.130904099999995;7.2401526;-0.1290000081062317;1673367434.3301442;-0.4478020668029785;-2.2076797485351562;-35.987789154052734
273;1673367434.3824222;47.130898699999996;7.2401542999999995;0.29200002551078796;1673367434.5322695;1.6674171686172485;3.947437286376953;-43.77260208129883
274;1673367434.5845327;47.1308917;7.240155199999999;0.3020000159740448;1673367434.722705;1.6712870597839355;1.5457674264907837;-43.61079788208008
275;1673367434.7788901;47.1308848;7.2401561999999995;0.31700000166893005;1673367434.914125;1.6551334857940674;2.3899919986724854;-43.505714416503906
276;1673367434.9634783;47.1308788;7.2401573;0.320000022649765;1673367435.103734;1.62517511844635;2.36434006690979;-43.23610305786133
277;1673367435.1667306;47.130873699999995;7.2401586;0.3190000057220459;1673367435.3029346;1.5876344442367554;2.3075520992279053;-43.05230712890625
278;1673367435.3536904;47.1308698;7.2401599;0.3190000057220459;1673367435.495308;1.4737215042114258;2.3997786045074463;-42.93901443481445
279;1673367435.545091;47.1308657;7.2401615999999995;0.32100000977516174;1673367435.6847453;1.421327829360962;2.2492012977600098;-42.766876220703125
280;1673367435.7433214;47.130863299999994;7.2401632;0.3270000219345093;1673367435.888926;1.2404024600982666;2.0135250091552734;-42.545475006103516
281;1673367435.9504597;47.130862699999994;7.2401646;0.3360000252723694;1673367436.0989435;1.0507733821868896;2.0966033935546875;-42.36604690551758
282;1673367436.159018;47.1308636;7.2401658;0.3460000157356262;1673367436.309872;0.8488580584526062;2.0196971893310547;-42.1380615234375
283;1673367436.3567352;47.1308655;7.2401668;0.35600000619888306;1673367436.515918;0.6108532547950745;1.9431114196777344;-41.93313217163086
284;1673367436.5769727;47.130868;7.2401677;0.36400002241134644;1673367436.7200043;0.25341659784317017;2.0031137466430664;-41.69511795043945
285;1673367436.779097;47.1308741;7.2401655;0.38600000739097595;1673367436.935838;-0.3497929275035858;2.276027202606201;-41.468631744384766
286;1673367436.9871378;47.1308796;7.2401632;0.4100000262260437;1673367437.1136355;-0.5085461139678955;2.45737624168396;-41.41194152832031
287;1673367437.1620035;47.130884699999996;7.2401601;0.42600002884864807;1673367437.2914376;-0.8043575286865234;2.611041307449341;-41.332881927490234
288;1673367437.346094;47.1308893;7.2401569;0.4350000321865082;1673367437.499454;-0.9505536556243896;2.7560946941375732;-41.27508544921875
289;1673367437.5473106;47.1308927;7.2401542999999995;0.43300002813339233;1673367437.6986945;-1.018518328666687;2.6488447189331055;-41.19704818725586
290;1673367437.7774472;47.1308951;7.2401523999999995;0.42000001668930054;1673367437.9010115;-1.1201115846633911;2.698096752166748;-41.1572380065918
291;1673367437.9556396;47.130896899999996;7.240151099999999;0.4050000309944153;1673367438.109074;-1.1436328887939453;2.6565005779266357;-41.07837677001953
292;1673367438.1633348;47.130898099999996;7.240150799999999;0.3930000066757202;1673367438.2976642;-1.1503280401229858;2.768402099609375;-41.020896911621094
293;1673367438.3542857;47.1308989;7.2401506;0.37700000405311584;1673367438.5057762;-1.1701526641845703;2.80737566947937;-40.97028732299805
294;1673367438.5619612;47.1308995;7.2401504;0.36000001430511475;1673367438.7030373;-1.2273393869400024;2.824103593826294;-40.935672760009766
295;1673367438.7537901;47.1309001;7.2401503;0.34200000762939453;1673367438.8876224;-1.2246447801589966;2.8319530487060547;-40.89012908935547
296;1673367438.9520714;47.130900499999996;7.2401501999999995;0.3230000138282776;1673367439.093732;-1.203770399093628;2.8493645191192627;-40.841915130615234
297;1673367439.150324;47.1309008;7.2401501999999995;0.3050000071525574;1673367439.2978086;-1.2026234865188599;2.8840861320495605;-40.7795524597168
298;1673367439.3505163;47.1309012;7.2401503;0.289000004529953;1673367439.483344;-1.2431342601776123;2.930267572402954;-40.713165283203125
299;1673367439.5468037;47.130901699999995;7.2401506;0.2760000228881836;1673367439.7060702;-1.2654162645339966;2.941838026046753;-40.65372848510742
300;1673367439.7622218;47.1309021;7.2401509;0.2639999985694885;1673367439.8974519;-1.225062370300293;2.9273595809936523;-40.59469223022461
301;1673367439.9540813;47.1309024;7.240151099999999;0.25;1673367440.093304;-1.2340776920318604;2.920393228530884;-40.58763885498047
302;1673367440.1469727;47.1309025;7.240151099999999;0.23500001430511475;1673367440.2871232;-1.2579337358474731;2.8961474895477295;-40.526390075683594
303;1673367440.343734;47.1309027;7.2401512;0.21800000965595245;1673367440.4951022;-1.2176493406295776;2.862220287322998;-40.489566802978516
304;1673367440.5507338;47.1309028;7.2401512;0.20200000703334808;1673367440.7021303;-1.1899631023406982;2.83573579788208;-40.4588737487793
305;1673367440.755812;47.1309032;7.240151399999999;0.1860000044107437;1673367440.8936868;-1.1998289823532104;2.8470137119293213;-40.41284942626953
306;1673367440.94366;47.130903499999995;7.2401516;0.17000000178813934;1673367441.074087;-1.2606287002563477;2.580453395843506;-40.41419982910156
307;1673367441.129752;47.130903599999996;7.240151699999999;0.1600000113248825;1673367441.274326;-1.2912245988845825;2.443220615386963;-40.42562484741211
308;1673367441.3339272;47.130903599999996;7.240151699999999;-0.0020000000949949026;;;;
