;pos_time;latitude;longitude;altitude;alt_time;pitch;roll;yaw
0;1673305676.3603966;47.1306425;7.2406197;-0.03800000250339508;1673305676.3296075;0.05622237175703049;-0.4174598753452301;90.17568969726562
1;1673305676.5661128;47.1306425;7.240619799999999;-0.032999999821186066;1673305676.5504932;0.127168208360672;-0.468112587928772;89.94434356689453
2;1673305676.7769225;47.1306425;7.2406198999999996;-0.03100000135600567;1673305676.759797;0.061670828610658646;-0.3155772387981415;89.85467529296875
3;1673305676.978225;47.1306425;7.2406198999999996;-0.03100000135600567;1673305676.9601097;0.1450684368610382;-0.3374408483505249;89.8799057006836
4;1673305677.1708486;47.1306425;7.24062;-0.030000001192092896;1673305677.150803;0.027950989082455635;-0.24710120260715485;90.14716339111328
5;1673305677.3675077;47.1306424;7.2406201;-0.026000000536441803;1673305677.3489685;-0.01791379787027836;-0.4714244306087494;90.09872436523438
6;1673305677.5551777;47.1306424;7.2406201;-0.024000000208616257;1673305677.540518;0.08519772440195084;-0.2867848873138428;89.95042419433594
7;1673305677.7480962;47.1306424;7.2406201999999995;-0.026000000536441803;1673305677.734252;0.10147075355052948;-0.5060543417930603;90.19193267822266
8;1673305677.9359362;47.1306424;7.2406201999999995;-0.027000000700354576;1673305677.9198954;-0.10781463980674744;-0.26147976517677307;89.92494201660156
9;1673305678.1389925;47.1306423;7.2406201999999995;0.0;1673305678.1243522;-0.17393147945404053;-0.6225811243057251;90.04090118408203
10;1673305678.3521879;47.1306423;7.2406201999999995;0.0;1673305678.330673;-0.11574811488389969;-0.7520639300346375;90.02928161621094
11;1673305678.5409892;47.1306423;7.2406201999999995;-0.0020000000949949026;1673305678.5252838;-0.14248976111412048;-0.7481570839881897;90.1086196899414
12;1673305678.7306497;47.1306423;7.2406201999999995;-0.004000000189989805;1673305678.7150347;-0.14539307355880737;-0.5198864936828613;89.99061584472656
13;1673305678.9166675;47.1306423;7.2406203;-0.007000000216066837;1673305678.901006;-0.10851028561592102;-0.5868979692459106;89.95893096923828
14;1673305679.129915;47.1306423;7.2406204;-0.007000000216066837;1673305679.1058824;-0.052536431699991226;-0.6054309010505676;89.94447326660156
15;1673305679.345529;47.1306423;7.2406204;-0.004000000189989805;1673305679.3237832;0.18515510857105255;-0.8497711420059204;89.82062530517578
16;1673305679.5677037;47.1306423;7.2406204;-0.0020000000949949026;1673305679.5541637;0.0978069081902504;-1.1307756900787354;90.13438415527344
17;1673305679.7888045;47.1306423;7.2406204;0.0;1673305679.7758768;0.13383980095386505;-0.836909294128418;90.22303009033203
18;1673305680.0107863;47.1306424;7.2406204;0.0;1673305679.9985704;0.3781577944755554;-0.8687453269958496;89.89164733886719
19;1673305680.1885364;47.1306424;7.2406204999999995;-0.0010000000474974513;1673305680.1737218;0.336943119764328;-0.7481554746627808;90.15315246582031
20;1673305680.4116688;47.1306424;7.2406206;0.0;1673305680.3965776;0.2075447291135788;-0.7527961134910583;89.79352569580078
21;1673305680.5997906;47.1306424;7.2406204999999995;0.0010000000474974513;1673305680.5899172;0.412034273147583;-0.33969518542289734;89.8685302734375
22;1673305680.7987018;47.1306424;7.2406204999999995;0.0020000000949949026;1673305680.7777023;0.4298381209373474;-0.16525259613990784;89.92206573486328
23;1673305681.0118213;47.1306424;7.2406204;0.0020000000949949026;1673305680.9985483;0.43951666355133057;-0.6503472328186035;89.93853759765625
24;1673305681.1975276;47.1306424;7.2406204;0.006000000052154064;1673305681.1826382;0.4530443847179413;-0.46499305963516235;89.83750915527344
25;1673305681.3759265;47.1306424;7.2406204;0.012000000104308128;1673305681.3597386;0.5572347044944763;-0.487550288438797;89.27559661865234
26;1673305681.58543;47.1306425;7.2406203;0.01600000075995922;1673305681.5596592;1.1865901947021484;-0.18234136700630188;88.88744354248047
27;1673305681.7834609;47.130642599999995;7.2406201999999995;0.01900000125169754;1673305681.760719;0.5919829607009888;0.7684261798858643;84.11288452148438
28;1673305681.9846349;47.130642699999996;7.240619799999999;0.030000001192092896;1673305681.9696367;0.48187804222106934;3.6338820457458496;81.28279876708984
29;1673305682.194506;47.1306429;7.2406193;0.055000003427267075;1673305682.1806912;-3.6691043376922607;8.575715065002441;83.10833740234375
30;1673305682.4046;47.1306431;7.2406188;0.09300000220537186;1673305682.364596;-8.061399459838867;10.790696144104004;84.41464233398438
31;1673305682.5838478;47.130643199999994;7.2406184;0.14800000190734863;1673305682.5685384;-8.485228538513184;5.879748344421387;85.89307403564453
32;1673305682.7695131;47.1306431;7.2406182;0.2150000035762787;1673305682.7466712;-8.632018089294434;10.179893493652344;85.95106506347656
33;1673305682.9625819;47.1306428;7.2406182;0.2970000207424164;1673305682.9479473;-8.624114036560059;9.516694068908691;86.38206481933594
34;1673305683.18333;47.1306425;7.2406182999999995;0.39400002360343933;1673305683.1677089;-8.18684196472168;3.5940048694610596;87.26420593261719
35;1673305683.394672;47.1306423;7.2406185999999995;0.503000020980835;1673305683.3819816;-7.752011775970459;6.6226630210876465;87.26174926757812
36;1673305683.6007895;47.1306422;7.240619;0.625;1673305683.5861504;-6.846878528594971;7.948367595672607;87.29753112792969
37;1673305683.7815945;47.1306422;7.240619499999999;0.7670000195503235;1673305683.7650182;-5.977595806121826;4.097619533538818;88.08612823486328
38;1673305683.9693794;47.1306423;7.240619799999999;0.9220000505447388;1673305683.9527876;-5.773795127868652;6.103390216827393;87.99779510498047
39;1673305684.2176983;47.1306422;7.2406201;1.0890001058578491;1673305684.2050078;-5.431504249572754;9.576313018798828;87.67438507080078
40;1673305684.4004219;47.130641999999995;7.2406201999999995;1.2740000486373901;1673305684.3857987;-5.266254425048828;4.58045768737793;88.33540344238281
41;1673305684.5903947;47.130641999999995;7.2406203;1.4660000801086426;1673305684.5728285;-5.596755027770996;4.426576614379883;88.54511260986328
42;1673305684.8163598;47.130641999999995;7.2406203;1.65500009059906;1673305684.8026798;-5.305360317230225;9.318265914916992;86.91537475585938
43;1673305685.0004714;47.130642099999996;7.2406201999999995;1.8530000448226929;1673305684.9848576;-6.018536567687988;6.329888343811035;87.77117919921875
44;1673305685.1609676;47.1306422;7.2406201;2.0500001907348633;1673305685.1462784;-6.462030410766602;4.164756774902344;88.30084991455078
45;1673305685.396925;47.1306422;7.24062;2.245000123977661;1673305685.3813279;-6.883190631866455;8.83863353729248;87.86045837402344
46;1673305685.6031122;47.130642099999996;7.24062;2.443000078201294;1673305685.5874934;-6.726820945739746;6.722776412963867;88.11222076416016
47;1673305685.8046546;47.130642099999996;7.24062;2.6450002193450928;1673305685.7919788;-6.894258975982666;3.1002416610717773;88.51856231689453
48;1673305685.9820256;47.130642099999996;7.24062;2.8450000286102295;1673305685.969302;-6.742283344268799;8.189565658569336;88.42560577392578
49;1673305686.1943922;47.1306423;7.24062;3.0390000343322754;1673305686.1697285;-6.382299900054932;8.718220710754395;88.3804702758789
50;1673305686.404272;47.1306424;7.24062;3.2340002059936523;1673305686.3788812;-6.690291881561279;4.411189556121826;88.88421630859375
51;1673305686.6195514;47.1306425;7.2406201;3.43500018119812;1673305686.6058447;-6.844817161560059;7.74460506439209;88.50732421875
52;1673305686.7993126;47.1306424;7.2406201999999995;3.630000114440918;1673305686.7852929;-6.5854926109313965;9.398775100708008;88.3716049194336
53;1673305686.980741;47.1306423;7.2406203;3.827000141143799;1673305686.96709;-6.5674333572387695;4.089329242706299;88.91584777832031
54;1673305687.1789834;47.1306422;7.2406204;4.02400016784668;1673305687.1662836;-6.516829967498779;6.064329624176025;88.73139190673828
55;1673305687.3761108;47.1306423;7.2406204;4.220000267028809;1673305687.361487;-6.107900142669678;9.589008331298828;88.3780746459961
56;1673305687.5662067;47.1306423;7.2406204999999995;4.4170002937316895;1673305687.5496185;-6.2568769454956055;5.514959812164307;88.79801177978516
57;1673305687.7626884;47.1306424;7.2406204999999995;4.616000175476074;1673305687.742088;-6.480445384979248;5.397007942199707;88.73814392089844
58;1673305687.9493706;47.1306423;7.2406204999999995;4.811000347137451;1673305687.9337697;-6.4082794189453125;9.963787078857422;88.19709014892578
59;1673305688.1459854;47.1306422;7.2406204999999995;5.011000156402588;1673305688.1293938;-6.352161884307861;5.770847320556641;88.50408935546875
60;1673305688.3609467;47.1306422;7.2406204999999995;5.215000152587891;1673305688.3384335;-6.579329013824463;4.303956031799316;88.72528076171875
61;1673305688.5713594;47.1306422;7.2406204999999995;5.4210004806518555;1673305688.5508466;-6.493086338043213;9.267619132995605;88.18636322021484
62;1673305688.7971277;47.1306422;7.2406204999999995;5.623000144958496;1673305688.7795265;-6.111438274383545;7.446465492248535;88.34745788574219
63;1673305689.014878;47.1306423;7.2406204999999995;5.828000068664551;1673305688.9972646;-6.330954074859619;4.405597686767578;88.76854705810547
64;1673305689.2100105;47.1306422;7.2406204999999995;6.028000354766846;1673305689.1859937;-6.303812026977539;8.765918731689453;88.45133209228516
65;1673305689.3829234;47.130642099999996;7.2406206;6.2300004959106445;1673305689.370251;-6.2772040367126465;7.906530857086182;88.484130859375
66;1673305689.5615852;47.130641999999995;7.2406206;6.436000347137451;1673305689.5407634;-6.634158134460449;3.7671546936035156;88.92703247070312
67;1673305689.8008406;47.130641999999995;7.2406204999999995;6.641000270843506;1673305689.7871764;-6.679777145385742;7.741592884063721;88.50752258300781
68;1673305690.0208392;47.130642099999996;7.2406204999999995;6.840000152587891;1673305690.0091276;-6.443655490875244;8.894268035888672;88.43255615234375
69;1673305690.1873946;47.1306422;7.2406204;7.043000221252441;1673305690.1707659;-6.815706253051758;4.395898818969727;89.061279296875
70;1673305690.4318676;47.1306423;7.2406204;7.247000217437744;1673305690.3970478;-6.968266010284424;7.18319845199585;88.6318588256836
71;1673305690.6352196;47.130642099999996;7.2406204;7.451000213623047;1673305690.619064;-6.6238508224487305;9.502790451049805;88.1911392211914
72;1673305690.8135815;47.130641999999995;7.2406203;7.654000282287598;1673305690.7979577;-6.667821407318115;4.539003372192383;88.57979583740234
73;1673305691.0189056;47.130641999999995;7.2406203;7.8580002784729;1673305691.0042477;-6.778510570526123;5.662853240966797;88.57270050048828
74;1673305691.243375;47.130641999999995;7.2406203;8.063000679016113;1673305691.2315893;-6.627368927001953;9.492924690246582;88.12066650390625
75;1673305691.4296134;47.130642099999996;7.2406203;8.26300048828125;1673305691.4178998;-6.541927337646484;6.042072772979736;88.50536346435547
76;1673305691.6253371;47.1306422;7.2406203;8.459000587463379;1673305691.6126316;-6.573503017425537;4.948186874389648;88.82391357421875
77;1673305691.839524;47.1306422;7.2406204;8.656000137329102;1673305691.8008394;-6.551299571990967;9.928504943847656;88.32715606689453
78;1673305692.0099366;47.130642099999996;7.2406204;8.857000350952148;1673305691.9952955;-6.515527725219727;6.297079563140869;88.7674331665039
79;1673305692.2153764;47.130642099999996;7.2406204;9.062000274658203;1673305692.189994;-6.809554576873779;4.0258073806762695;89.02638244628906
80;1673305692.373403;47.130642099999996;7.2406204;9.265000343322754;1673305692.3577757;-6.672301769256592;9.027587890625;88.3641586303711
81;1673305692.5488262;47.1306422;7.2406204;9.464000701904297;1673305692.5336475;-6.73932409286499;8.113475799560547;88.55412292480469
82;1673305692.7508938;47.1306423;7.2406204;9.665000915527344;1673305692.7362084;-7.004615783691406;4.403497219085693;88.97418212890625
83;1673305692.9372954;47.1306423;7.2406204999999995;9.866000175476074;1673305692.9186978;-6.819962501525879;8.353919982910156;88.2845230102539
84;1673305693.1598368;47.1306423;7.2406204999999995;10.067000389099121;1673305693.1432626;-6.5806989669799805;8.456000328063965;88.17415618896484
85;1673305693.3661284;47.1306422;7.2406204999999995;10.297000885009766;1673305693.3494825;-6.7662739753723145;3.974849224090576;88.77921295166016
86;1673305693.5655448;47.1306422;7.2406206;10.628000259399414;1673305693.548954;-7.405681610107422;7.075307369232178;88.83573913574219
87;1673305693.813757;47.130642099999996;7.2406209;11.005000114440918;1673305693.7644436;-6.935779571533203;10.138017654418945;88.39823150634766
88;1673305693.9987378;47.130641999999995;7.2406212;11.395000457763672;1673305693.9831226;-6.231098175048828;5.335021018981934;88.83434295654297
89;1673305694.1894426;47.1306419;7.240621399999999;11.790000915527344;1673305694.1757867;-6.112152099609375;4.729263782501221;88.77680206298828
90;1673305694.412541;47.1306418;7.2406216;12.190000534057617;1673305694.3969316;-5.499497413635254;8.816272735595703;88.0008544921875
91;1673305694.6041362;47.1306417;7.240621699999999;12.593000411987305;1673305694.5864317;-5.327394008636475;5.013027191162109;88.44203186035156
92;1673305694.8025517;47.1306417;7.240621699999999;12.994000434875488;1673305694.7859607;-5.353903293609619;3.7932374477386475;88.91108703613281
93;1673305694.9921584;47.1306418;7.2406216;13.397000312805176;1673305694.976543;-5.629931449890137;7.946333885192871;88.56815338134766
94;1673305695.2597017;47.1306419;7.2406215;13.794000625610352;1673305695.248974;-5.9945068359375;7.84882116317749;88.5662841796875
95;1673305695.433284;47.130642099999996;7.2406213;14.187000274658203;1673305695.4215245;-6.443308353424072;4.214426040649414;88.92137908935547
96;1673305695.6160038;47.1306422;7.2406212;14.577000617980957;1673305695.5984366;-6.629027843475342;7.83758020401001;88.309814453125
97;1673305695.8193333;47.130642099999996;7.240621099999999;14.965001106262207;1673305695.7939591;-6.4797539710998535;9.2409029006958;88.22742462158203
98;1673305696.0188406;47.130641999999995;7.240621;15.352001190185547;1673305696.0042026;-6.7991623878479;4.352459907531738;88.77629089355469
99;1673305696.2048054;47.130642099999996;7.2406209;15.744000434875488;1673305696.1921163;-6.797386169433594;6.512797832489014;88.7262954711914
100;1673305696.391939;47.130642099999996;7.2406209;16.13800048828125;1673305696.3763251;-6.368810176849365;9.422953605651855;88.23126220703125
101;1673305696.5895054;47.130642099999996;7.2406209;16.530000686645508;1673305696.574834;-6.369160175323486;4.884882926940918;88.61483001708984
102;1673305696.7883523;47.130642099999996;7.2406209;16.920000076293945;1673305696.7697742;-6.4452033042907715;5.547382354736328;88.71553802490234
103;1673305696.978855;47.130641999999995;7.2406209;17.314001083374023;1673305696.9632416;-6.258447170257568;9.55840015411377;88.43563079833984
104;1673305697.1704745;47.1306419;7.2406209;17.707000732421875;1673305697.1499755;-6.405617713928223;5.336613655090332;88.7918701171875
105;1673305697.371658;47.1306419;7.240621;18.100000381469727;1673305697.3570168;-6.461629867553711;4.481860160827637;88.69236755371094
106;1673305697.5475123;47.130641999999995;7.240621;18.494001388549805;1673305697.5332806;-6.256192207336426;9.071382522583008;88.16849517822266
107;1673305697.737745;47.130642099999996;7.240621;18.88300132751465;1673305697.7221165;-6.125653266906738;7.005008220672607;88.59022521972656
108;1673305697.9516883;47.1306422;7.240621;19.273000717163086;1673305697.9335537;-6.309610366821289;4.523721694946289;88.93121337890625
109;1673305698.1921284;47.1306422;7.2406209;19.665000915527344;1673305698.1657116;-6.376035690307617;9.013002395629883;88.39479064941406
110;1673305698.3740501;47.130642099999996;7.2406209;20.062000274658203;1673305698.358401;-6.1205878257751465;7.882661819458008;88.36199188232422
111;1673305698.5900102;47.130642099999996;7.2406209;20.46000099182129;1673305698.5734189;-6.4109697341918945;3.8383636474609375;88.8033218383789
112;1673305698.768922;47.1306422;7.2406209;20.85700035095215;1673305698.7571523;-6.29457426071167;8.377594947814941;88.36817932128906
113;1673305699.0048435;47.1306422;7.240620799999999;21.25200080871582;1673305698.9911518;-6.19046688079834;8.494447708129883;88.38990020751953
114;1673305699.2145877;47.1306422;7.240620799999999;21.64000129699707;1673305699.1947618;-6.346778869628906;3.823011636734009;88.85026550292969
115;1673305699.4240794;47.1306422;7.2406207;22.032001495361328;1673305699.4080622;-6.551817417144775;7.0145063400268555;88.48162841796875
116;1673305699.6279476;47.130642099999996;7.2406207;22.424001693725586;1673305699.613309;-6.456440448760986;8.981871604919434;88.34322357177734
117;1673305699.80603;47.130642099999996;7.2406207;22.82000160217285;1673305699.7833955;-6.507959365844727;4.389005184173584;88.86082458496094
118;1673305700.024726;47.1306422;7.2406207;23.218000411987305;1673305700.0079849;-6.4665350914001465;5.866851806640625;88.64413452148438
119;1673305700.227941;47.1306423;7.2406206;23.617000579833984;1673305700.2133014;-6.161059856414795;9.588800430297852;88.09300994873047
120;1673305700.4192035;47.1306423;7.2406206;24.007001876831055;1673305700.4035895;-6.335063934326172;6.130908489227295;88.54475402832031
121;1673305700.6390727;47.1306424;7.2406204999999995;24.3960018157959;1673305700.6254032;-6.55621862411499;4.9580397605896;88.88863372802734
122;1673305700.8366294;47.1306424;7.2406204999999995;24.790000915527344;1673305700.8189292;-6.42938756942749;9.545609474182129;88.42601776123047
123;1673305701.014962;47.1306424;7.2406204999999995;25.18600082397461;1673305701.0000193;-6.231379508972168;6.875368118286133;88.55596923828125
124;1673305701.214599;47.1306425;7.2406204999999995;25.5830020904541;1673305701.1969898;-6.543493747711182;4.4462761878967285;88.68273162841797
125;1673305701.4116488;47.130642599999995;7.2406204;25.98000144958496;1673305701.3950582;-6.556894779205322;9.025344848632812;88.23546600341797
126;1673305701.6120722;47.130642599999995;7.2406204;26.375001907348633;1673305701.591578;-6.463227272033691;8.442193984985352;88.46538543701172
127;1673305701.794529;47.130642599999995;7.2406204999999995;26.76500129699707;1673305701.7750118;-6.537749290466309;4.189023971557617;88.96841430664062
128;1673305702.0041194;47.1306425;7.2406204;27.156002044677734;1673305701.989309;-6.539479732513428;7.826604843139648;88.39817810058594
129;1673305702.207062;47.1306424;7.2406204;27.55000114440918;1673305702.1836522;-6.261595249176025;8.446667671203613;88.2972640991211
130;1673305702.42264;47.1306424;7.2406203;27.950000762939453;1673305702.4060452;-6.385647296905518;4.252222537994385;88.80609893798828
131;1673305702.6490233;47.1306425;7.2406203;28.352001190185547;1673305702.6216435;-6.475978851318359;7.387633800506592;88.62692260742188
132;1673305702.8356292;47.130642599999995;7.2406203;28.750001907348633;1673305702.8229403;-6.441323757171631;9.510714530944824;88.31608581542969
133;1673305703.0212953;47.130642599999995;7.2406201999999995;29.14200210571289;1673305703.0066702;-6.450560569763184;4.86842679977417;88.7603988647461
134;1673305703.2139974;47.130642599999995;7.2406203;29.538002014160156;1673305703.196428;-6.669445037841797;6.181270599365234;88.6041259765625
135;1673305703.4136615;47.1306425;7.2406203;29.939001083374023;1673305703.3921735;-6.403287410736084;9.798707962036133;88.19448852539062
136;1673305703.579745;47.1306425;7.2406203;30.33700180053711;1673305703.5631526;-6.564655303955078;5.618753433227539;88.6958999633789
137;1673305703.7651923;47.1306425;7.2406203;30.733001708984375;1673305703.7485702;-6.507038116455078;5.332087993621826;88.69904327392578
138;1673305703.9687;47.130642599999995;7.2406201999999995;31.132001876831055;1673305703.948111;-6.246413230895996;9.572953224182129;88.23284149169922
139;1673305704.1825483;47.1306425;7.2406201999999995;31.532001495361328;1673305704.163947;-6.208683490753174;7.332539081573486;88.404541015625
140;1673305704.410973;47.1306425;7.2406201999999995;31.92500114440918;1673305704.3951592;-6.306179523468018;4.24949312210083;88.83567810058594
141;1673305704.6213257;47.1306424;7.2406201999999995;32.32200241088867;1673305704.6057117;-6.504636287689209;8.90198802947998;88.49080657958984
142;1673305704.8109272;47.1306423;7.2406201999999995;32.71900177001953;1673305704.796262;-6.254926681518555;7.6623945236206055;88.49090576171875
143;1673305704.9966416;47.1306424;7.2406201999999995;33.121002197265625;1673305704.980049;-6.584414482116699;4.454099178314209;88.81148529052734
144;1673305705.1853602;47.1306425;7.2406201999999995;33.52300262451172;1673305705.1697347;-6.582136154174805;7.606897354125977;88.52001953125
145;1673305705.3857427;47.1306425;7.2406201;33.928001403808594;1673305705.367211;-6.506524562835693;9.522119522094727;88.33242797851562
146;1673305705.5935698;47.1306425;7.2406201999999995;34.32600021362305;1673305705.577971;-6.520483493804932;4.6398844718933105;88.93630981445312
147;1673305705.7872536;47.1306425;7.2406201;34.72700119018555;1673305705.7745664;-6.691349029541016;6.5730438232421875;88.55142211914062
148;1673305705.9766223;47.1306425;7.2406201999999995;35.12800216674805;1673305705.9579606;-6.3965606689453125;9.712920188903809;88.08501434326172
149;1673305706.1828284;47.1306425;7.2406201999999995;35.53000259399414;1673305706.1672132;-6.432978630065918;5.34566593170166;88.58876037597656
150;1673305706.4251075;47.1306425;7.2406201;35.928001403808594;1673305706.3918695;-6.613732814788818;5.587490558624268;88.80315399169922
151;1673305706.670491;47.130642599999995;7.2406201999999995;36.32600021362305;1673305706.6197562;-6.329489231109619;9.645455360412598;88.39309692382812
152;1673305706.8705084;47.1306425;7.2406201999999995;36.72600173950195;1673305706.8465068;-6.391881942749023;6.88394021987915;88.5821533203125
153;1673305707.056703;47.1306425;7.2406201999999995;37.12200164794922;1673305707.0440302;-6.630146026611328;4.279876232147217;88.80113983154297
154;1673305707.2673774;47.1306424;7.2406201999999995;37.52300262451172;1673305707.2317042;-6.545990467071533;8.8266019821167;88.22264099121094
155;1673305707.45737;47.1306424;7.2406201999999995;37.92900085449219;1673305707.4427445;-6.564169406890869;7.3107991218566895;88.45572662353516
156;1673305707.6471126;47.1306425;7.2406201999999995;38.3380012512207;1673305707.6314964;-6.571330547332764;4.093509197235107;88.8938217163086
157;1673305707.877265;47.130642699999996;7.2406201999999995;38.74400329589844;1673305707.8655524;-6.603185176849365;7.939229488372803;88.36321258544922
158;1673305708.0447826;47.1306428;7.2406203;39.147003173828125;1673305708.0311184;-6.2281999588012695;9.879812240600586;88.19327545166016
159;1673305708.2081704;47.1306428;7.2406203;39.54300308227539;1673305708.1944754;-6.148741245269775;5.561159133911133;88.6430892944336
160;1673305708.3847551;47.1306428;7.2406203;39.94000244140625;1673305708.3700767;-6.299937725067139;6.163118839263916;88.64533233642578
161;1673305708.5745463;47.1306428;7.2406203;40.34100341796875;1673305708.5573967;-6.364923477172852;9.976693153381348;88.29841613769531
162;1673305708.7660043;47.130642699999996;7.2406203;40.742000579833984;1673305708.7503533;-6.374598979949951;6.223922252655029;88.85309600830078
163;1673305708.9800255;47.1306428;7.2406203;41.14600372314453;1673305708.9472425;-6.660527229309082;5.048089027404785;88.8525161743164
164;1673305709.1719067;47.1306429;7.2406203;41.547000885009766;1673305709.1547744;-6.356983184814453;9.484928131103516;88.2391586303711
165;1673305709.3663702;47.1306429;7.2406204;41.94200134277344;1673305709.350735;-6.169783115386963;7.731396198272705;88.41002655029297
166;1673305709.5658264;47.1306428;7.2406204;42.33300018310547;1673305709.5476165;-6.288010597229004;4.6839799880981445;88.95537567138672
167;1673305709.7616134;47.130642699999996;7.2406203;42.730003356933594;1673305709.7449706;-6.394907474517822;8.390265464782715;88.44284057617188
168;1673305709.9590597;47.130642599999995;7.2406203;43.134002685546875;1673305709.9414873;-6.212679862976074;8.37111759185791;88.27421569824219
169;1673305710.1678622;47.130642599999995;7.2406203;43.538002014160156;1673305710.146765;-6.414396286010742;4.345499515533447;88.77101135253906
170;1673305710.3935683;47.130642699999996;7.2406203;43.94000244140625;1673305710.372126;-6.4748992919921875;7.39954137802124;88.49658203125
171;1673305710.606539;47.130642699999996;7.2406203;44.342002868652344;1673305710.5909247;-6.431453227996826;9.460845947265625;88.39894104003906
172;1673305710.803979;47.1306428;7.2406201999999995;44.7390022277832;1673305710.7844603;-6.648528575897217;5.036033630371094;88.9188461303711
173;1673305711.0031114;47.1306428;7.2406201999999995;45.13900375366211;1673305710.9855099;-6.772787094116211;5.877274513244629;88.62913513183594
174;1673305711.2025971;47.130642699999996;7.2406201999999995;45.54100036621094;1673305711.18503;-6.359195709228516;9.880436897277832;88.09928894042969
175;1673305711.4038372;47.130642699999996;7.2406201;45.94400405883789;1673305711.386236;-6.392947196960449;5.785860061645508;88.55306243896484
176;1673305711.6011999;47.1306428;7.2406201;46.345001220703125;1673305711.5855818;-6.5668463706970215;5.6666178703308105;88.8220443725586
177;1673305711.7915606;47.1306428;7.2406201;46.74400329589844;1673305711.7769217;-6.620979309082031;9.755167961120605;88.39093780517578
178;1673305712.0018246;47.130642699999996;7.2406201;47.14400100708008;1673305711.987226;-6.41979455947876;6.771238803863525;88.59123992919922
179;1673305712.191841;47.130642699999996;7.2406201;47.538002014160156;1673305712.1761057;-6.606898784637451;4.695527076721191;88.7416000366211
180;1673305712.3922744;47.130642599999995;7.2406201;47.93400192260742;1673305712.3727083;-6.496340274810791;9.205116271972656;88.13433074951172
181;1673305712.596373;47.1306425;7.2406201;48.30000305175781;1673305712.5797155;-6.668447017669678;7.093844890594482;88.69390106201172
182;1673305712.808734;47.130642599999995;7.24062;48.61600112915039;1673305712.7921429;-6.79808235168457;5.488410472869873;88.94463348388672
183;1673305712.9978278;47.130642699999996;7.2406198999999996;48.884002685546875;1673305712.9822118;-6.657776832580566;8.868678092956543;88.42729187011719
184;1673305713.208327;47.130642699999996;7.240619799999999;49.10600280761719;1673305713.1917365;-6.824625492095947;7.92376184463501;88.50363159179688
185;1673305713.4161444;47.1306428;7.2406196;49.28200149536133;1673305713.4015038;-7.148478031158447;4.4083733558654785;88.89713287353516
186;1673305713.6853795;47.130642699999996;7.2406193;49.419002532958984;1673305713.6585019;1.8355097770690918;12.538068771362305;87.81402587890625
187;1673305713.8810272;47.1306424;7.2406185;49.499000549316406;1673305713.8677962;8.071418762207031;22.226531982421875;78.20159912109375
188;1673305714.0485878;47.1306417;7.2406171;49.56100082397461;1673305714.0349183;-4.8366827964782715;9.663689613342285;64.71704864501953
189;1673305714.24431;47.130641;7.240615699999999;49.61000061035156;1673305714.2193508;3.071587562561035;10.730537414550781;56.00005340576172
190;1673305714.4403996;47.130640199999995;7.2406142;49.64800262451172;1673305714.424405;3.1013333797454834;10.61986255645752;47.347679138183594
191;1673305714.6576357;47.1306394;7.2406125999999995;49.676002502441406;1673305714.64324;3.3824334144592285;8.699328422546387;38.520111083984375
192;1673305714.8313322;47.130638499999996;7.240611299999999;49.69400405883789;1673305714.815717;4.134615421295166;9.308239936828613;29.299819946289062
193;1673305715.035379;47.1306377;7.240610299999999;49.707000732421875;1673305715.0232527;4.105704307556152;10.92345905303955;20.441268920898438
194;1673305715.2144587;47.130637;7.240609699999999;49.71800231933594;1673305715.200529;4.1096649169921875;12.12984561920166;11.635553359985352
195;1673305715.4115396;47.1306364;7.240609399999999;49.72900390625;1673305715.3903842;4.255870342254639;11.790058135986328;2.794762134552002
196;1673305715.6143472;47.130635999999996;7.2406092;49.742000579833984;1673305715.596235;5.9940032958984375;7.995599269866943;-5.902754306793213
197;1673305715.8121781;47.1306357;7.240609;49.75700378417969;1673305715.7942781;7.599038600921631;2.374640941619873;-15.259163856506348
198;1673305715.999375;47.1306355;7.2406087999999995;49.768001556396484;1673305715.9835565;8.836368560791016;2.778693914413452;-23.2171688079834
199;1673305716.2013834;47.1306355;7.240608399999999;49.78400421142578;1673305716.1797543;9.197465896606445;3.84167218208313;-31.855358123779297
200;1673305716.3974981;47.1306357;7.240607799999999;49.80400085449219;1673305716.3826423;8.525938987731934;3.751553773880005;-40.16843795776367
201;1673305716.6131947;47.1306358;7.2406071999999995;49.823001861572266;1673305716.5946517;7.813542366027832;0.39247071743011475;-47.63685989379883
202;1673305716.8065434;47.130635899999994;7.2406066;49.836002349853516;1673305716.789904;8.795650482177734;-2.9254086017608643;-51.652645111083984
203;1673305716.9940705;47.130635899999994;7.240606;49.845001220703125;1673305716.9794304;11.117769241333008;-3.5273730754852295;-51.57109451293945
204;1673305717.1785219;47.1306358;7.2406055;49.85200119018555;1673305717.1643107;12.183328628540039;-0.8587661981582642;-49.5042610168457
205;1673305717.3670416;47.1306356;7.2406052;49.85000228881836;1673305717.351424;11.540837287902832;2.319329023361206;-47.03681182861328
206;1673305717.5649104;47.1306356;7.240604899999999;49.85200119018555;1673305717.549129;10.131732940673828;3.8727824687957764;-45.77079772949219
207;1673305717.7590811;47.1306357;7.2406047;49.85900115966797;1673305717.7414553;9.505908966064453;-0.3601326644420624;-45.49901580810547
208;1673305717.977165;47.1306357;7.2406045;49.867000579833984;1673305717.9609547;10.162203788757324;-1.1149202585220337;-45.83267593383789
209;1673305718.170406;47.1306356;7.2406044;49.87300109863281;1673305718.1536016;12.171939849853516;-1.628646969795227;-46.30155563354492
210;1673305718.3667264;47.1306355;7.2406045;49.87800216674805;1673305718.3510387;12.442957878112793;-0.061781831085681915;-46.219844818115234
211;1673305718.576726;47.130635299999994;7.2406047;49.87600326538086;1673305718.560023;11.073246955871582;2.9115235805511475;-45.71748733520508
212;1673305718.7739542;47.130635399999996;7.240604599999999;49.874000549316406;1673305718.7573555;-11.984707832336426;1.2515889406204224;-45.95539474487305
213;1673305718.9817257;47.1306364;7.240602999999999;49.85300064086914;1673305718.9662414;-43.6044807434082;4.3411736488342285;-48.32758712768555
214;1673305719.1877866;47.130639099999996;7.240599;49.78900146484375;1673305719.1692991;-40.7216796875;-0.6037738919258118;-47.40388107299805
215;1673305719.3957403;47.1306434;7.2405924;49.70900344848633;1673305719.3794148;-29.801677703857422;-3.653278112411499;-45.96757125854492
216;1673305719.593651;47.130648799999996;7.2405839;49.63800048828125;1673305719.5787227;-25.00530242919922;-2.7818634510040283;-45.555198669433594
217;1673305719.797672;47.130655;7.240573899999999;49.59100341796875;1673305719.7768226;-27.56077003479004;-1.4026172161102295;-45.607513427734375
218;1673305720.008586;47.1306619;7.240562199999999;49.56700134277344;1673305719.990828;-33.979984283447266;-0.637067437171936;-45.808956146240234
219;1673305720.1855285;47.1306698;7.2405485999999994;49.570003509521484;1673305720.1710951;-40.379791259765625;-2.0437612533569336;-45.37262725830078
220;1673305720.388562;47.1306787;7.240533;49.599002838134766;1673305720.3710806;-45.62485885620117;-2.1678895950317383;-45.628543853759766
221;1673305720.6076298;47.1306891;7.240514999999999;49.656002044677734;1673305720.5883944;-51.095848083496094;0.13956329226493835;-46.89494323730469
222;1673305720.8205466;47.1307014;7.2404943;49.73600387573242;1673305720.8076413;-58.417179107666016;2.4726016521453857;-47.07073211669922
223;1673305721.0224986;47.1307159;7.2404706999999995;49.81100082397461;1673305721.0087411;-60.538414001464844;2.8689308166503906;-47.20489501953125
224;1673305721.209313;47.1307322;7.240444699999999;49.85200119018555;1673305721.193678;-58.12649154663086;2.420366048812866;-46.86039352416992
225;1673305721.4184568;47.1307499;7.2404167;49.87800216674805;1673305721.405672;-54.70848846435547;2.1797728538513184;-46.59452819824219
226;1673305721.60895;47.130768599999996;7.2403872;49.887001037597656;1673305721.5894234;-54.425594329833984;1.3611738681793213;-46.416316986083984
227;1673305721.8021398;47.1307881;7.240356599999999;49.871002197265625;1673305721.7806692;-52.97186279296875;-0.3351982831954956;-45.93064498901367
228;1673305721.9999003;47.130807999999995;7.2403251;49.849002838134766;1673305721.9851074;-48.83769989013672;-0.45038649439811707;-45.934818267822266
229;1673305722.1844962;47.130828199999996;7.2402931;49.833003997802734;1673305722.167618;-47.407047271728516;-1.4716033935546875;-45.83107376098633
230;1673305722.3795822;47.1308484;7.240260999999999;49.84100341796875;1673305722.3636343;-30.74969482421875;3.935777187347412;-48.13520050048828
231;1673305722.59641;47.1308675;7.240230899999999;49.85200119018555;1673305722.5709255;13.493610382080078;6.240531921386719;-44.77467346191406
232;1673305722.8004367;47.1308848;7.240203999999999;49.72700119018555;1673305722.7825353;28.928058624267578;3.9433586597442627;-46.22834396362305
233;1673305722.9834263;47.1308997;7.2401811;49.50100326538086;1673305722.9676425;17.303560256958008;0.6537989974021912;-46.66204071044922
234;1673305723.181393;47.130912099999996;7.2401623;49.342002868652344;1673305723.1652086;15.28041934967041;0.0015563828637823462;-46.877845764160156
235;1673305723.3840597;47.1309219;7.2401475;49.358001708984375;1673305723.359552;35.889102935791016;0.251187264919281;-47.47629928588867
236;1673305723.610503;47.1309288;7.2401374999999994;49.454002380371094;1673305723.581435;49.281375885009766;-0.7006605267524719;-48.250728607177734
237;1673305723.8036916;47.1309318;7.2401333999999995;49.59700393676758;1673305723.789721;57.57675552368164;-1.1707510948181152;-47.75924301147461
238;1673305723.9997315;47.1309317;7.2401344;49.72300338745117;1673305723.9844015;58.28435134887695;-0.21615606546401978;-47.305423736572266
239;1673305724.1944373;47.1309289;7.2401393999999994;49.816001892089844;1673305724.1793966;55.91179656982422;-0.042083270847797394;-46.76744842529297
240;1673305724.3907733;47.130924099999994;7.2401477;49.88300323486328;1673305724.3731947;50.16999816894531;-0.6928656101226807;-46.65841293334961
241;1673305724.5900927;47.1309179;7.240157699999999;49.90800094604492;1673305724.5734978;38.96138381958008;-0.39940598607063293;-46.46674728393555
242;1673305724.7903473;47.1309112;7.2401684;49.913002014160156;1673305724.773738;24.11435890197754;-0.9168376922607422;-46.728694915771484
243;1673305724.9906635;47.1309045;7.2401786999999995;49.900001525878906;1673305724.975043;7.382546901702881;-0.3149600028991699;-46.796417236328125
244;1673305725.2037027;47.1308988;7.2401874;49.884002685546875;1673305725.1852958;-5.98337984085083;2.6514170169830322;-46.32743453979492
245;1673305725.3936775;47.1308942;7.2401943;49.86000061035156;1673305725.3770757;-8.098917007446289;-0.13811138272285461;-47.157684326171875
246;1673305725.5871778;47.1308905;7.2401998;49.84100341796875;1673305725.5695915;10.970165252685547;-1.8354066610336304;-46.438026428222656
247;1673305725.787466;47.1308873;7.240204599999999;49.84800338745117;1673305725.771842;15.079726219177246;-3.1866676807403564;-46.10831069946289
248;1673305725.9859242;47.1308843;7.2402089;49.86000061035156;1673305725.9693296;11.741379737854004;2.497692823410034;-45.452083587646484
249;1673305726.1840017;47.130881699999996;7.2402125999999996;49.87700271606445;1673305726.1683648;1.9923174381256104;1.0635342597961426;-46.082061767578125
250;1673305726.377442;47.1308797;7.2402153;49.893001556396484;1673305726.360852;6.3770952224731445;1.5820623636245728;-46.308631896972656
251;1673305726.573884;47.130877899999994;7.240217599999999;49.90800094604492;1673305726.5563164;19.739723205566406;-6.235706806182861;-47.09995651245117
252;1673305726.7712817;47.130876099999995;7.2402197;49.656002044677734;1673305726.753642;11.348691940307617;-29.402456283569336;-47.714351654052734
253;1673305726.968674;47.1308745;7.2402216;49.03600311279297;1673305726.9510632;-1.5316652059555054;-50.53119659423828;-40.956642150878906
254;1673305727.1719196;47.130873099999995;7.2402234;48.04500198364258;1673305727.154354;-14.42225456237793;-68.22663116455078;-25.37798500061035
255;1673305727.3678186;47.1308718;7.2402253;46.68300247192383;1673305727.3521929;-24.310924530029297;-79.61438751220703;-3.1986825466156006
256;1673305727.5765705;47.130870599999994;7.2402273;44.957000732421875;1673305727.5580268;-32.04336166381836;-78.99893951416016;18.843721389770508
257;1673305727.799477;47.130869499999996;7.2402292;42.85100173950195;1673305727.7779653;-37.41337585449219;-60.71248245239258;33.96265411376953
258;1673305728.01371;47.1308681;7.2402313;40.38500213623047;1673305727.9916897;-41.1898078918457;-23.5140438079834;35.96591567993164
259;1673305728.212037;47.1308666;7.2402332;37.552001953125;1673305728.191979;-30.20368194580078;17.937833786010742;32.533485412597656
260;1673305728.4454954;47.1308651;7.240234699999999;34.34600067138672;1673305728.4278843;-8.982672691345215;39.748958587646484;41.5896110534668
261;1673305728.6410103;47.1308638;7.2402358;30.777002334594727;1673305728.6203315;13.69129753112793;38.316062927246094;55.510467529296875
262;1673305728.8208044;47.130862799999996;7.2402368;26.84800148010254;1673305728.8017178;30.789705276489258;12.093619346618652;62.25965118408203
263;1673305729.000931;47.130862199999996;7.2402378999999994;22.527000427246094;1673305728.9843566;32.73850631713867;-28.70037078857422;61.961063385009766
264;1673305729.2124054;47.130861499999995;7.2402394999999995;17.84400177001953;1673305729.1962397;19.510143280029297;-51.43894958496094;73.18089294433594
265;1673305729.4127476;47.1308605;7.2402413;12.817000389099121;1673305729.3951488;-0.3718397915363312;-43.83622741699219;92.32667541503906
266;1673305729.600854;47.130859099999995;7.2402429999999995;7.429000377655029;1673305729.5822906;-20.40138053894043;-10.280040740966797;102.07206726074219
267;1673305729.7816002;47.1308577;7.240244199999999;1.6570000648498535;1673305729.7669613;-21.499725341796875;28.53648567199707;102.01402282714844
268;1673305729.9730918;47.1308492;7.2402501;-0.18400001525878906;1673305729.9555058;-15.359817504882812;-6.016604423522949;100.01107025146484
269;1673305730.1706822;47.1308341;7.2402584999999995;-0.6510000228881836;1673305730.154062;-11.859882354736328;12.576824188232422;81.72377014160156
270;1673305730.3671572;47.130816599999996;7.240266999999999;-1.1299999952316284;1673305730.350535;-10.223359107971191;16.42477798461914;82.74610900878906
271;1673305730.5646749;47.1308;7.240275899999999;-1.5790001153945923;1673305730.5480833;-10.038219451904297;15.5482177734375;82.9551010131836
272;1673305730.7630627;47.130782599999996;7.2402859;-2.0290000438690186;1673305730.7464597;-10.012596130371094;14.856010437011719;83.13817596435547
273;1673305730.979117;47.130764199999994;7.2402973;-2.4770002365112305;1673305730.958622;-10.043304443359375;14.360748291015625;83.23212432861328
274;1673305731.2021039;47.130745;7.2403097;-2.9160001277923584;1673305731.1835113;-10.020282745361328;13.9105224609375;83.34391784667969
275;1673305731.411418;47.130725;7.2403233;-3.3470001220703125;1673305731.3942745;-10.024599075317383;13.555196762084961;83.42018127441406
276;1673305731.6103222;47.1307045;7.2403379;-3.767000198364258;1673305731.5948458;-10.09335708618164;13.168070793151855;83.52035522460938
277;1673305731.8157153;47.130683499999996;7.240353799999999;-4.1610002517700195;1673305731.800705;-10.088162422180176;13.250494003295898;83.4873275756836
278;1673305732.031575;47.1306629;7.240369899999999;-4.302000045776367;1673305732.013751;-10.103203773498535;12.989141464233398;83.58000946044922
279;1673305732.2517962;47.1306422;7.2403865;-4.213000297546387;1673305732.2327378;-10.035978317260742;12.661224365234375;83.70147705078125
280;1673305732.432815;47.1306209;7.240404099999999;-3.9830002784729004;1673305732.4145756;-10.040623664855957;12.40485668182373;83.80374908447266
281;1673305732.6289403;47.1305988;7.240422799999999;-3.69100022315979;1673305732.6146533;-10.04365062713623;12.207440376281738;83.87319946289062
282;1673305732.8551764;47.130575799999995;7.2404427;-3.389000177383423;1673305732.8416069;-10.01595401763916;12.061281204223633;83.9393539428711
283;1673305733.0595424;47.1305518;7.240463699999999;-3.1510002613067627;1673305733.0138247;-9.995352745056152;11.92429256439209;84.01448822021484
284;1673305733.2204127;47.130527099999995;7.2404858;-2.9210002422332764;1673305733.2076144;-9.965452194213867;11.784647941589355;84.08161163330078
285;1673305733.409898;47.130501599999995;7.2405089;-2.7100000381469727;1673305733.3925087;-9.980636596679688;11.649377822875977;84.14089965820312
286;1673305733.6225111;47.130475499999996;7.240533;-2.5220000743865967;1673305733.6033974;-9.953751564025879;11.544388771057129;84.20649719238281
287;1673305733.8728006;47.1304486;7.2405582;-2.3630001544952393;1673305733.8267121;-10.005229949951172;11.454386711120605;84.26244354248047
288;1673305734.0467372;47.1304211;7.2405843999999995;-2.2240002155303955;1673305734.0295231;-10.002647399902344;11.358016014099121;84.32227325439453
289;1673305734.2246969;47.130392799999996;7.2406115;-2.119000196456909;1673305734.211572;-9.949511528015137;11.277716636657715;84.35274505615234
290;1673305734.4275823;47.1303639;7.2406397;-2.0199999809265137;1673305734.4087565;-9.956788063049316;11.22998046875;84.39603424072266
291;1673305734.6207607;47.130334399999995;7.240668899999999;-1.9140000343322754;1673305734.6027343;-10.016301155090332;11.16211986541748;84.44154357910156
292;1673305734.8416588;47.1303042;7.240698999999999;-1.8170000314712524;1673305734.8247406;-10.044478416442871;11.170418739318848;84.47309875488281
293;1673305735.012552;47.1302734;7.24073;-1.725000023841858;1673305734.9966094;-10.105674743652344;11.13613224029541;84.5254135131836
294;1673305735.1916292;47.130241899999994;7.2407620999999995;-1.6370000839233398;1673305735.1765835;-10.091876983642578;11.117009162902832;84.5576171875
295;1673305735.3776102;47.130209699999995;7.2407951;-1.558000087738037;1673305735.3627524;-10.093330383300781;11.090360641479492;84.59844970703125
296;1673305735.5737696;47.1302032;7.2408018;-1.4980000257492065;1673305735.5564702;-10.095935821533203;11.023215293884277;84.635986328125
297;;;;;1673305735.75235;-10.095132827758789;10.990886688232422;84.68091583251953
298;;;;;1673305735.953594;-10.095524787902832;10.965693473815918;84.72589874267578
299;;;;;1673305736.1465044;-10.101435661315918;10.952408790588379;84.75025939941406
300;;;;;1673305736.345435;-10.07957935333252;10.920711517333984;84.80885314941406
301;;;;;1673305736.541373;-10.08029842376709;10.92872428894043;84.8354263305664
302;;;;;1673305736.737421;-10.154338836669922;11.200055122375488;84.87579345703125
303;;;;;1673305736.9354906;-10.157424926757812;11.27535629272461;84.91258239746094
