;pos_time;latitude;longitude;altitude;alt_time;pitch;roll;yaw
0;1673366618.7324915;47.1306423;7.2406198999999996;0.0;1673366618.7984421;0.07647696137428284;-0.37768492102622986;90.79327392578125
1;1673366618.939605;47.1306423;7.2406198999999996;0.005000000353902578;1673366619.0067039;0.05137845501303673;-0.08281520009040833;90.65563201904297
2;1673366619.1383655;47.1306423;7.2406198999999996;0.009000000543892384;1673366619.2074955;0.11251111328601837;-0.4392578601837158;90.75150299072266
3;1673366619.3307674;47.1306423;7.24062;0.009000000543892384;1673366619.404749;-0.11454375833272934;-0.1983747035264969;90.59197998046875
4;1673366619.5362852;47.1306423;7.2406201;0.009000000543892384;1673366619.6141033;-0.10059034824371338;-0.2705649137496948;90.59053802490234
5;1673366619.7340698;47.1306424;7.2406201;0.007000000216066837;1673366619.8055952;-0.05395461618900299;-0.3409408926963806;90.68372344970703
6;1673366619.9299254;47.1306424;7.2406201;0.007000000216066837;1673366620.0056267;-0.12834736704826355;-0.5439584851264954;90.71810913085938
7;1673366620.1362975;47.1306424;7.2406201;0.009000000543892384;1673366620.2118444;-0.18900305032730103;-0.5465700030326843;90.55569458007812
8;1673366620.340585;47.1306424;7.24062;0.009000000543892384;1673366620.421855;-0.04426898434758186;-0.0005917269736528397;90.49960327148438
9;1673366620.5492957;47.1306424;7.2406198999999996;-0.0010000000474974513;1673366620.6253061;-0.11144645512104034;-0.3350253105163574;90.6890640258789
10;1673366620.745637;47.1306424;7.240619799999999;-0.003000000026077032;1673366620.8177829;-0.008241234347224236;0.04357205331325531;90.55586242675781
11;1673366620.932422;47.1306424;7.2406198999999996;-0.0010000000474974513;1673366620.9944518;-0.07952719181776047;-0.2770313322544098;90.67742919921875
12;1673366621.121961;47.1306424;7.2406198999999996;-0.004000000189989805;1673366621.197795;0.03125078231096268;-0.19282932579517365;90.7615737915039
13;1673366621.328921;47.1306424;7.2406198999999996;-0.007000000216066837;1673366621.4051135;-0.09632067382335663;-0.17839044332504272;90.58699035644531
14;1673366621.5356798;47.1306424;7.240619799999999;-0.007000000216066837;1673366621.6008735;-0.05237680301070213;-0.10067287087440491;90.56218719482422
15;1673366621.722787;47.1306424;7.240619799999999;-0.005000000353902578;1673366621.796799;0.13309185206890106;-0.14859968423843384;90.5269775390625
16;1673366621.927744;47.1306424;7.240619799999999;-0.00800000037997961;1673366621.997818;0.15416477620601654;-0.7605498433113098;90.7479476928711
17;1673366622.1255586;47.1306424;7.240619799999999;-0.01100000087171793;1673366622.198037;0.09330645203590393;0.0011360639473423362;90.46928405761719
18;1673366622.322673;47.1306424;7.2406198999999996;0.0;1673366622.3990169;0.49611952900886536;-0.15075081586837769;90.4487075805664
19;1673366622.546897;47.1306424;7.24062;0.0010000000474974513;1673366622.6288383;0.17855757474899292;-0.5544215440750122;90.6976089477539
20;1673366622.7479236;47.1306424;7.24062;0.003000000026077032;1673366622.8189254;-0.04549412056803703;0.0905391126871109;90.53338623046875
21;1673366622.9389713;47.1306425;7.2406201;0.0020000000949949026;1673366623.0157945;0.15798036754131317;0.0588640496134758;90.56780242919922
22;1673366623.137902;47.1306425;7.2406201;0.0020000000949949026;1673366623.2138395;0.05332465097308159;-0.032139722257852554;90.47505950927734
23;1673366623.343879;47.1306425;7.2406201;0.006000000052154064;1673366623.4198358;0.19324155151844025;0.1640704870223999;90.81513214111328
24;1673366623.5408938;47.1306425;7.2406201;0.010000000707805157;1673366623.6105711;0.18161073327064514;0.3247877359390259;90.9330062866211
25;1673366623.7366815;47.1306425;7.2406201;0.018000001087784767;1673366623.8047168;0.4047683775424957;-0.20897135138511658;90.62308502197266
26;1673366623.942728;47.1306424;7.24062;0.026000000536441803;1673366624.0138085;2.2388503551483154;-0.0412302128970623;90.79694366455078
27;1673366624.1492498;47.1306424;7.2406198999999996;0.03200000151991844;1673366624.220356;3.3333401679992676;0.029441822320222855;89.28392028808594
28;1673366624.3439403;47.1306424;7.240619499999999;0.029000001028180122;1673366624.405837;-4.487799644470215;0.43389198184013367;87.51986694335938
29;1673366624.5737023;47.1306424;7.2406188;0.04700000211596489;1673366624.6521037;-9.768209457397461;0.7452363967895508;86.49957275390625
30;1673366624.8109424;47.1306424;7.2406182;0.07700000703334808;1673366624.8698118;-11.69943904876709;-0.1065690889954567;87.3530502319336
31;1673366625.0398023;47.1306425;7.240617599999999;0.12600000202655792;1673366625.1093235;-11.675799369812012;-0.8405183553695679;88.129150390625
32;1673366625.2347643;47.1306425;7.2406172;0.1900000125169754;1673366625.2899268;-11.911023139953613;3.1260077953338623;87.53141784667969
33;1673366625.414054;47.1306425;7.2406171;0.2670000195503235;1673366625.4774978;-12.300853729248047;1.3986529111862183;87.64958953857422
34;1673366625.5903547;47.1306423;7.240617299999999;0.367000013589859;1673366625.651003;-11.47342586517334;-3.8518505096435547;88.76163482666016
35;1673366625.767473;47.1306422;7.240617599999999;0.4820000231266022;1673366625.8481257;-10.6859769821167;-1.186697244644165;88.46725463867188
36;1673366625.993654;47.130641999999995;7.2406182;0.6130000352859497;1673366626.0746713;-9.652615547180176;1.8963408470153809;88.24581146240234
37;1673366626.2036324;47.1306419;7.2406187;0.7560000419616699;1673366626.2658246;-8.668756484985352;-2.7276546955108643;89.07198333740234
38;1673366626.3835378;47.130642099999996;7.240619199999999;0.9120000600814819;1673366626.4775574;-8.160004615783691;-3.6858084201812744;89.3695068359375
39;1673366626.6286566;47.1306424;7.2406196;1.0810000896453857;1673366626.7034342;-8.117722511291504;2.5725910663604736;88.96791076660156
40;1673366626.802558;47.130642699999996;7.240619799999999;1.2660000324249268;1673366626.8622332;-8.00065803527832;2.535773277282715;89.03125
41;1673366626.979392;47.1306429;7.2406198999999996;1.4540001153945923;1673366627.0536637;-8.148307800292969;-1.8502957820892334;87.24730682373047
42;1673366627.174502;47.130643199999994;7.2406198999999996;1.6450001001358032;1673366627.2522626;-8.234676361083984;1.1481293439865112;87.6347885131836
43;1673366627.3872895;47.130643199999994;7.2406198999999996;1.8380000591278076;1673366627.4566321;-8.566122055053711;3.500702381134033;87.45707702636719
44;1673366627.5704844;47.130643;7.240619799999999;2.0300002098083496;1673366627.6501157;-9.032242774963379;-0.3465929925441742;88.00192260742188
45;1673366627.7879;47.130642699999996;7.2406196;2.2240002155303955;1673366627.8508992;-9.410394668579102;-3.3170225620269775;88.7298812866211
46;1673366627.9817371;47.130642599999995;7.240619499999999;2.4180002212524414;1673366628.049615;-9.769936561584473;0.033953957259655;88.19749450683594
47;1673366628.1750793;47.1306425;7.2406194;2.614000082015991;1673366628.2390838;-9.533374786376953;1.9197838306427002;87.81135559082031
48;1673366628.3665109;47.1306425;7.2406194;2.80400013923645;1673366628.4363885;-9.631319999694824;-1.9692165851593018;88.37918090820312
49;1673366628.5599532;47.130642599999995;7.2406194;3.001000165939331;1673366628.6289318;-9.710659980773926;-1.7491260766983032;88.03804779052734
50;1673366628.755385;47.130642599999995;7.2406194;3.196000099182129;1673366628.8279662;-9.654629707336426;2.742198944091797;87.45613098144531
51;1673366628.9619052;47.1306425;7.240619499999999;3.392000198364258;1673366629.0287898;-9.449061393737793;-0.9953963756561279;87.93758392333984
52;1673366629.1571949;47.1306423;7.240619499999999;3.5920002460479736;1673366629.2289636;-9.462870597839355;-3.367757558822632;88.19178009033203
53;1673366629.3418055;47.1306422;7.240619499999999;3.7960002422332764;1673366629.434084;-9.595515251159668;1.185793399810791;87.64845275878906
54;1673366629.5547438;47.1306422;7.2406196;3.995000123977661;1673366629.6206026;-9.348997116088867;1.4942388534545898;87.62930297851562
55;1673366629.7471063;47.1306423;7.2406197;4.197000026702881;1673366629.8136034;-9.310300827026367;-2.0456602573394775;88.23973846435547
56;1673366629.9533777;47.1306424;7.2406197;4.398000240325928;1673366630.027145;-9.288042068481445;-1.4435057640075684;88.22256469726562
57;1673366630.1526585;47.1306424;7.240619799999999;4.6020002365112305;1673366630.2411194;-9.131312370300293;2.7300491333007812;87.56423950195312
58;1673366630.3618555;47.1306423;7.240619799999999;4.807000160217285;1673366630.4238813;-9.126986503601074;-0.1778765618801117;87.80350494384766
59;1673366630.5522728;47.1306422;7.240619799999999;5.011000156402588;1673366630.6211298;-9.27493667602539;-3.2812740802764893;88.15510559082031
60;1673366630.743674;47.1306422;7.240619799999999;5.217000484466553;1673366630.8101573;-9.596890449523926;0.7717834711074829;87.560302734375
61;1673366630.9419603;47.1306422;7.240619799999999;5.419000148773193;1673366631.016694;-9.317460060119629;1.6575331687927246;87.46903228759766
62;1673366631.15681;47.1306422;7.240619799999999;5.62600040435791;1673366631.2324846;-9.362746238708496;-2.4224650859832764;88.28634643554688
63;1673366631.3638341;47.1306423;7.240619799999999;5.831000328063965;1673366631.4492824;-9.595113754272461;-0.42810508608818054;88.16175079345703
64;1673366631.56112;47.1306424;7.240619799999999;6.034000396728516;1673366631.6253207;-9.262114524841309;3.3061556816101074;87.52853393554688
65;1673366631.7454958;47.1306424;7.2406198999999996;6.237000465393066;1673366631.8202183;-9.298645973205566;-0.3747756779193878;87.95962524414062
66;1673366631.949454;47.1306422;7.2406198999999996;6.439000129699707;1673366632.0169413;-9.319890975952148;-3.3227055072784424;88.3223876953125
67;1673366632.134815;47.130642099999996;7.240619799999999;6.63800048828125;1673366632.1998138;-9.484715461730957;0.95066899061203;87.531005859375
68;1673366632.3401678;47.130641999999995;7.240619799999999;6.835000514984131;1673366632.417853;-9.40239143371582;1.815348505973816;87.49506378173828
69;1673366632.5541437;47.1306419;7.240619799999999;7.0370001792907715;1673366632.623125;-9.474627494812012;-3.0958707332611084;88.26543426513672
70;1673366632.750112;47.130641999999995;7.240619799999999;7.240000247955322;1673366632.8167043;-9.530037879943848;-0.9167835712432861;87.8210678100586
71;1673366632.9482136;47.1306422;7.240619799999999;7.446000576019287;1673366633.0288873;-9.436808586120605;3.1151888370513916;87.3763427734375
72;1673366633.1572614;47.1306423;7.240619799999999;7.656000137329102;1673366633.2222393;-9.454846382141113;0.054582156240940094;87.91046905517578
73;1673366633.4291403;47.1306422;7.2406197;7.866000175476074;1673366633.4816697;-9.646780967712402;-2.851048707962036;88.19068145751953
74;1673366633.6037564;47.1306422;7.2406197;8.070000648498535;1673366633.6593945;-9.612579345703125;1.5150669813156128;87.82292938232422
75;1673366633.7673519;47.1306422;7.2406196;8.273000717163086;1673366633.8344443;-9.76534366607666;1.9340513944625854;87.6392822265625
76;1673366633.9560149;47.130642099999996;7.2406196;8.476000785827637;1673366634.0200016;-9.607035636901855;-2.63236403465271;88.10848236083984
77;1673366634.1476169;47.130642099999996;7.2406196;8.683000564575195;1673366634.2195623;-9.717292785644531;-1.442936897277832;88.2241439819336
78;1673366634.3421066;47.1306423;7.2406196;8.88900089263916;1673366634.4080384;-9.717182159423828;3.290670871734619;87.53121185302734
79;1673366634.529673;47.1306424;7.2406197;9.096000671386719;1673366634.6034818;-9.475226402282715;-0.10686837881803513;87.7131576538086
80;1673366634.7319279;47.1306424;7.2406197;9.300000190734863;1673366634.806747;-9.5860013961792;-2.144955635070801;88.3014907836914
81;1673366634.9380941;47.1306425;7.2406197;9.499000549316406;1673366635.0089211;-9.696746826171875;2.0738041400909424;87.6191177368164
82;1673366635.132762;47.1306424;7.240619799999999;9.696000099182129;1673366635.20466;-9.386198043823242;1.4307657480239868;87.4413070678711
83;1673366635.3412201;47.1306422;7.2406198999999996;9.896000862121582;1673366635.4149601;-9.61551284790039;-2.570415735244751;88.22914123535156
84;1673366635.54256;47.1306422;7.2406198999999996;10.104000091552734;1673366635.6192453;-9.480428695678711;-1.2565380334854126;88.17250061035156
85;1673366635.7537239;47.1306422;7.24062;10.347000122070312;1673366635.8261611;-9.991453170776367;2.145336151123047;87.50985717773438
86;1673366635.95603;47.1306423;7.2406201999999995;10.682000160217285;1673366636.028831;-10.864025115966797;0.7691352367401123;87.5733871459961
87;1673366636.1442437;47.1306423;7.2406204999999995;11.058000564575195;1673366636.2101932;-9.733643531799316;-2.6961472034454346;88.22845458984375
88;1673366636.3542318;47.1306425;7.2406209;11.451000213623047;1673366636.4300158;-8.970005989074707;0.49171558022499084;87.83368682861328
89;1673366636.5576425;47.1306425;7.2406212;11.851000785827637;1673366636.625654;-8.167520523071289;2.8947393894195557;87.44464111328125
90;1673366636.7534027;47.1306424;7.240621399999999;12.25100040435791;1673366636.8262842;-7.867649078369141;-1.5519053936004639;88.0511703491211
91;1673366636.961471;47.1306423;7.2406215;12.653000831604004;1673366637.024107;-8.01282787322998;-2.5791263580322266;88.10761260986328
92;1673366637.1531365;47.1306423;7.2406215;13.054000854492188;1673366637.2176993;-8.074124336242676;1.6155004501342773;87.64148712158203
93;1673366637.3493326;47.1306423;7.2406213;13.454000473022461;1673366637.4270554;-8.482378959655762;1.5185377597808838;87.69482421875
94;1673366637.5596037;47.1306424;7.2406212;13.857000350952148;1673366637.628558;-8.621036529541016;-1.9344291687011719;88.09805297851562
95;1673366637.754138;47.1306425;7.2406209;14.254000663757324;1673366637.825773;-9.299318313598633;-0.1529095619916916;88.05587005615234
96;1673366637.9567518;47.130642599999995;7.2406207;14.652000427246094;1673366638.03081;-9.381635665893555;3.2647385597229004;87.44158935546875
97;1673366638.1539576;47.1306425;7.2406206;15.053000450134277;1673366638.2280502;-9.512441635131836;-0.3414500951766968;87.83845520019531
98;1673366638.3426437;47.1306423;7.2406204999999995;15.454000473022461;1673366638.4115603;-9.45079517364502;-3.016610860824585;88.15432739257812
99;1673366638.5458133;47.1306422;7.2406204;15.860000610351562;1673366638.6234527;-9.669418334960938;1.3093498945236206;87.62200927734375
100;1673366638.763571;47.1306422;7.2406204;16.263999938964844;1673366638.8331082;-9.56102180480957;2.157505512237549;87.4682846069336
101;1673366638.9629502;47.1306422;7.2406204;16.668001174926758;1673366639.0308332;-9.434469223022461;-1.9717320203781128;88.03474426269531
102;1673366639.1494691;47.1306423;7.2406204;17.071001052856445;1673366639.2173593;-9.427127838134766;-1.2338931560516357;88.20710754394531
103;1673366639.3379583;47.1306424;7.2406204;17.475000381469727;1673366639.417595;-9.191527366638184;2.8554563522338867;87.55347442626953
104;1673366639.551847;47.1306423;7.2406204999999995;17.881999969482422;1673366639.6236858;-9.19333267211914;0.2185327112674713;87.87351989746094
105;1673366639.7678046;47.1306422;7.2406204999999995;18.288000106811523;1673366639.8342814;-8.910238265991211;-3.119036912918091;88.20465850830078
106;1673366639.9670613;47.130642099999996;7.2406204999999995;18.692001342773438;1673366640.0515382;-9.209108352661133;-0.23847518861293793;87.89474487304688
107;1673366640.189724;47.130641999999995;7.2406204999999995;19.09800148010254;1673366640.2507584;-9.257166862487793;2.3855624198913574;87.49271392822266
108;1673366640.3811014;47.130641999999995;7.2406204999999995;19.505001068115234;1673366640.4519172;-9.04179573059082;-1.806006669998169;88.08203125
109;1673366640.5852757;47.130641999999995;7.2406204999999995;19.91200065612793;1673366640.648277;-9.20202350616455;-2.1401052474975586;88.21359252929688
110;1673366640.782524;47.1306422;7.2406204999999995;20.315000534057617;1673366640.8519225;-9.075233459472656;2.342228889465332;87.60320281982422
111;1673366640.9768836;47.1306424;7.2406204999999995;20.722000122070312;1673366641.0457413;-9.24267578125;1.7195297479629517;87.71842193603516
112;1673366641.16052;47.1306424;7.2406204999999995;21.132001876831055;1673366641.2371836;-9.14432144165039;-2.301300525665283;88.277099609375
113;1673366641.3636281;47.1306424;7.2406204999999995;21.540000915527344;1673366641.4324858;-9.354537010192871;-0.4922793507575989;87.93783569335938
114;1673366641.5725842;47.1306424;7.2406204999999995;21.952001571655273;1673366641.647342;-9.151323318481445;2.648517370223999;87.52345275878906
115;1673366641.7767668;47.1306423;7.2406204999999995;22.36600112915039;1673366641.8461776;-9.257094383239746;-0.7711977958679199;87.88809204101562
116;1673366641.9623563;47.1306423;7.2406204999999995;22.782001495361328;1673366642.0253565;-9.16476058959961;-2.8733551502227783;88.23789978027344
117;1673366642.1566763;47.1306424;7.2406204999999995;23.19700050354004;1673366642.2421257;-9.064852714538574;1.9797251224517822;87.59848022460938
118;1673366642.3686225;47.1306425;7.2406204999999995;23.61100196838379;1673366642.4306638;-9.052130699157715;2.2319400310516357;87.59872436523438
119;1673366642.556114;47.130642599999995;7.2406204;24.016000747680664;1673366642.6278982;-9.344965934753418;-1.9329891204833984;88.20941162109375
120;1673366642.7592165;47.130642699999996;7.2406204;24.42300033569336;1673366642.833996;-9.359456062316895;-0.692258894443512;88.16162109375
121;1673366642.9672518;47.1306428;7.2406203;24.8330020904541;1673366643.0410454;-9.263827323913574;2.9328362941741943;87.48322296142578
122;1673366643.1616666;47.130642699999996;7.2406203;25.23600196838379;1673366643.2266176;-9.333423614501953;0.13845349848270416;87.84737396240234
123;1673366643.3442712;47.130642599999995;7.2406203;25.64000129699707;1673366643.4209373;-9.319021224975586;-2.3895702362060547;88.16983795166016
124;1673366643.5639973;47.130642599999995;7.2406203;26.04400062561035;1673366643.6368382;-9.25236701965332;1.3190624713897705;87.69369506835938
125;1673366643.774;47.130642699999996;7.2406203;26.45100212097168;1673366643.8547194;-9.14174747467041;2.4029557704925537;87.39997100830078
126;1673366643.9821403;47.1306428;7.2406201999999995;26.850000381469727;1673366644.0529706;-9.209525108337402;-1.2123968601226807;88.0615463256836
127;1673366644.1715963;47.1306429;7.2406201999999995;27.253002166748047;1673366644.2492652;-9.519609451293945;-1.4768067598342896;88.12250518798828
128;1673366644.378627;47.1306429;7.2406201;27.655000686645508;1673366644.4562714;-9.47724723815918;2.644882917404175;87.42927551269531
129;1673366644.5846612;47.1306429;7.24062;28.055002212524414;1673366644.6554995;-9.355860710144043;2.2170844078063965;87.80902862548828
130;1673366644.7848864;47.130642699999996;7.24062;28.45400047302246;1673366644.8469603;-9.516438484191895;-2.857762336730957;88.30048370361328
131;1673366644.9929523;47.130642699999996;7.24062;28.858001708984375;1673366645.0637777;-9.471146583557129;-0.14660347998142242;87.83211517333984
132;1673366645.190403;47.130642699999996;7.24062;29.257001876831055;1673366645.2612398;-9.334238052368164;2.951279640197754;87.32788848876953
133;1673366645.3808515;47.130642599999995;7.24062;29.65300178527832;1673366645.4458148;-8.995305061340332;-1.2044254541397095;88.01055145263672
134;1673366645.5683658;47.130642599999995;7.2406201;30.052001953125;1673366645.6314657;-9.291227340698242;-1.8418703079223633;88.25182342529297
135;1673366645.7491643;47.130642699999996;7.2406201;30.453001022338867;1673366645.8240283;-9.291156768798828;1.9662824869155884;87.67848205566406
136;1673366645.9574966;47.130642699999996;7.2406201;30.85700225830078;1673366646.0338728;-9.16029167175293;2.5789921283721924;87.57115173339844
137;1673366646.1614616;47.130642699999996;7.2406201;31.263002395629883;1673366646.2332628;-8.996562004089355;-2.0934112071990967;88.19821166992188
138;1673366646.376426;47.130642599999995;7.2406201;31.66600227355957;1673366646.4413784;-9.373102188110352;-0.8133012652397156;87.91411590576172
139;1673366646.56588;47.130642599999995;7.24062;32.0620002746582;1673366646.638631;-9.4327392578125;3.3916540145874023;87.54901123046875
140;1673366646.7856307;47.1306424;7.24062;32.461002349853516;1673366646.8722277;-9.319598197937012;-0.6156123876571655;87.9461441040039
141;1673366647.0675666;47.1306424;7.2406198999999996;32.86900329589844;1673366647.1159227;-9.501718521118164;-2.28019118309021;88.33709716796875
142;1673366647.2355297;47.1306425;7.2406198999999996;33.27300262451172;1673366647.2882328;-9.542738914489746;1.2115901708602905;87.7171401977539
143;1673366647.427952;47.1306425;7.2406198999999996;33.67399978637695;1673366647.47968;-9.292730331420898;2.9343278408050537;87.58281707763672
144;1673366647.5846612;47.1306425;7.2406198999999996;34.07200241088867;1673366647.644734;-9.347021102905273;-1.3632919788360596;88.11515808105469
145;1673366647.7731223;47.1306425;7.2406198999999996;34.4640007019043;1673366647.8405764;-9.388387680053711;-1.7246736288070679;88.15718841552734
146;1673366647.9733381;47.1306425;7.2406198999999996;34.86000061035156;1673366648.0714662;-9.283942222595215;2.588785171508789;87.59551239013672
147;1673366648.1959534;47.1306424;7.2406198999999996;35.25600051879883;1673366648.2706785;-9.401650428771973;0.972973644733429;87.75123596191406
148;1673366648.3941667;47.1306423;7.2406198999999996;35.65400314331055;1673366648.4600918;-9.381102561950684;-2.5101406574249268;88.35107421875
149;1673366648.5865302;47.1306423;7.2406198999999996;36.053001403808594;1673366648.655383;-9.538451194763184;-0.4427223205566406;87.81169891357422
150;1673366648.7755125;47.1306425;7.2406198999999996;36.45000076293945;1673366648.8478138;-9.29121208190918;3.3402230739593506;87.439453125
151;1673366648.977312;47.130642599999995;7.2406198999999996;36.85300064086914;1673366649.0442314;-9.481339454650879;-0.25383493304252625;87.90796661376953
152;1673366649.1668587;47.130642599999995;7.2406198999999996;37.25200271606445;1673366649.2415285;-9.310659408569336;-1.9201688766479492;88.17259979248047
153;1673366649.3573394;47.130642599999995;7.24062;37.65300369262695;1673366649.4311504;-9.379172325134277;2.0181238651275635;87.63863372802734
154;1673366649.5663674;47.130642599999995;7.24062;38.053001403808594;1673366649.6421835;-9.168303489685059;2.4512522220611572;87.55597686767578
155;1673366649.77554;47.1306425;7.24062;38.45600128173828;1673366649.8483493;-9.42337703704834;-2.2299253940582275;88.06686401367188
156;1673366649.979706;47.1306425;7.24062;38.86000061035156;1673366650.037791;-9.495772361755371;-1.2432961463928223;87.9930191040039
157;1673366650.1565528;47.130642599999995;7.24062;39.2650032043457;1673366650.2225325;-9.355083465576172;2.9704601764678955;87.52851867675781
158;1673366650.3608308;47.130642599999995;7.24062;39.66200256347656;1673366650.4424384;-9.173914909362793;0.42950090765953064;87.89756774902344
159;1673366650.5836174;47.130642699999996;7.24062;40.064002990722656;1673366650.6545165;-9.316468238830566;-2.2987220287323;88.17227172851562
160;1673366650.7918103;47.1306429;7.2406201;40.46600341796875;1673366650.8652494;-9.443933486938477;2.2498514652252197;87.63055419921875
161;1673366650.9981573;47.1306429;7.2406201;40.867000579833984;1673366651.0729506;-9.209593772888184;2.8509747982025146;87.43243408203125
162;1673366651.1975327;47.1306428;7.2406201;41.2660026550293;1673366651.2703025;-9.251996040344238;-1.5898199081420898;88.10287475585938
163;1673366651.3967667;47.1306428;7.2406201;41.66600036621094;1673366651.4656243;-9.430224418640137;-1.5702377557754517;88.0505599975586
164;1673366651.594994;47.1306428;7.2406201;42.066001892089844;1673366651.6609268;-9.416748046875;3.079784631729126;87.57063293457031
165;1673366651.7824948;47.1306428;7.2406201;42.461002349853516;1673366651.8567317;-9.295727729797363;1.6750537157058716;87.65480041503906
166;1673366651.9710686;47.1306428;7.2406201;42.86100387573242;1673366652.0663507;-9.27821159362793;-2.1749727725982666;88.25167083740234
167;1673366652.1869903;47.1306429;7.2406201;43.26100158691406;1673366652.2607589;-9.523310661315918;0.5464794635772705;87.87870788574219
168;1673366652.3872967;47.1306429;7.2406201999999995;43.66100311279297;1673366652.4424903;-9.231093406677246;3.285095691680908;87.37625885009766
169;1673366652.560288;47.130642699999996;7.2406201999999995;44.05900192260742;1673366652.6282449;-9.131302833557129;-1.1451364755630493;88.0626449584961
170;1673366652.7665422;47.130642599999995;7.2406203;44.45900344848633;1673366652.8355207;-9.293612480163574;-2.2352495193481445;88.1866683959961
171;1673366652.9659643;47.1306425;7.2406203;44.85300064086914;1673366653.043632;-9.235413551330566;2.1800498962402344;87.56026458740234
172;1673366653.1671455;47.1306423;7.2406203;45.25200271606445;1673366653.2330844;-9.224836349487305;0.5320221781730652;87.71202850341797
173;1673366653.3664083;47.1306423;7.2406203;45.65400314331055;1673366653.4440324;-9.252224922180176;-2.7318382263183594;88.2391128540039
174;1673366653.5802648;47.1306424;7.2406201999999995;46.05900192260742;1673366653.6540751;-9.503419876098633;0.09908152371644974;87.92339324951172
175;1673366653.8050048;47.1306425;7.2406201999999995;46.46200180053711;1673366653.8836663;-9.349348068237305;3.289667844772339;87.45697784423828
176;1673366654.059562;47.130642599999995;7.2406201;46.86600112915039;1673366654.1333747;-9.345808029174805;0.4776972234249115;87.96605682373047
177;1673366654.2578642;47.130642599999995;7.2406201;47.26900100708008;1673366654.3086236;-9.465009689331055;-2.0375959873199463;88.26277923583984
178;1673366654.4258428;47.1306425;7.24062;47.66600036621094;1673366654.490258;-9.594154357910156;0.48976680636405945;87.67809295654297
179;1673366654.6069503;47.1306425;7.24062;48.06100082397461;1673366654.6680777;-9.723090171813965;3.201268434524536;87.51097106933594
180;1673366654.796505;47.1306424;7.2406198999999996;48.415000915527344;1673366654.8557835;-9.593682289123535;-2.997030735015869;88.11221313476562
181;1673366654.9657938;47.1306425;7.240619799999999;48.715003967285156;1673366655.0297363;-9.850634574890137;-0.8455265164375305;87.95975494384766
182;1673366655.1552038;47.130642599999995;7.2406197;48.9640007019043;1673366655.2328906;-9.857048034667969;2.6305832862854004;87.51886749267578
183;1673366655.363291;47.130642699999996;7.2406196;49.17000198364258;1673366655.4389837;-9.819540023803711;0.7719350457191467;87.77994537353516
184;1673366655.5733018;47.130642699999996;7.2406194;49.33500289916992;1673366655.6480489;-2.819737672805786;1.6231156587600708;87.58313751220703
185;1673366655.7930396;47.130642699999996;7.240619;49.461002349853516;1673366655.8718216;-4.725779056549072;-0.5114239454269409;81.9306869506836
186;1673366656.0002475;47.130642599999995;7.2406181;49.52000045776367;1673366656.0652196;-16.820707321166992;5.456920623779297;70.519775390625
187;1673366656.1809444;47.1306424;7.2406174;49.53300094604492;1673366656.267534;6.2665910720825195;8.36495304107666;61.50421905517578
188;1673366656.3978846;47.1306418;7.2406163999999995;49.54900360107422;1673366656.4617996;0.8633810877799988;8.45642375946045;49.800201416015625
189;1673366656.5782373;47.130640899999996;7.2406149;49.586002349853516;1673366656.6509235;-7.66544246673584;9.787069320678711;40.791900634765625
190;1673366656.7769175;47.1306399;7.2406134;49.62900161743164;1673366656.8459399;-1.9579049348831177;11.005671501159668;31.674009323120117
191;1673366656.9849963;47.130638999999995;7.2406121;49.66400146484375;1673366657.0790486;-4.181027412414551;10.931079864501953;22.676904678344727
192;1673366657.194867;47.1306382;7.2406106999999995;49.69600296020508;1673366657.2587013;-4.154870510101318;10.537915229797363;14.191865921020508
193;1673366657.430032;47.1306376;7.2406093;49.724002838134766;1673366657.4994228;-2.341503143310547;9.952897071838379;5.91967248916626
194;1673366657.6317327;47.1306371;7.240608099999999;49.75300216674805;1673366657.7019417;0.034395407885313034;8.834036827087402;-1.8298169374465942
195;1673366657.8331113;47.130636599999995;7.2406071;49.781002044677734;1673366657.9071348;2.9900906085968018;9.385676383972168;-9.966635704040527
196;1673366658.0419688;47.1306362;7.2406063;49.80800247192383;1673366658.1220012;5.068694591522217;10.071179389953613;-19.168514251708984
197;1673366658.2425954;47.1306357;7.2406057;49.827003479003906;1673366658.3018901;6.358736991882324;10.002653121948242;-28.851728439331055
198;1673366658.4041827;47.1306355;7.2406052999999995;49.84400177001953;1673366658.4659152;7.311581134796143;10.255891799926758;-38.25703430175781
199;1673366658.588024;47.130635299999994;7.2406049999999995;49.86100387573242;1673366658.6531634;7.46095085144043;8.638100624084473;-47.129661560058594
200;1673366658.78324;47.1306352;7.240604899999999;49.87600326538086;1673366658.8510582;7.317579746246338;7.020294666290283;-52.121395111083984
201;1673366658.982039;47.1306351;7.2406047;49.88800048828125;1673366659.0542617;7.871539115905762;4.104208469390869;-51.32058334350586
202;1673366659.191125;47.130634799999996;7.2406045;49.897003173828125;1673366659.2575066;7.994822025299072;4.718338966369629;-48.51754379272461
203;1673366659.4333632;47.1306345;7.2406044;49.906002044677734;1673366659.5013485;8.005586624145508;6.34235143661499;-46.89395523071289
204;1673366659.6170933;47.1306343;7.240604299999999;49.90900421142578;1673366659.6723216;7.2399001121521;8.213976860046387;-46.4902458190918
205;1673366659.7930386;47.130634199999996;7.2406042;49.915000915527344;1673366659.8599994;6.235825061798096;8.978630065917969;-46.79811096191406
206;1673366659.9933722;47.130634099999995;7.240603999999999;49.926002502441406;1673366660.063657;5.42957067489624;7.792375564575195;-46.6828727722168
207;1673366660.18388;47.130634099999995;7.2406036;49.93600082397461;1673366660.249252;5.5131425857543945;7.0392351150512695;-46.490013122558594
208;1673366660.3783798;47.130634;7.2406032;49.94600296020508;1673366660.4525502;7.277486801147461;5.564122676849365;-46.27001953125
209;1673366660.5816665;47.1306339;7.2406028;49.95100402832031;1673366660.6529465;9.068178176879883;7.740135669708252;-45.96425247192383
210;1673366660.781887;47.1306338;7.2406026;49.94900131225586;1673366660.8611252;0.5016133189201355;7.135983943939209;-47.37030029296875
211;1673366661.0214486;47.1306339;7.2406022;49.945003509521484;1673366661.1039293;-31.441640853881836;11.852593421936035;-50.16374206542969
212;1673366661.2216568;47.1306351;7.2406004;49.92400360107422;1673366661.3120387;-47.72254943847656;9.298144340515137;-49.51173782348633
213;1673366661.4122;47.130638;7.2405957;49.8640022277832;1673366661.4747658;-38.80173873901367;2.082839012145996;-46.538875579833984
214;1673366661.6024983;47.1306422;7.2405881999999995;49.78900146484375;1673366661.6654093;-34.769344329833984;-4.3888840675354;-45.02901077270508
215;1673366661.78948;47.1306473;7.2405782;49.72700119018555;1673366661.8657517;-32.568824768066406;-4.615705490112305;-45.16979217529297
216;1673366661.988558;47.130652999999995;7.240565999999999;49.68700408935547;1673366662.0623994;-34.05555725097656;-0.35641399025917053;-45.1452751159668
217;1673366662.2022772;47.1306595;7.2405519;49.672000885009766;1673366662.2646017;-39.997737884521484;2.962372303009033;-44.99286651611328
218;1673366662.3826053;47.130666999999995;7.240535899999999;49.678001403808594;1673366662.4495478;-47.38383102416992;3.3104488849639893;-44.45986557006836
219;1673366662.5746334;47.1306757;7.2405178999999995;49.711002349853516;1673366662.638515;-53.41814041137695;6.295305252075195;-44.97684860229492
220;1673366662.7709816;47.1306862;7.2404978;49.76900100708008;1673366662.8439357;-58.69669723510742;8.847288131713867;-45.2182502746582
221;1673366662.974645;47.130699;7.240475399999999;49.836002349853516;1673366663.0387206;-59.002845764160156;7.497033596038818;-44.419071197509766
222;1673366663.1587439;47.130713899999996;7.2404511;49.8900032043457;1673366663.2378652;-58.228328704833984;6.074303150177002;-44.13607406616211
223;1673366663.3800037;47.130730299999996;7.2404250999999995;49.915000915527344;1673366663.4537728;-56.876731872558594;5.7521772384643555;-44.5246467590332
224;1673366663.5707304;47.130748;7.240397799999999;49.92000198364258;1673366663.6467674;-53.861839294433594;5.6613264083862305;-44.5881462097168
225;1673366663.7727456;47.1307666;7.2403694;49.91100311279297;1673366663.8408253;-50.85894012451172;5.631295680999756;-44.307586669921875
226;1673366663.9807608;47.1307859;7.2403403;49.89600372314453;1673366664.0499353;-49.21867752075195;4.557656764984131;-42.62619400024414
227;1673366664.1620913;47.1308055;7.2403109;49.87200164794922;1673366664.236066;-48.27528381347656;5.248992443084717;-42.98385238647461
228;1673366664.372458;47.1308254;7.2402812;49.85300064086914;1673366664.4536889;-46.59443283081055;8.899442672729492;-43.76021957397461
229;1673366664.587271;47.1308456;7.240251799999999;49.855003356933594;1673366664.6624336;-27.383211135864258;11.471772193908691;-42.49090576171875
230;1673366664.79137;47.1308654;7.2402237;49.87200164794922;1673366664.8661962;18.433258056640625;9.963401794433594;-40.95745086669922
231;1673366664.9952762;47.1308833;7.2401984;49.82500076293945;1673366665.0804975;28.01031494140625;3.294517755508423;-40.704917907714844
232;1673366665.2437148;47.1308989;7.240176;49.592002868652344;1673366665.3315032;18.193296432495117;-0.486754834651947;-44.58317184448242
233;1673366665.476541;47.130911499999996;7.240157;49.33400344848633;1673366665.5333865;16.648874282836914;-0.9469065070152283;-45.61220169067383
234;1673366665.6522157;47.130921199999996;7.2401411;49.176002502441406;1673366665.7065372;14.92614459991455;0.16765247285366058;-45.301998138427734
235;1673366665.8244877;47.1309282;7.240128299999999;49.2140007019043;1673366665.888256;46.388916015625;2.1118409633636475;-46.097694396972656
236;1673366666.011131;47.130932;7.24012;49.34800338745117;1673366666.0784;55.43586349487305;1.7244746685028076;-48.18019485473633
237;1673366666.1960402;47.1309322;7.2401171;49.50800323486328;1673366666.2662845;59.23129653930664;3.1046254634857178;-48.25965118408203
238;1673366666.3854177;47.1309293;7.2401192;49.65500259399414;1673366666.4582736;56.94704818725586;6.4390764236450195;-47.159515380859375
239;1673366666.584396;47.1309239;7.2401254999999995;49.76300048828125;1673366666.6596842;50.70228958129883;9.111680030822754;-46.91712951660156
240;1673366666.8514698;47.130917;7.240134599999999;49.829002380371094;1673366666.9101067;39.137062072753906;11.763201713562012;-46.555545806884766
241;1673366667.023073;47.1309094;7.2401455;49.862003326416016;1673366667.0855386;22.29329490661621;13.456673622131348;-46.61284255981445
242;1673366667.2003434;47.1309019;7.2401569;49.867000579833984;1673366667.2613919;4.282929420471191;12.693593978881836;-46.37569808959961
243;1673366667.3947039;47.1308954;7.2401674;49.86900329589844;1673366667.4664881;-6.267757892608643;9.77031135559082;-47.00168991088867
244;1673366667.5923123;47.1308899;7.240176399999999;49.85900115966797;1673366667.6538467;-13.099346160888672;8.990188598632812;-46.61690902709961
245;1673366667.7725391;47.1308857;7.2401836;49.832000732421875;1673366667.8573017;-11.592060089111328;7.929116725921631;-44.25832748413086
246;1673366667.9800463;47.130882799999995;7.240188799999999;49.802001953125;1673366668.0618718;-3.8807122707366943;4.4244184494018555;-43.204315185546875
247;1673366668.1953928;47.1308808;7.2401922999999995;49.79900360107422;1673366668.2650433;0.5428704619407654;7.200573921203613;-43.5595817565918
248;1673366668.3896823;47.130879199999995;7.2401947;49.82200241088867;1673366668.4634204;4.245306491851807;7.45296049118042;-44.42487335205078
249;1673366668.5830965;47.130877999999996;7.2401965;49.85600280761719;1673366668.651003;8.197513580322266;11.328778266906738;-44.90822219848633
250;1673366668.7754903;47.1308769;7.2401982;49.880001068115234;1673366668.8803177;26.55461883544922;-4.1294026374816895;-46.87998962402344
251;1673366668.9971514;47.1308758;7.2401998;49.6150016784668;1673366669.0614114;40.682979583740234;-40.6822509765625;-59.81105422973633
252;1673366669.1763482;47.130874899999995;7.2402012;48.98600387573242;1673366669.2499926;42.73322296142578;-76.7630386352539;-72.58129119873047
253;1673366669.3736815;47.130874;7.2402025;47.98800277709961;1673366669.4418602;40.22904968261719;-101.5423583984375;-72.53814697265625
254;1673366669.5736644;47.130873199999996;7.2402036;46.624000549316406;1673366669.646424;41.09080123901367;-110.05731964111328;-57.58357238769531
255;1673366669.7855525;47.1308724;7.2402045;44.89800262451172;1673366669.8550267;45.109249114990234;-96.47713470458984;-24.759693145751953
256;1673366669.9899604;47.1308717;7.2402052999999995;42.79500198364258;1673366670.0666325;36.85520553588867;-61.08095932006836;24.712799072265625
257;1673366670.195028;47.130871;7.2402063;40.336002349853516;1673366670.269738;1.2783221006393433;-33.89311218261719;60.46245574951172
258;1673366670.4211702;47.130870099999996;7.2402076;37.492000579833984;1673366670.4924188;-40.95265197753906;-13.01003646850586;76.01409912109375
259;1673366670.6574588;47.130869;7.2402085;34.27300262451172;1673366670.7111416;-63.013790130615234;16.35923957824707;75.85393524169922
260;1673366670.8240492;47.1308678;7.240208999999999;30.709001541137695;1673366670.8825881;-56.61112976074219;33.714759826660156;82.07198333740234
261;1673366671.0114582;47.1308668;7.2402092;26.809001922607422;1673366671.0754304;-23.646638870239258;28.907917022705078;105.52582550048828
262;1673366671.2028475;47.1308661;7.2402089;22.536001205444336;1673366671.2766788;26.02596664428711;21.75524139404297;128.38766479492188
263;1673366671.3972344;47.1308656;7.240208999999999;17.88300132751465;1673366671.4651153;63.863304138183594;19.03101921081543;151.1569366455078
264;1673366671.5876503;47.1308649;7.2402095;12.887001037597656;1673366671.6565063;67.26626586914062;3.0436909198760986;158.90216064453125
265;1673366671.80444;47.1308639;7.2402102;7.574000358581543;1673366671.8782299;30.629680633544922;-11.496319770812988;165.08233642578125
266;1673366672.0169737;47.1308624;7.2402109;1.9070000648498535;1673366672.0940807;-0.9034862518310547;-7.299517631530762;172.546875
267;1673366672.206947;47.1308569;7.2402185;0.17900000512599945;1673366672.26809;-5.586889743804932;-4.894957542419434;163.23504638671875
268;1673366672.3848627;47.1308471;7.2402311;0.23000000417232513;1673366672.4567406;-4.8425421714782715;-9.831400871276855;159.7332305908203
269;1673366672.5911295;47.130836599999995;7.2402454;0.2800000011920929;1673366672.6542854;-4.7388153076171875;-4.864250659942627;160.2613983154297
270;1673366672.7735252;47.130826899999995;7.2402589;0.3160000145435333;1673366672.8532338;-4.604214668273926;-4.29069185256958;160.73680114746094
271;1673366672.991037;47.130818399999995;7.2402714999999995;0.3410000205039978;1673366673.0683749;-4.364336967468262;-3.3379101753234863;161.23838806152344
272;1673366673.1822603;47.1308113;7.240282799999999;0.36100003123283386;1673366673.2493136;-4.149482727050781;-2.5609564781188965;161.6537628173828
273;1673366673.3846629;47.130805599999995;7.2402926999999995;0.3830000162124634;1673366673.4554837;-3.8489367961883545;-2.0108718872070312;162.0017852783203
274;1673366673.5958574;47.1307988;7.2403048;0.39000001549720764;1673366673.6686277;-3.778985023498535;-1.7820942401885986;162.31625366210938
275;1673366673.8029625;47.1307906;7.2403192999999995;0.3880000114440918;1673366673.876858;-3.7698233127593994;-1.7774442434310913;162.58074951171875
276;1673366674.0120878;47.1307816;7.240335399999999;0.37700000405311584;1673366674.0760593;-3.773378849029541;-1.7843496799468994;162.79464721679688
277;1673366674.1956682;47.130772099999994;7.2403526;0.36100003123283386;1673366674.2743657;-3.6844685077667236;-1.906956434249878;162.93820190429688
278;1673366674.3917515;47.130762399999995;7.2403708;0.34200000762939453;1673366674.465458;-3.6910347938537598;-2.115424871444702;163.05923461914062
279;1673366674.592456;47.1307525;7.2403897;0.320000022649765;1673366674.6616979;-3.700364589691162;-2.3096678256988525;163.17453002929688
280;1673366674.7923245;47.130742399999995;7.2404094;0.2990000247955322;1673366674.8671923;-3.6854469776153564;-2.561223268508911;163.25823974609375
281;1673366674.9965062;47.1307322;7.240429799999999;0.2760000228881836;1673366675.0573256;-3.6809017658233643;-2.6775107383728027;163.31613159179688
282;1673366675.1809518;47.1307219;7.2404508;0.24900001287460327;1673366675.249319;-3.7580437660217285;-2.7096199989318848;163.37266540527344
283;1673366675.387368;47.1307116;7.2404724;0.22100001573562622;1673366675.45957;-3.6724438667297363;-2.8929529190063477;163.4052734375
284;1673366675.5803316;47.130701099999996;7.240494699999999;0.19500000774860382;1673366675.6475868;-3.6580958366394043;-3.119830369949341;163.4509735107422
285;1673366675.7764695;47.1306906;7.240517499999999;0.16900001466274261;1673366675.8467164;-3.690453052520752;-3.353978395462036;163.53265380859375
286;1673366675.964388;47.13068;7.2405409999999994;0.1469999998807907;1673366676.0515213;-3.6360890865325928;-3.580749750137329;163.57167053222656
287;1673366676.1844883;47.130669399999995;7.2405650999999995;0.125;1673366676.2565348;-3.616842269897461;-3.818891763687134;163.6272735595703
288;1673366676.391712;47.1306586;7.2405897999999995;0.0950000062584877;1673366676.461548;-3.6173086166381836;-3.989692449569702;163.67440795898438
289;1673366676.5925388;47.1306478;7.240615099999999;0.06700000166893005;1673366676.6655877;-3.5948402881622314;-4.209643363952637;163.7161407470703
290;1673366676.796522;47.1306369;7.240641;0.04200000315904617;1673366676.8784566;-3.610511541366577;-4.401636600494385;163.79197692871094
291;1673366677.001464;47.1306259;7.2406675;0.020000001415610313;1673366677.069391;-3.5759541988372803;-4.579555511474609;163.81594848632812
292;1673366677.1892765;47.1306149;7.2406944;0.0;1673366677.2664769;-3.5574214458465576;-4.787057876586914;163.85824584960938
293;1673366677.392617;47.130603799999996;7.240722;-0.01900000125169754;1673366677.495472;-3.585292100906372;-4.941074848175049;163.89369201660156
294;1673366677.6224804;47.1305926;7.2407502;-0.03700000047683716;1673366677.6894345;-3.5234873294830322;-5.10187292098999;163.90765380859375
295;1673366677.8204968;47.130581299999996;7.240779;-0.06800000369548798;1673366677.8856268;-3.5247416496276855;-5.289702415466309;163.93841552734375
296;1673366678.013488;47.13057;7.2408085;-0.09600000083446503;1673366678.0815284;-3.542637348175049;-5.407979488372803;163.9728240966797
297;1673366678.2064617;47.1305585;7.2408383999999995;-0.11700000613927841;1673366678.2771497;-3.590604305267334;-5.511880874633789;164.01783752441406
298;1673366678.4084404;47.1305553;7.240846899999999;-0.13700000941753387;1673366678.4845395;-3.6356146335601807;-5.553086280822754;164.01502990722656
299;;;;;1673366678.6784303;-3.598336935043335;-5.616876602172852;164.03440856933594
300;;;;;1673366678.8674116;-3.6019785404205322;-6.076177597045898;164.0438995361328
301;;;;;1673366679.0747886;-3.608086585998535;-6.264186382293701;164.08103942871094
302;;;;;1673366679.278486;-3.5806915760040283;-6.434626579284668;164.10769653320312
303;;;;;1673366679.4844434;-3.566067695617676;-6.615467071533203;164.152099609375
