;pos_time;latitude;longitude;altitude;alt_time;pitch;roll;yaw
0;1673367851.375496;47.130642599999995;7.24062;-0.005000000353902578;1673367851.5230577;-0.047232989221811295;-0.14943638443946838;90.62804412841797
1;1673367851.5728333;47.130642599999995;7.2406198999999996;-0.009000000543892384;1673367851.7452106;0.0624258853495121;-0.36689916253089905;90.45479583740234
2;1673367851.8156643;47.130642599999995;7.2406198999999996;-0.00800000037997961;1673367851.9364688;0.07130267471075058;-0.23721392452716827;90.61316680908203
3;1673367851.9845946;47.130642599999995;7.2406198999999996;-0.007000000216066837;1673367852.1392467;0.22649167478084564;-0.3413141369819641;90.69244384765625
4;1673367852.1948824;47.130642599999995;7.2406198999999996;-0.009000000543892384;1673367852.3426235;-0.03941559046506882;-0.21837680041790009;90.51720428466797
5;1673367852.4027503;47.130642599999995;7.24062;-0.009000000543892384;1673367852.5234482;-0.1832774132490158;-0.35848838090896606;90.63463592529297
6;1673367852.5704873;47.130642599999995;7.2406201;-0.009000000543892384;1673367852.710369;-0.11014014482498169;0.010123665444552898;90.45054626464844
7;1673367852.766001;47.130642599999995;7.2406201;-0.014000000432133675;1673367852.89345;0.04453672841191292;-0.3390013873577118;90.39828491210938
8;1673367852.9459066;47.130642599999995;7.2406201;-0.017000000923871994;1673367853.096885;-0.21920768916606903;-0.18868084251880646;90.6263656616211
9;1673367853.1609895;47.1306425;7.24062;-0.020000001415610313;1673367853.314566;-0.33850371837615967;-0.12471713870763779;90.47000122070312
10;1673367853.3623931;47.1306424;7.24062;-0.0010000000474974513;1673367853.5110133;-0.2617000639438629;-0.40694111585617065;90.65190124511719
11;1673367853.564703;47.1306424;7.24062;-0.0010000000474974513;1673367853.69607;-0.08973193913698196;-0.15490123629570007;90.61280059814453
12;1673367853.7532084;47.1306424;7.24062;-0.003000000026077032;1673367853.928292;-0.01043243333697319;-0.2950901687145233;90.62689208984375
13;1673367854.000832;47.1306424;7.2406198999999996;-0.007000000216066837;1673367854.145019;-0.16891935467720032;-0.19427429139614105;90.60047912597656
14;1673367854.1950758;47.1306424;7.24062;-0.010000000707805157;1673367854.325252;-0.2509412169456482;-0.25508055090904236;90.53595733642578
15;1673367854.3740342;47.1306424;7.24062;-0.01100000087171793;1673367854.5232024;-0.25477486848831177;-0.3426671624183655;90.65589141845703
16;1673367854.5773475;47.1306424;7.24062;-0.00800000037997961;1673367854.7165413;-0.5342734456062317;-0.6812028288841248;90.78242492675781
17;1673367854.7731702;47.1306424;7.2406201;-0.005000000353902578;1673367854.9152865;-0.8700832724571228;-0.07630360126495361;90.73135375976562
18;1673367854.9670756;47.1306424;7.2406201;0.0020000000949949026;1673367855.104331;-0.8710829615592957;-0.2905447483062744;90.81262969970703
19;1673367855.1611917;47.1306424;7.2406201;0.005000000353902578;1673367855.2908297;-0.8487038612365723;-0.33889666199684143;90.7534408569336
20;1673367855.349289;47.1306424;7.2406201;0.009000000543892384;1673367855.513191;-0.8321884870529175;-0.2698126435279846;90.57241821289062
21;1673367855.5781791;47.1306424;7.2406201;0.01100000087171793;1673367855.7216864;-0.8712176084518433;-0.15531161427497864;90.70145416259766
22;1673367855.7804625;47.1306424;7.2406201;0.009000000543892384;1673367855.9162116;-0.9106547832489014;-0.20516985654830933;90.6334457397461
23;1673367855.964147;47.1306424;7.2406201;0.009000000543892384;1673367856.1282272;-1.179932951927185;-0.34041649103164673;90.38323211669922
24;1673367856.188261;47.1306424;7.2406201;0.009000000543892384;1673367856.3352175;-2.0806047916412354;-0.21520356833934784;90.38284301757812
25;1673367856.383141;47.1306424;7.2406201999999995;0.012000000104308128;1673367856.5114295;-0.4295879602432251;-0.1306549608707428;90.49168395996094
26;1673367856.5633779;47.1306425;7.2406207;0.012000000104308128;1673367856.7120063;2.9964568614959717;-0.3693350553512573;90.81949615478516
27;1673367856.7680917;47.1306425;7.2406223;0.020000001415610313;1673367856.8962095;7.815130233764648;0.36550959944725037;90.75123596191406
28;1673367856.9671965;47.130642599999995;7.240624899999999;0.03100000135600567;1673367857.1071424;13.71785831451416;0.8850900530815125;91.19123077392578
29;1673367857.162413;47.130642599999995;7.2406283;0.04400000348687172;1673367857.303246;16.25660514831543;0.9923048615455627;91.66442108154297
30;1673367857.3604054;47.130642699999996;7.2406326;0.055000003427267075;1673367857.5180392;16.515552520751953;-0.5601910948753357;91.21064758300781
31;1673367857.5722315;47.1306428;7.2406374;0.07400000095367432;1673367857.7091935;17.734943389892578;0.891607940196991;91.36803436279297
32;1673367857.7666972;47.130643;7.2406426999999995;0.10300000756978989;1673367857.911634;19.31839370727539;2.1865952014923096;91.57161712646484
33;1673367857.9641454;47.130643199999994;7.2406483999999995;0.1380000114440918;1673367858.1123457;21.18313980102539;0.32870224118232727;91.18927001953125
34;1673367858.170992;47.130643199999994;7.2406540999999995;0.1770000010728836;1673367858.3161235;23.15939712524414;0.1922227293252945;91.12954711914062
35;1673367858.3737211;47.130643299999996;7.2406599;0.21800000965595245;1673367858.5095515;25.1599063873291;2.2185440063476562;91.538818359375
36;1673367858.5623178;47.1306434;7.240665399999999;0.26500001549720764;1673367858.6901011;27.24601173400879;1.2219789028167725;91.37298583984375
37;1673367858.7423713;47.1306434;7.2406706;0.30900001525878906;1673367858.8908749;29.383853912353516;0.11832879483699799;91.07698822021484
38;1673367858.9455621;47.1306434;7.2406752;0.34700000286102295;1673367859.083254;31.483488082885742;1.7742198705673218;91.42550659179688
39;1673367859.1389754;47.1306435;7.2406790999999995;0.3800000250339508;1673367859.268962;33.642818450927734;2.0128979682922363;91.51176452636719
40;1673367859.3327367;47.1306436;7.2406823;0.40800002217292786;1673367859.4818223;35.86830139160156;0.6283822655677795;91.07243347167969
41;1673367859.534074;47.1306436;7.2406844999999995;0.4320000112056732;1673367859.681244;38.026878356933594;1.338370680809021;91.24369049072266
42;1673367859.746553;47.1306435;7.2406856;0.4520000219345093;1673367859.8794143;40.21969223022461;1.6974233388900757;91.33079528808594
43;1673367859.9337208;47.1306435;7.2406855;0.4710000157356262;1673367860.0900257;42.431819915771484;1.128844141960144;91.14193725585938
44;1673367860.1516283;47.1306434;7.2406842;0.4910000264644623;1673367860.3002145;44.68088150024414;1.4241775274276733;91.1884765625
45;1673367860.3510566;47.130643299999996;7.2406814;0.5100000500679016;1673367860.502657;46.86189270019531;1.4553718566894531;91.18134307861328
46;1673367860.563317;47.130643199999994;7.2406771999999995;0.5260000228881836;1673367860.7176907;46.95069885253906;1.2011162042617798;91.08621978759766
47;1673367860.7664914;47.1306431;7.2406714999999995;0.5360000133514404;1673367860.901529;42.49041748046875;0.926687479019165;91.08704376220703
48;1673367860.9669795;47.1306429;7.2406646;0.5410000085830688;1673367861.1313524;37.69412612915039;0.97835773229599;91.19719696044922
49;1673367861.182099;47.1306428;7.240657199999999;0.5450000166893005;1673367861.33941;31.578203201293945;0.4645041823387146;91.03244018554688
50;1673367861.4140036;47.130642699999996;7.2406497;0.5850000381469727;1673367861.5838656;28.630970001220703;0.11245736479759216;90.96246337890625
51;1673367861.6171038;47.130642599999995;7.2406426999999995;0.6340000033378601;1673367861.7368722;22.788293838500977;0.8121352195739746;91.24327850341797
52;1673367861.810952;47.1306425;7.240636599999999;0.690000057220459;1673367861.9453163;20.49997329711914;0.19090236723423004;91.0971450805664
53;1673367861.9970417;47.1306424;7.2406315999999995;0.7520000338554382;1673367862.1652284;19.413700103759766;-0.4250262677669525;90.8687973022461
54;1673367862.2068002;47.1306424;7.240628;0.8180000185966492;1673367862.3639991;19.77054214477539;0.8365166783332825;91.2078857421875
55;1673367862.4217403;47.1306424;7.2406257;0.89000004529953;1673367862.5589123;21.239070892333984;2.0400915145874023;91.54071044921875
56;1673367862.606291;47.1306424;7.2406244;0.9730000495910645;1673367862.7699873;23.189720153808594;-1.352368950843811;90.5287094116211
57;1673367862.840155;47.1306424;7.2406239;1.069000005722046;1673367862.9521847;25.43000602722168;0.7340951561927795;90.8485107421875
58;1673367863.0280344;47.1306425;7.2406239;1.1770000457763672;1673367863.179103;27.11432456970215;2.6150169372558594;91.39618682861328
59;1673367863.213825;47.1306425;7.2406239999999995;1.2910000085830688;1673367863.3324907;28.46931266784668;-0.5683114528656006;90.61368560791016
60;1673367863.4063807;47.1306425;7.2406242;1.4130001068115234;1673367863.5300143;29.293811798095703;0.6133817434310913;90.83907318115234
61;1673367863.5770295;47.130642599999995;7.2406242999999995;1.5510001182556152;1673367863.7119708;29.542236328125;1.6376866102218628;86.1751480102539
62;1673367863.7705991;47.130642599999995;7.2406242;1.7040001153945923;1673367863.9011712;29.53014373779297;-1.0797969102859497;85.77466583251953
63;1673367863.9701152;47.130642699999996;7.2406239;1.873000144958496;1673367864.11169;29.141307830810547;-0.26779720187187195;85.50516510009766
64;1673367864.164039;47.130642699999996;7.2406234;2.057000160217285;1673367864.30479;28.591638565063477;2.5345282554626465;86.39067077636719
65;1673367864.3605108;47.1306428;7.2406229;2.25;1673367864.4951723;27.920141220092773;1.1254762411117554;86.02838897705078
66;1673367864.5586452;47.1306428;7.2406223;2.444000005722046;1673367864.707236;27.591136932373047;-0.5122478008270264;85.4027328491211
67;1673367864.7540836;47.130642699999996;7.240621699999999;2.638000011444092;1673367864.8942719;27.126174926757812;2.427412271499634;86.06881713867188
68;1673367864.9565425;47.130642699999996;7.2406212;2.827000141143799;1673367865.1046052;27.0222225189209;0.7264603972434998;85.68804931640625
69;1673367865.1612315;47.130642599999995;7.240620799999999;3.017000198364258;1673367865.295576;27.050670623779297;-0.745934009552002;85.23021697998047
70;1673367865.3546963;47.130642599999995;7.2406204999999995;3.2060000896453857;1673367865.4945939;26.90407371520996;2.4825551509857178;85.98201751708984
71;1673367865.5483246;47.130642599999995;7.2406203;3.3950002193450928;1673367865.695194;27.053207397460938;0.9849115014076233;85.67616271972656
72;1673367865.7523367;47.1306425;7.2406201;3.5850002765655518;1673367865.8954835;27.07777976989746;-1.459878921508789;85.19387817382812
73;1673367865.9457922;47.1306424;7.2406201;3.7770001888275146;1673367866.085169;27.161849975585938;1.2473076581954956;85.90771484375
74;1673367866.139433;47.1306423;7.2406201;3.9680001735687256;1673367866.2815576;27.469921112060547;1.152026653289795;85.91548919677734
75;1673367866.3378463;47.1306423;7.2406201;4.1620001792907715;1673367866.4861608;27.456384658813477;-1.2571057081222534;85.275634765625
76;1673367866.5443525;47.1306423;7.2406201;4.353000164031982;1673367866.6892586;27.55181312561035;1.006243348121643;85.90953063964844
77;1673367866.746049;47.1306423;7.2406201999999995;4.546000003814697;1673367866.8960037;27.719242095947266;1.8399343490600586;86.0831298828125
78;1673367866.9531555;47.1306423;7.2406201999999995;4.740000247955322;1673367867.0962415;27.738622665405273;-1.2941709756851196;85.19694519042969
79;1673367867.1534808;47.1306422;7.2406203;4.934000015258789;1673367867.2981966;27.671964645385742;-0.18552780151367188;85.49300384521484
80;1673367867.3548963;47.130642099999996;7.2406203;5.130000114440918;1673367867.498208;27.72119903564453;1.8459579944610596;86.08538818359375
81;1673367867.5563684;47.1306422;7.2406203;5.326000213623047;1673367867.7074163;27.740896224975586;-0.9200655817985535;85.3230209350586
82;1673367867.7587807;47.1306422;7.2406203;5.52400016784668;1673367867.9762495;27.62358283996582;-0.3251238763332367;85.4179916381836
83;1673367868.0589828;47.1306422;7.2406203;5.7220001220703125;1673367868.151784;27.556787490844727;1.9997507333755493;86.08709716796875
84;1673367868.2582688;47.1306422;7.2406203;5.918000221252441;1673367868.367115;27.61887550354004;-0.4897480607032776;85.44933319091797
85;1673367868.4434822;47.1306422;7.2406203;6.113000392913818;1673367868.560226;27.62738037109375;-1.0979228019714355;85.1661605834961
86;1673367868.6263463;47.1306422;7.2406204;6.307000160217285;1673367868.7521112;27.712848663330078;1.690592646598816;86.00550842285156
87;1673367868.8356168;47.1306422;7.2406204;6.50100040435791;1673367868.9484894;27.853029251098633;0.1765664517879486;85.67489624023438
88;1673367868.9982672;47.1306423;7.2406204999999995;6.696000099182129;1673367869.126442;27.683073043823242;-1.095513105392456;85.17874908447266
89;1673367869.1853862;47.1306423;7.2406204999999995;6.89300012588501;1673367869.3552246;27.818696975708008;1.8793994188308716;85.91938781738281
90;1673367869.410937;47.1306424;7.2406204999999995;7.091000556945801;1673367869.545783;27.775672912597656;1.1684210300445557;85.787841796875
91;1673367869.5977497;47.1306424;7.2406204999999995;7.288000583648682;1673367869.7375674;27.866451263427734;-1.2949671745300293;85.26744079589844
92;1673367869.7897465;47.1306424;7.2406204999999995;7.4860005378723145;1673367869.9740267;27.78803253173828;1.1625816822052002;85.88764190673828
93;1673367870.049161;47.1306423;7.2406204999999995;7.683000564575195;1673367870.1820524;27.875267028808594;1.434727668762207;85.96495056152344
94;1673367870.2255816;47.1306423;7.2406204999999995;7.877000331878662;1673367870.4433417;27.713394165039062;-1.2407939434051514;85.19204711914062
95;1673367870.4796014;47.1306423;7.2406204999999995;8.072999954223633;1673367870.5830956;27.72068214416504;0.9826558232307434;85.69482421875
96;1673367870.6207757;47.1306424;7.2406204999999995;8.267000198364258;1673367870.772383;27.763004302978516;2.037729024887085;86.00196838378906
97;1673367870.8217313;47.1306424;7.2406204999999995;8.464000701904297;1673367870.9716654;27.792522430419922;-1.135439157485962;85.2341079711914
98;1673367871.0347564;47.1306423;7.2406204999999995;8.664000511169434;1673367871.167374;27.824125289916992;0.16819676756858826;85.48497009277344
99;1673367871.237219;47.1306423;7.2406204999999995;8.86500072479248;1673367871.3588324;27.66100311279297;1.9450125694274902;85.98986053466797
100;1673367871.4096093;47.1306423;7.2406204;9.067000389099121;1673367871.5600884;27.834070205688477;-0.9036793112754822;85.24388122558594
101;1673367871.6129453;47.1306423;7.2406204;9.268000602722168;1673367871.75174;27.776878356933594;-0.17617443203926086;85.33148956298828
102;1673367871.801585;47.1306423;7.2406203;9.468000411987305;1673367871.9424033;27.730422973632812;2.2898030281066895;86.05909729003906
103;1673367872.0180442;47.1306423;7.2406203;9.670000076293945;1673367872.1645107;27.693265914916992;-0.5887869596481323;85.50276184082031
104;1673367872.21137;47.1306422;7.2406201999999995;9.872000694274902;1673367872.3493695;27.59786033630371;-0.5552808046340942;85.52281188964844
105;1673367872.418394;47.130642099999996;7.2406201999999995;10.074000358581543;1673367872.5753093;27.580421447753906;1.7560410499572754;86.25503540039062
106;1673367872.6207523;47.130642099999996;7.2406201;10.314000129699707;1673367872.7775304;27.445871353149414;0.688692033290863;85.72834014892578
107;1673367872.839673;47.130642099999996;7.2406196;10.669000625610352;1673367873.0293415;28.676841735839844;-0.9888863563537598;85.27198028564453
108;1673367873.0635297;47.130642099999996;7.240619;11.063000679016113;1673367873.1936188;26.3890323638916;1.3684227466583252;85.8970947265625
109;1673367873.2356455;47.130642099999996;7.2406182999999995;11.468000411987305;1673367873.4064026;25.81879425048828;1.2513864040374756;85.79827117919922
110;1673367873.4523532;47.130642099999996;7.2406178;11.878000259399414;1673367873.6026204;24.99836540222168;-1.317229151725769;85.10198211669922
111;1673367873.6480699;47.130642099999996;7.2406175;12.284000396728516;1673367873.768929;24.968486785888672;1.1978508234024048;85.72103118896484
112;1673367873.814878;47.130642099999996;7.2406174;12.6850004196167;1673367873.938771;25.217233657836914;1.2163913249969482;85.79655456542969
113;1673367873.990569;47.130642099999996;7.2406175;13.077000617980957;1673367874.1314385;25.508018493652344;-1.2327377796173096;85.19145202636719
114;1673367874.183256;47.130642099999996;7.2406177;13.461000442504883;1673367874.3272963;25.910112380981445;1.103865146636963;85.8072280883789
115;1673367874.3869646;47.130642099999996;7.2406179999999996;13.839000701904297;1673367874.5238502;26.61618995666504;1.4242953062057495;85.9183578491211
116;1673367874.5757086;47.130642099999996;7.2406184;14.218000411987305;1673367874.705151;27.023229598999023;-1.4716308116912842;85.27178192138672
117;1673367874.7632222;47.130642099999996;7.2406188;14.599000930786133;1673367874.914892;27.28841781616211;0.5827426314353943;85.76375579833984
118;1673367874.9831157;47.130642099999996;7.2406191;14.97900104522705;1673367875.1137543;27.45846939086914;1.6192996501922607;86.07515716552734
119;1673367875.1653411;47.130642099999996;7.2406193;15.363000869750977;1673367875.292543;27.683902740478516;-0.8937667012214661;85.34014892578125
120;1673367875.3478866;47.1306422;7.2406194;15.745000839233398;1673367875.480292;27.425790786743164;0.2909347414970398;85.537841796875
121;1673367875.5345395;47.1306423;7.240619499999999;16.125;1673367875.6750865;27.365251541137695;1.9802155494689941;85.97850799560547
122;1673367875.7312775;47.1306423;7.2406194;16.509000778198242;1673367875.8754385;27.137407302856445;-0.6545459032058716;85.43367767333984
123;1673367875.9316287;47.1306423;7.2406194;16.895000457763672;1673367876.0739505;26.90454864501953;-0.27303460240364075;85.3821029663086
124;1673367876.1301444;47.1306423;7.240619199999999;17.283000946044922;1673367876.273541;26.748779296875;2.2357189655303955;86.033203125
125;1673367876.3284388;47.1306424;7.2406191;17.672000885009766;1673367876.470506;26.54580307006836;-0.10888805985450745;85.3699722290039
126;1673367876.5266294;47.1306425;7.240619;18.060001373291016;1673367876.669379;26.510404586791992;-0.19897179305553436;85.32238006591797
127;1673367876.7250102;47.1306425;7.240619;18.44500160217285;1673367876.8738189;26.514202117919922;2.235968589782715;86.05897521972656
128;1673367876.9280763;47.1306425;7.240619;18.830001831054688;1673367877.0684628;26.719099044799805;-0.17899879813194275;85.52857208251953
129;1673367877.1232626;47.1306424;7.240619;19.22100067138672;1673367877.273276;26.59231185913086;-0.7478746771812439;85.21012115478516
130;1673367877.3328876;47.1306424;7.240619;19.611000061035156;1673367877.4760337;26.71016502380371;1.937008023262024;85.93315124511719
131;1673367877.5323148;47.1306424;7.2406191;20.003000259399414;1673367877.685285;26.80302619934082;0.4584566354751587;85.55616760253906
132;1673367877.7521932;47.1306424;7.2406191;20.395000457763672;1673367877.8992467;26.76511001586914;-0.9337014555931091;85.13656616210938
133;1673367877.9622574;47.1306424;7.240619199999999;20.782001495361328;1673367878.1074786;26.917741775512695;1.7253727912902832;85.97032928466797
134;1673367878.1628792;47.1306424;7.240619199999999;21.168001174926758;1673367878.3105996;26.968015670776367;0.8683456778526306;85.81322479248047
135;1673367878.3599646;47.1306424;7.2406193;21.558000564575195;1673367878.4884748;26.982715606689453;-1.1098549365997314;85.2430419921875
136;1673367878.543628;47.1306424;7.2406194;21.94900131225586;1673367878.6810865;26.94305419921875;1.4434516429901123;85.82835388183594
137;1673367878.7392025;47.1306424;7.240619499999999;22.34000015258789;1673367878.8922284;27.00176239013672;1.5695171356201172;85.96350860595703
138;1673367878.9572582;47.1306424;7.240619499999999;22.727001190185547;1673367879.1134648;27.128971099853516;-0.9746307134628296;85.19619750976562
139;1673367879.1711347;47.1306424;7.2406196;23.115001678466797;1673367879.3148172;26.91250228881836;0.8881096839904785;85.69902801513672
140;1673367879.3656807;47.1306424;7.2406196;23.50400161743164;1673367879.5048335;26.87042999267578;1.7351861000061035;85.97267150878906
141;1673367879.560097;47.1306424;7.240619499999999;23.89000129699707;1673367879.7249537;26.910083770751953;-0.8932855129241943;85.3382797241211
142;1673367879.7836611;47.1306424;7.240619499999999;24.282001495361328;1673367879.9141738;26.743392944335938;0.42550021409988403;85.64550018310547
143;1673367879.9772477;47.1306424;7.240619499999999;24.67500114440918;1673367880.1145117;26.827245712280273;2.1711807250976562;86.06207275390625
144;1673367880.1855416;47.1306424;7.2406194;25.067001342773438;1673367880.3358278;26.621870040893555;-0.35775163769721985;85.39049530029297
145;1673367880.391621;47.1306424;7.2406194;25.4580020904541;1673367880.5379744;26.777372360229492;0.011035050265491009;85.45562744140625
146;1673367880.6076436;47.1306424;7.240619499999999;25.850000381469727;1673367880.7743657;26.686403274536133;2.124741315841675;86.07962036132812
147;1673367880.842463;47.1306424;7.240619499999999;26.240001678466797;1673367880.9661012;26.935653686523438;-0.5170159339904785;85.42664337158203
148;1673367881.0487866;47.1306424;7.240619499999999;26.634000778198242;1673367881.1706212;26.79530143737793;-0.31440243124961853;85.36869812011719
149;1673367881.2472913;47.1306424;7.240619499999999;27.031002044677734;1673367881.3894591;26.886953353881836;2.2721164226531982;86.04619598388672
150;1673367881.447659;47.1306425;7.2406196;27.427001953125;1673367881.603707;26.81785774230957;0.12886804342269897;85.4975814819336
151;1673367881.6485457;47.1306425;7.2406196;27.823001861572266;1673367881.8084857;26.914127349853516;-0.480640709400177;85.25174713134766
152;1673367881.850535;47.130642599999995;7.2406196;28.218000411987305;1673367881.973093;26.95598602294922;2.085050582885742;85.98580169677734
153;1673367882.017121;47.130642599999995;7.2406197;28.610000610351562;1673367882.1381257;26.940141677856445;0.24041962623596191;85.51636505126953
154;1673367882.1909077;47.130642599999995;7.2406197;28.999000549316406;1673367882.3133266;26.82140350341797;-0.9064534306526184;85.23994445800781
155;1673367882.3647163;47.130642599999995;7.2406197;29.394001007080078;1673367882.4946911;26.822261810302734;2.3436009883880615;86.0588150024414
156;1673367882.5485084;47.130642699999996;7.2406197;29.79400062561035;1673367882.6821442;26.9669246673584;1.3692752122879028;85.85692596435547
157;1673367882.7370932;47.1306428;7.2406197;30.19700050354004;1673367882.886316;26.905715942382812;-0.7618947625160217;85.15023040771484
158;1673367882.9499235;47.1306428;7.2406197;30.601001739501953;1673367883.125432;26.835567474365234;1.9401283264160156;85.84576416015625
159;1673367883.1835988;47.130642699999996;7.2406197;31.003002166748047;1673367883.3156393;26.839065551757812;1.1392337083816528;85.74604034423828
160;1673367883.366944;47.130642699999996;7.2406197;31.400001525878906;1673367883.5466595;26.824443817138672;-0.9121919870376587;85.28833770751953
161;1673367883.5958393;47.130642699999996;7.2406197;31.801000595092773;1673367883.7296221;26.841066360473633;1.5250344276428223;85.81034851074219
162;1673367883.8203633;47.130642699999996;7.2406197;32.204002380371094;1673367883.9783561;26.72516632080078;1.778772234916687;85.95712280273438
163;1673367884.0339909;47.130642699999996;7.2406197;32.604000091552734;1673367884.1797192;26.7847957611084;-0.79346764087677;85.2294692993164
164;1673367884.2314808;47.130642699999996;7.2406197;33.005001068115234;1673367884.3792048;26.78729248046875;0.8430943489074707;85.70964050292969
165;1673367884.4595964;47.130642699999996;7.2406197;33.40700149536133;1673367884.5812814;26.750703811645508;2.2466742992401123;86.08049774169922
166;1673367884.6330478;47.130642699999996;7.2406197;33.80400085449219;1673367884.7729037;26.804943084716797;-0.6689960956573486;85.27918243408203
167;1673367884.8454988;47.130642699999996;7.2406197;34.19900131225586;1673367884.9935148;26.818923950195312;0.24034564197063446;85.45039367675781
168;1673367885.0468361;47.130642699999996;7.2406197;34.60000228881836;1673367885.1941164;26.82767677307129;2.3513495922088623;86.01180267333984
169;1673367885.245461;47.130642699999996;7.2406197;35.005001068115234;1673367885.4071076;26.776355743408203;-0.005781897809356451;85.44702911376953
170;1673367885.447685;47.130642699999996;7.2406197;35.41200256347656;1673367885.5663974;26.7883358001709;-0.3015669286251068;85.34728240966797
171;1673367885.613243;47.130642599999995;7.2406197;35.81800079345703;1673367885.7542248;26.841018676757812;2.021207571029663;86.01522827148438
172;1673367885.8021536;47.130642599999995;7.2406197;36.21800231933594;1673367885.9379144;26.709571838378906;0.13523678481578827;85.52490234375
173;1673367885.9898229;47.1306425;7.2406197;36.6140022277832;1673367886.1398695;26.838560104370117;-0.6869758367538452;85.24694061279297
174;1673367886.1999853;47.1306425;7.2406197;37.0150032043457;1673367886.3285887;26.883272171020508;2.091796875;85.9344711303711
175;1673367886.392571;47.130642599999995;7.2406197;37.4170036315918;1673367886.5389845;26.897241592407227;0.6461458206176758;85.63691711425781
176;1673367886.5859034;47.130642599999995;7.2406197;37.820003509521484;1673367886.7345674;26.818828582763672;-0.8114404678344727;85.26046752929688
177;1673367886.7859008;47.130642599999995;7.2406197;38.22100067138672;1673367886.9211545;26.844045639038086;1.8985595703125;85.92794799804688
178;1673367886.9793968;47.130642599999995;7.2406197;38.621002197265625;1673367887.1117268;26.847238540649414;1.1318333148956299;85.83493041992188
179;1673367887.1700344;47.130642599999995;7.2406197;39.018001556396484;1673367887.3094835;26.685989379882812;-0.7367157936096191;85.12625885009766
180;1673367887.3614488;47.130642599999995;7.2406197;39.409000396728516;1673367887.5204918;26.85502052307129;1.727010726928711;85.80987548828125
181;1673367887.5861363;47.130642599999995;7.240619799999999;39.807003021240234;1673367887.7240794;26.92190170288086;1.6270482540130615;85.89151000976562
182;1673367887.7783368;47.130642599999995;7.240619799999999;40.20900344848633;1673367887.9238625;26.67491340637207;-0.9900951981544495;85.22417449951172
183;1673367887.9795105;47.130642599999995;7.2406197;40.61300277709961;1673367888.1266975;26.651752471923828;1.3468718528747559;85.76777648925781
184;1673367888.18252;47.130642599999995;7.2406197;41.02000045776367;1673367888.3265984;26.691110610961914;1.7899253368377686;85.95979309082031
185;1673367888.38896;47.130642599999995;7.2406197;41.419002532958984;1673367888.543082;26.667724609375;-0.8745911121368408;85.26555633544922
186;1673367888.59582;47.130642599999995;7.2406197;41.810001373291016;1673367888.7301226;26.67372703552246;0.8450165390968323;85.65254974365234
187;1673367888.807016;47.130642599999995;7.2406196;42.20500183105469;1673367888.9435492;26.62533950805664;2.099010467529297;85.99199676513672
188;1673367888.999798;47.130642599999995;7.2406196;42.60300064086914;1673367889.126752;26.729843139648438;-0.7650240063667297;85.3011474609375
189;1673367889.1775534;47.1306425;7.2406196;43.00400161743164;1673367889.315557;26.681486129760742;0.22275826334953308;85.48067474365234
190;1673367889.3679523;47.1306424;7.2406196;43.40400314331055;1673367889.519905;26.734743118286133;2.0213427543640137;86.03834533691406
191;1673367889.5859852;47.1306424;7.2406196;43.803001403808594;1673367889.730064;26.68707847595215;-0.44461575150489807;85.32569885253906
192;1673367889.793084;47.1306425;7.2406197;44.198001861572266;1673367889.930652;26.709169387817383;0.07259900867938995;85.46833038330078
193;1673367889.984526;47.1306425;7.2406197;44.586002349853516;1673367890.1257746;26.699169158935547;2.353025436401367;86.05706024169922
194;1673367890.19079;47.1306425;7.2406197;44.980003356933594;1673367890.346205;26.87741470336914;0.010442739352583885;85.5054931640625
195;1673367890.403002;47.1306425;7.2406197;45.37800216674805;1673367890.53741;26.711936950683594;-0.36869511008262634;85.381591796875
196;1673367890.5858045;47.1306425;7.2406197;45.7760009765625;1673367890.726352;26.634279251098633;2.2322070598602295;86.10462951660156
197;1673367890.7833288;47.130642599999995;7.2406197;46.172000885009766;1673367890.9266899;26.805355072021484;0.5387179851531982;85.60954284667969
198;1673367890.9888391;47.130642599999995;7.2406197;46.566001892089844;1673367891.133578;26.710432052612305;-0.6056413054466248;85.18742370605469
199;1673367891.1918316;47.130642599999995;7.240619799999999;46.95600128173828;1673367891.3268628;26.8492431640625;2.155261754989624;85.92717742919922
200;1673367891.3831575;47.130642699999996;7.240619799999999;47.35300064086914;1673367891.5147676;26.779592514038086;1.4636924266815186;85.86564636230469
201;1673367891.5671837;47.130642699999996;7.240619799999999;47.755001068115234;1673367891.7040482;26.768081665039062;-0.958317220211029;85.2789535522461
202;1673367891.76166;47.130642599999995;7.240619799999999;48.15500259399414;1673367891.9063761;26.942678451538086;2.166088819503784;86.03936767578125
203;1673367891.9851403;47.130642599999995;7.24062;48.50600051879883;1673367892.0990517;26.935033798217773;1.2316091060638428;85.6962661743164
204;1673367892.1459649;47.130642599999995;7.2406203;48.801002502441406;1673367892.3075993;27.411787033081055;-0.8065579533576965;85.25018310546875
205;1673367892.3879786;47.1306425;7.240620799999999;49.04500198364258;1673367892.5249178;27.79999351501465;1.2807337045669556;85.77253723144531
206;1673367892.5752528;47.1306425;7.2406212;49.24500274658203;1673367892.7046013;30.08344268798828;1.33428156375885;85.36161041259766
207;1673367892.770562;47.1306425;7.240621699999999;49.41800308227539;1673367892.8981156;36.06850814819336;0.665421187877655;78.94705963134766
208;1673367892.9489172;47.1306424;7.2406219;49.544002532958984;1673367893.0838284;39.96427917480469;2.8877787590026855;65.60139465332031
209;1673367893.1368396;47.1306419;7.2406216;49.60200119018555;1673367893.2810235;27.327762603759766;-14.141396522521973;54.619140625
210;1673367893.3566463;47.130640799999995;7.2406209;49.65800094604492;1673367893.5011117;27.240436553955078;-18.501380920410156;47.45805358886719
211;1673367893.555513;47.130639699999996;7.24062;49.708003997802734;1673367893.6958787;25.83061981201172;-19.723499298095703;37.58723068237305
212;1673367893.7567043;47.1306386;7.240618899999999;49.74500274658203;1673367893.8948016;18.549423217773438;-24.131460189819336;28.493831634521484
213;1673367893.9578285;47.1306375;7.2406177;49.78000259399414;1673367894.1054084;13.072959899902344;-26.57825469970703;18.92267608642578
214;1673367894.1616483;47.1306365;7.2406165;49.81100082397461;1673367894.3015962;6.57783317565918;-28.289363861083984;9.389937400817871
215;1673367894.3677528;47.1306356;7.2406152;49.8380012512207;1673367894.5188339;1.0306994915008545;-29.098365783691406;-0.0697968453168869
216;1673367894.570832;47.130635;7.240614099999999;49.86100387573242;1673367894.7270172;-3.7199108600616455;-28.572965621948242;-9.217696189880371
217;1673367894.7967136;47.1306346;7.240613199999999;49.884002685546875;1673367894.9589765;-8.064167022705078;-27.30177116394043;-18.37447738647461
218;1673367895.018767;47.1306343;7.240612499999999;49.900001525878906;1673367895.1456676;-11.72816276550293;-25.33403778076172;-27.345603942871094
219;1673367895.1976962;47.130634199999996;7.240612;49.913002014160156;1673367895.3445382;-15.290374755859375;-22.461822509765625;-36.16355895996094
220;1673367895.3996959;47.130634099999995;7.2406117;49.93100357055664;1673367895.5406892;-18.27292823791504;-19.881254196166992;-44.947303771972656
221;1673367895.5997305;47.130634099999995;7.2406115;49.94900131225586;1673367895.7753098;-20.852630615234375;-17.12261199951172;-52.099124908447266
222;1673367895.8331525;47.130634099999995;7.2406115;49.96800231933594;1673367895.9538085;-20.66006088256836;-18.96416473388672;-50.39471435546875
223;1673367896.0071325;47.130634;7.240611599999999;49.98500061035156;1673367896.136066;-19.270204544067383;-22.64676856994629;-46.54789352416992
224;1673367896.1893196;47.130634;7.240611599999999;49.99500274658203;1673367896.3404408;-18.63761329650879;-24.10280990600586;-45.40696334838867
225;1673367896.4041572;47.130634;7.2406115;49.996002197265625;1673367896.523792;-18.92877960205078;-22.470823287963867;-45.230167388916016
226;1673367896.5722342;47.1306339;7.2406114;50.00200271606445;1673367896.6957972;-19.391773223876953;-20.19159507751465;-45.22267532348633
227;1673367896.7494695;47.1306337;7.2406114;50.01100158691406;1673367896.887452;-19.591989517211914;-19.306629180908203;-45.33802795410156
228;1673367896.9874396;47.130633499999995;7.2406114;50.018001556396484;1673367897.1959643;-19.2055721282959;-19.821971893310547;-45.275394439697266
229;1673367897.241021;47.130633499999995;7.2406114;50.02300262451172;1673367897.4167967;-18.882583618164062;-21.351978302001953;-44.9431266784668
230;1673367897.4617355;47.1306334;7.2406115;50.0260009765625;1673367897.6008723;-18.853988647460938;-23.28367805480957;-44.71406936645508
231;1673367897.6480074;47.1306334;7.2406115;50.02700424194336;1673367897.765891;-19.181013107299805;-23.714235305786133;-44.717926025390625
232;1673367897.8098102;47.1306333;7.2406114;50.02100372314453;1673367897.9227452;-35.87742614746094;-20.425718307495117;-44.89710998535156
233;1673367897.9711123;47.130633499999995;7.2406109;50.03000259399414;1673367898.0984883;-50.11985778808594;-12.815118789672852;-46.82349395751953
234;1673367898.1515374;47.130634699999995;7.240609;50.04600143432617;1673367898.2904096;-58.718482971191406;-9.190598487854004;-48.305030822753906
235;1673367898.3463957;47.1306377;7.2406051;50.05600357055664;1673367898.4842927;-58.13246154785156;-6.11108922958374;-50.983070373535156
236;1673367898.537865;47.1306431;7.240599;50.053001403808594;1673367898.692401;-54.426517486572266;-7.226090431213379;-51.13609313964844
237;1673367898.7584825;47.1306502;7.2405911;50.0410041809082;1673367898.9233637;-53.24957275390625;-8.227852821350098;-50.687767028808594
238;1673367898.9740677;47.1306588;7.240582;50.01700210571289;1673367899.1303906;-53.64549255371094;-10.382848739624023;-49.37186813354492
239;1673367899.1974366;47.1306685;7.240571999999999;49.999000549316406;1673367899.338293;-53.330806732177734;-11.25784683227539;-49.109230041503906
240;1673367899.396459;47.130679099999995;7.240561;49.97300338745117;1673367899.6023176;-50.06452178955078;-11.758399963378906;-49.21690368652344
241;1673367899.6541498;47.1306904;7.240549199999999;49.93600082397461;1673367899.8053474;-48.67021942138672;-11.366602897644043;-49.54007339477539
242;1673367899.8659883;47.130702;7.2405368;49.9010009765625;1673367900.002671;-47.30842208862305;-11.369845390319824;-49.31092071533203
243;1673367900.0624785;47.1307137;7.240524;49.868003845214844;1673367900.1683547;-47.05424118041992;-11.662607192993164;-49.40325164794922
244;1673367900.2124119;47.1307257;7.240510899999999;49.8380012512207;1673367900.3291872;-47.581783294677734;-11.892515182495117;-49.61610412597656
245;1673367900.3777368;47.130737599999996;7.2404972999999995;49.81100082397461;1673367900.5053718;-47.006141662597656;-11.91671371459961;-49.659305572509766
246;1673367900.5572183;47.130749699999996;7.2404835;49.78600311279297;1673367900.7080414;-46.394412994384766;-12.045247077941895;-49.70376205444336
247;1673367900.766773;47.1307617;7.2404695;49.76400375366211;1673367900.9423106;-46.188751220703125;-13.650446891784668;-50.367671966552734
248;1673367900.998483;47.1307738;7.2404554;49.75700378417969;1673367901.1311138;-47.994110107421875;-12.098335266113281;-52.41562271118164
249;1673367901.181642;47.1307857;7.240441;49.75800323486328;1673367901.3265026;-47.59336471557617;-11.886974334716797;-52.27281951904297
250;1673367901.3854084;47.1307975;7.2404262;49.75600051879883;1673367901.5632844;-47.14488983154297;-12.074089050292969;-51.92361831665039
251;1673367901.6063373;47.130809199999995;7.2404113;49.75100326538086;1673367901.7233546;-46.60388946533203;-12.38701343536377;-51.81376266479492
252;1673367901.7773578;47.130820799999995;7.240396199999999;49.74100112915039;1673367901.9053514;-46.13241958618164;-13.359275817871094;-51.73075866699219
253;1673367901.9667988;47.130832399999996;7.240380999999999;49.733001708984375;1673367902.1014163;-46.07640075683594;-14.964496612548828;-51.65505599975586
254;1673367902.1533842;47.1308438;7.2403656;49.72900390625;1673367902.3068733;-45.96691131591797;-16.881349563598633;-51.83723449707031
255;1673367902.3724453;47.130854899999996;7.240349999999999;49.72300338745117;1673367902.5183036;-45.96114730834961;-16.916555404663086;-52.45261764526367
256;1673367902.5782418;47.1308657;7.240334;49.71800231933594;1673367902.7244964;-44.98159408569336;-17.727901458740234;-52.353515625
257;1673367902.788387;47.130876099999995;7.2403179;49.71600341796875;1673367902.922385;-43.4472541809082;-22.48020362854004;-51.742122650146484
258;1673367902.9723778;47.130885899999996;7.2403014;49.71800231933594;1673367903.1123395;-41.00289535522461;-29.770977020263672;-52.551246643066406
259;1673367903.1716197;47.130894999999995;7.2402846;49.720001220703125;1673367903.3143008;-36.551795959472656;-35.64190673828125;-54.21197509765625
260;1673367903.3808787;47.1309026;7.2402675;49.715003967285156;1673367903.5115452;-16.746456146240234;-41.82281494140625;-58.193809509277344
261;1673367903.5647902;47.130908299999994;7.2402507;49.68400192260742;1673367903.7036746;4.966856479644775;-23.13848304748535;-61.63459396362305
262;1673367903.7683215;47.1309122;7.2402359;49.59800338745117;1673367903.918936;9.336121559143066;-16.2404727935791;-49.18614196777344
263;1673367903.988786;47.1309143;7.240225;49.548004150390625;1673367904.1146314;30.084871292114258;-33.66613006591797;-44.566436767578125
264;1673367904.18369;47.1309142;7.240217899999999;49.582000732421875;1673367904.392391;27.754684448242188;-29.887420654296875;-42.17583465576172
265;1673367904.43841;47.1309112;7.240213799999999;49.62300109863281;1673367904.5681355;17.411165237426758;-33.028072357177734;-43.40443801879883
266;1673367904.6274314;47.1309061;7.240211899999999;49.672000885009766;1673367904.7848518;3.611055612564087;-26.598876953125;-46.16489791870117
267;1673367904.8346465;47.1308996;7.2402115;49.71600341796875;1673367904.9817786;-11.85139274597168;-20.758281707763672;-47.47996139526367
268;1673367905.0340538;47.1308929;7.2402121;49.749000549316406;1673367905.2043824;-10.435443878173828;-24.326902389526367;-48.62420654296875
269;1673367905.247339;47.130886499999995;7.2402131999999995;49.77700424194336;1673367905.3637917;0.08934402465820312;-35.72909164428711;-49.6083869934082
270;1673367905.4119146;47.13088;7.2402147999999995;49.80800247192383;1673367905.5434856;15.89669418334961;-42.60296630859375;-50.75913619995117
271;1673367905.5938163;47.130872499999995;7.2402168;49.84100341796875;1673367905.7213118;30.26754379272461;-36.759952545166016;-49.1517448425293
272;1673367905.7730548;47.130863399999996;7.24022;49.855003356933594;1673367905.9116592;34.441715240478516;-31.628511428833008;-44.156986236572266
273;1673367905.9663937;47.130853699999996;7.2402238;49.6150016784668;1673367906.1120317;35.48783493041992;-9.946259498596191;-38.13203811645508
274;1673367906.1686883;47.130843999999996;7.240228;49.01700210571289;1673367906.327138;29.775720596313477;26.542030334472656;-34.272064208984375
275;1673367906.3862426;47.1308345;7.240232499999999;48.03600311279297;1673367906.5400674;19.394634246826172;66.9562759399414;-40.30551528930664
276;1673367906.5982034;47.130825099999996;7.240236899999999;46.65700149536133;1673367906.7445545;13.321844100952148;98.56819152832031;-54.93361282348633
277;1673367906.798767;47.1308157;7.2402412;44.89800262451172;1673367906.9307132;13.836374282836914;109.6771011352539;-70.83291625976562
278;1673367906.979348;47.130806199999995;7.2402456;42.790000915527344;1673367907.1135907;13.434957504272461;95.50528717041016;-85.68946075439453
279;1673367907.180605;47.1307968;7.2402504;40.33700180053711;1673367907.354118;6.5318708419799805;56.233642578125;-94.46026611328125
280;1673367907.417163;47.130787399999996;7.2402554;37.53000259399414;1673367907.5769315;2.6314139366149902;1.6095513105392456;-92.40199279785156
281;1673367907.652929;47.1307778;7.2402606;34.33400344848633;1673367907.8060198;9.201737403869629;-44.35847473144531;-90.92973327636719
282;1673367907.875316;47.1307684;7.2402660999999995;30.744001388549805;1673367907.989782;18.015457153320312;-58.606441497802734;-96.54290008544922
283;1673367908.035697;47.130759499999996;7.2402717;26.8070011138916;1673367908.141862;25.4462833404541;-33.91581344604492;-101.59500122070312
284;1673367908.1882787;47.130751;7.2402774;22.525001525878906;1673367908.3267221;28.405813217163086;21.439638137817383;-100.86935424804688
285;1673367908.38742;47.1307428;7.2402828999999995;17.860000610351562;1673367908.5502925;23.409378051757812;65.03005981445312;-103.51313781738281
286;1673367908.611424;47.1307342;7.2402883;12.829000473022461;1673367908.773761;15.833125114440918;64.25019073486328;-114.33708953857422
287;1673367908.8423364;47.130725399999996;7.2402941;7.482000350952148;1673367909.0254798;4.2227091789245605;20.072710037231445;-122.13835144042969
288;1673367909.0831134;47.130716299999996;7.2403002999999995;1.7950000762939453;1673367909.2112474;0.9276930093765259;3.8280937671661377;-122.88018798828125
289;1673367909.2938747;47.1307097;7.240308;0.4970000088214874;1673367909.4069204;4.957548141479492;-6.9872894287109375;-125.21541595458984
290;1673367909.4665997;47.1307031;7.240317;0.6440000534057617;1673367909.5927625;4.043221473693848;-3.3197243213653564;-123.83379364013672
291;1673367909.647442;47.130696099999994;7.2403268;0.7640000581741333;1673367909.7817;3.919736385345459;-3.2753820419311523;-123.62588500976562
292;1673367909.8398232;47.1306897;7.2403363999999995;0.8410000205039978;1673367909.969195;3.956982374191284;-2.95257568359375;-123.45905303955078
293;1673367910.024677;47.130683999999995;7.2403454;0.8980000615119934;1673367910.1818511;3.9118599891662598;-2.6331663131713867;-123.32172393798828
294;1673367910.2389982;47.130679199999996;7.240353499999999;0.9440000653266907;1673367910.3529105;3.9205548763275146;-2.3322043418884277;-123.18207550048828
295;1673367910.403306;47.130675499999995;7.2403604999999995;0.9850000739097595;1673367910.5319319;3.7981784343719482;-2.0395777225494385;-123.09788513183594
296;1673367910.584788;47.1306723;7.240367099999999;1.0320000648498535;1673367910.7176783;3.781647205352783;-1.8862066268920898;-123.00939178466797
297;1673367910.7713728;47.130669499999996;7.2403736;1.0950000286102295;1673367910.9122403;3.688446283340454;-1.5535415410995483;-123.05060577392578
298;1673367910.9679167;47.1306686;7.240377199999999;1.1490000486373901;1673367911.110604;3.5659964084625244;-1.2154122591018677;-123.08485412597656
299;1673367911.1652558;47.1306692;7.2403786;1.1980000734329224;1673367911.3187451;3.4245357513427734;-0.8692190051078796;-123.11707305908203
300;1673367911.3753872;47.1306708;7.240378499999999;1.2450000047683716;1673367911.5121508;3.2320146560668945;-0.554351270198822;-123.20865631103516
301;1673367911.5697346;47.130673099999996;7.2403771;1.2890000343322754;1673367911.711524;2.9483718872070312;-0.3233492076396942;-123.28295135498047
302;1673367911.7980978;47.1306751;7.240376299999999;1.3350000381469727;1673367911.9389815;2.9526288509368896;-0.1459861546754837;-123.2812728881836
303;1673367911.9993384;47.1306764;7.240376599999999;1.3860000371932983;1673367912.1396077;2.7407662868499756;0.330304354429245;-123.45853424072266
304;1673367912.1997592;47.130679199999996;7.2403737999999995;1.4260001182556152;1673367912.3392031;2.501894950866699;0.6779738664627075;-123.62659454345703
305;1673367912.3899648;47.1306827;7.240369599999999;1.4540001153945923;1673367912.531582;2.302407741546631;0.9641473293304443;-123.79132843017578
306;1673367912.5852923;47.1306863;7.240364899999999;1.474000096321106;1673367912.719264;2.123465061187744;1.134861707687378;-123.91523742675781
307;1673367912.774212;47.1306898;7.24036;1.4880000352859497;1673367912.9144168;1.984325647354126;1.3065431118011475;-124.04891967773438
308;1673367912.969183;47.130693199999996;7.2403553;1.4950001239776611;1673367913.106942;1.8186966180801392;1.3949569463729858;-124.16240692138672
309;1673367913.1625702;47.130696;7.2403517;1.5000001192092896;1673367913.3179197;1.70582914352417;1.3859243392944336;-124.18718719482422
310;1673367913.3995457;47.1306981;7.2403463;1.5170000791549683;1673367913.5311558;1.242255687713623;1.6648577451705933;-124.48456573486328
311;1673367913.5838602;47.130700499999996;7.240336;1.5320000648498535;1673367913.718889;0.9488171935081482;1.748915433883667;-124.63983917236328
312;1673367913.7756698;47.1307026;7.2403268999999995;1.534000039100647;1673367913.9179785;0.7571956515312195;1.793942928314209;-124.69470977783203
313;1673367913.9716585;47.130704099999996;7.24032;1.5210000276565552;1673367914.113212;0.675006091594696;1.7667688131332397;-124.7424545288086
314;1673367914.1717992;47.130705299999995;7.2403151;1.5000001192092896;1673367914.3281739;0.5382634401321411;1.7229682207107544;-124.77682495117188
315;1673367914.3831768;47.1307061;7.240311999999999;1.4760000705718994;1673367914.5176697;0.49728330969810486;1.6914664506912231;-124.75562286376953
316;1673367914.5733004;47.1307067;7.2403103;1.4530000686645508;1673367914.725414;0.3634268045425415;1.623559832572937;-124.7681655883789
317;1673367914.7917912;47.130707199999996;7.2403089;1.4190000295639038;1673367914.9355607;0.2894951105117798;1.5787125825881958;-124.77980041503906
318;1673367914.984359;47.1307076;7.2403077;1.377000093460083;1673367915.1261854;0.21674364805221558;1.5070726871490479;-124.79828643798828
319;1673367915.1769888;47.130708;7.2403067;1.3330000638961792;1673367915.310066;0.06588385254144669;1.4534140825271606;-124.77391815185547
320;1673367915.3756018;47.130708299999995;7.2403059999999995;1.2860000133514404;1673367915.5153472;-0.009916740469634533;1.403080701828003;-124.73540496826172
321;1673367915.5690904;47.1307086;7.2403054;1.2410000562667847;1673367915.7196243;-0.006017289590090513;1.2923555374145508;-124.74723815917969
322;1673367915.7801747;47.130708899999995;7.240304999999999;1.1970000267028809;1673367915.9339788;-0.284930020570755;1.6352107524871826;-124.73400115966797
323;1673367915.9974947;47.1307092;7.240304699999999;1.1820000410079956;1673367916.151141;-0.2994263768196106;1.6677253246307373;-124.72028350830078
324;1673367916.2118294;47.130709499999995;7.240304399999999;-0.009000000543892384;;;;
