;pos_time;latitude;longitude;altitude;alt_time;pitch;roll;yaw
0;1673368023.8014033;47.1306423;7.24062;-0.04000000283122063;1673368023.9187827;0.5746511220932007;-0.6707780957221985;90.03107452392578
1;1673368024.0014653;47.1306423;7.24062;-0.039000000804662704;1673368024.1248496;-0.050468966364860535;-0.7397318482398987;90.0632095336914
2;1673368024.2125404;47.1306423;7.24062;-0.039000000804662704;1673368024.330296;-0.0756005346775055;-0.20286938548088074;90.26824951171875
3;1673368024.413985;47.1306423;7.24062;-0.04100000113248825;1673368024.5357535;-0.08855440467596054;-0.12917408347129822;90.08821105957031
4;1673368024.6267898;47.1306423;7.2406198999999996;-0.04000000283122063;1673368024.7317832;0.004159864969551563;-0.24327366054058075;90.16034698486328
5;1673368024.8123798;47.1306423;7.2406198999999996;-0.036000002175569534;1673368024.9410594;0.29763346910476685;-0.1955021768808365;90.21664428710938
6;1673368025.0326443;47.1306423;7.2406198999999996;-0.03100000135600567;1673368025.1466672;0.051038697361946106;-0.17236539721488953;90.04129028320312
7;1673368025.2302682;47.1306424;7.24062;-0.030000001192092896;1673368025.3405826;0.06234204024076462;-0.28908848762512207;90.26358795166016
8;1673368025.4144914;47.1306424;7.24062;-0.030000001192092896;1673368025.5322466;0.019809387624263763;-0.21928967535495758;90.14106750488281
9;1673368025.6157637;47.1306424;7.24062;-0.030000001192092896;1673368025.730584;0.05223299190402031;-0.14247341454029083;90.15946197509766
10;1673368025.8131695;47.1306424;7.24062;-0.032999999821186066;1673368025.9260888;-0.014247506856918335;-0.2398177534341812;90.2294921875
11;1673368026.014671;47.1306424;7.24062;-0.03700000047683716;1673368026.1337569;0.06820942461490631;-0.042916443198919296;89.9996566772461
12;1673368026.210317;47.1306425;7.24062;-0.039000000804662704;1673368026.3293421;-0.1306799352169037;-0.21278949081897736;90.20097351074219
13;1673368026.4136198;47.1306424;7.24062;-0.039000000804662704;1673368026.5304258;-0.26484745740890503;-0.0456637479364872;90.05479431152344
14;1673368026.618125;47.1306424;7.2406198999999996;0.0;1673368026.7338698;0.0032575465738773346;-0.378104031085968;90.1109848022461
15;1673368026.8538918;47.1306425;7.2406198999999996;-0.003000000026077032;1673368026.9635725;-0.12954168021678925;-0.28999966382980347;90.06195831298828
16;1673368027.039268;47.1306425;7.2406198999999996;-0.005000000353902578;1673368027.1403432;0.12178871035575867;-0.20350530743598938;89.97359466552734
17;1673368027.2179945;47.1306425;7.2406198999999996;-0.004000000189989805;1673368027.3296156;0.1137196272611618;-0.24003055691719055;90.04496765136719
18;1673368027.4100304;47.1306425;7.24062;-0.0010000000474974513;1673368027.523924;-0.09351885318756104;-0.1225123330950737;89.95210266113281
19;1673368027.6272197;47.1306424;7.2406201999999995;0.0010000000474974513;1673368027.7371678;-0.35480228066444397;-0.7015988230705261;90.14508819580078
20;1673368027.8222177;47.1306424;7.2406201999999995;0.003000000026077032;1673368027.9272993;-0.399120956659317;-0.38270094990730286;90.0428237915039
21;1673368028.0040863;47.1306424;7.2406203;-0.0010000000474974513;1673368028.116281;-0.6828287839889526;-0.9359936118125916;90.00798034667969
22;1673368028.2112956;47.1306424;7.2406203;-0.004000000189989805;1673368028.3192797;-0.6574680805206299;-0.24187643826007843;90.30944061279297
23;1673368028.4039447;47.1306424;7.2406201999999995;-0.005000000353902578;1673368028.5132687;-0.5191695690155029;-0.24187350273132324;90.17174530029297
24;1673368028.6021645;47.1306424;7.2406201999999995;-0.009000000543892384;1673368028.7252243;-0.679518461227417;-0.3167881369590759;90.39939880371094
25;1673368028.8140619;47.1306425;7.2406203;-0.01600000075995922;1673368028.9310918;-0.5352095365524292;-0.18601298332214355;90.3498764038086
26;1673368029.016066;47.1306425;7.2406203;-0.017000000923871994;1673368029.1261096;-0.8493804335594177;-0.2581843435764313;90.64674377441406
27;1673368029.20514;47.1306425;7.2406204;-0.01900000125169754;1673368029.3091686;-1.1068556308746338;-0.3931392729282379;90.42782592773438
28;1673368029.3886807;47.1306425;7.2406204;-0.02200000174343586;1673368029.5161073;-0.73650062084198;-0.0316670797765255;92.33970642089844
29;1673368029.61537;47.1306425;7.2406207;-0.023000001907348633;1673368029.751123;1.2007197141647339;-0.17668157815933228;94.08538818359375
30;1673368029.8341043;47.1306425;7.240621699999999;-0.020000001415610313;1673368029.937345;4.8911285400390625;-0.02821752056479454;93.06996154785156
31;1673368030.0161276;47.1306425;7.240623599999999;-0.009000000543892384;1673368030.1461492;10.404804229736328;0.257768452167511;93.30029296875
32;1673368030.2324102;47.1306425;7.2406264;0.0;1673368030.3392808;16.08202362060547;0.9487233757972717;95.75733184814453
33;1673368030.4272165;47.130642599999995;7.2406299;0.009000000543892384;1673368030.5372539;16.305831909179688;2.3644092082977295;95.0423812866211
34;1673368030.6154966;47.130642599999995;7.2406342;0.02500000037252903;1673368030.7260804;16.626628875732422;1.3624393939971924;93.96781158447266
35;1673368030.810123;47.130642699999996;7.240639;0.05000000074505806;1673368030.9284039;17.837997436523438;1.9693042039871216;93.4466552734375
36;1673368031.0330641;47.130642699999996;7.2406444;0.0820000022649765;1673368031.1471066;19.414066314697266;2.132727861404419;92.96189880371094
37;1673368031.2273252;47.130642699999996;7.24065;0.11900000274181366;1673368031.3419147;21.253087997436523;1.1105607748031616;92.33625030517578
38;1673368031.4221828;47.130642699999996;7.2406558;0.15800000727176666;1673368031.533564;23.225788116455078;1.0927448272705078;91.98614501953125
39;1673368031.6132476;47.130642599999995;7.240661599999999;0.20000000298023224;1673368031.7317617;25.249624252319336;1.6541486978530884;91.86832427978516
40;1673368031.8212466;47.130642599999995;7.2406671;0.24500000476837158;1673368031.943084;27.322607040405273;1.0021486282348633;91.56732940673828
41;1673368032.03244;47.130642599999995;7.2406722;0.2930000126361847;1673368032.1707275;29.477333068847656;0.5916486978530884;91.27411651611328
42;1673368032.251371;47.1306425;7.2406767;0.34300002455711365;1673368032.359425;31.571035385131836;1.0129207372665405;91.18115234375
43;1673368032.4449918;47.1306425;7.240680599999999;0.3920000195503235;1673368032.5797918;33.7163200378418;0.9310506582260132;91.1041488647461
44;1673368032.6560645;47.1306425;7.240683499999999;0.4440000355243683;1673368032.765053;35.9632453918457;0.4189740717411041;90.8364486694336
45;1673368032.8485382;47.130642599999995;7.2406855;0.5010000467300415;1673368032.9515772;38.083030700683594;0.7803411483764648;90.83381652832031
46;1673368033.0222955;47.130642599999995;7.240686299999999;0.5600000023841858;1673368033.1190345;40.24785232543945;0.9400003552436829;90.89871978759766
47;1673368033.2168348;47.130642599999995;7.2406859;0.6240000128746033;1673368033.33356;42.514217376708984;0.569735586643219;90.60429382324219
48;1673368033.4281487;47.130642599999995;7.240684099999999;0.6920000314712524;1673368033.5424943;44.72868347167969;0.817956805229187;90.66065979003906
49;1673368033.616559;47.130642599999995;7.2406809;0.7620000243186951;1673368033.7226076;46.87410354614258;0.9659110903739929;90.61725616455078
50;1673368033.8036401;47.130642599999995;7.2406761;0.8350000381469727;1673368033.9194927;46.51124954223633;0.6201767921447754;90.41573333740234
51;1673368034.0158567;47.130642599999995;7.2406698;0.906000018119812;1673368034.135629;41.60248565673828;0.4910978376865387;90.35746765136719
52;1673368034.224017;47.1306425;7.240662599999999;0.9750000238418579;1673368034.3698332;36.74544906616211;0.4110991358757019;90.26612854003906
53;1673368034.4478676;47.1306425;7.240654999999999;1.037000060081482;1673368034.549061;31.527236938476562;0.2739063799381256;90.28133392333984
54;1673368034.620843;47.1306424;7.240647699999999;1.0910000801086426;1673368034.7317045;26.5737361907959;0.29273271560668945;90.198486328125
55;1673368034.8132677;47.1306424;7.240641;1.1430000066757202;1673368034.9270184;22.80934715270996;0.2044578343629837;90.25788116455078
56;1673368035.023321;47.1306423;7.2406353;1.196000099182129;1673368035.144811;20.715072631835938;0.0653279721736908;90.26133728027344
57;1673368035.225976;47.1306423;7.240630899999999;1.2480000257492065;1673368035.3574696;20.263011932373047;-0.06731170415878296;90.26419067382812
58;1673368035.4615474;47.1306423;7.2406277999999995;1.3010001182556152;1673368035.5695357;21.040359497070312;0.684284508228302;90.46778106689453
59;1673368035.655066;47.1306423;7.2406258;1.3640000820159912;1673368035.763974;22.865476608276367;0.66950523853302;90.45244598388672
60;1673368035.8429;47.1306423;7.2406248;1.440000057220459;1673368035.9604013;24.669057846069336;-1.4567044973373413;89.86885833740234
61;1673368036.0437186;47.1306423;7.2406242999999995;1.527000069618225;1673368036.157137;26.02020263671875;0.9558886289596558;89.6740951538086
62;1673368036.2359033;47.1306424;7.2406241;1.6220000982284546;1673368036.356305;27.609786987304688;1.8508851528167725;90.05130767822266
63;1673368036.4369771;47.1306425;7.2406241;1.727000117301941;1673368036.5943635;28.664697647094727;-0.818528413772583;89.14270782470703
64;1673368036.6716974;47.1306425;7.2406241;1.8440001010894775;1673368036.7782514;29.235185623168945;1.1317075490951538;89.73381042480469
65;1673368036.8563337;47.1306425;7.2406239999999995;1.9750001430511475;1673368036.969884;29.56674575805664;2.2357094287872314;90.17440032958984
66;1673368037.0687745;47.130642599999995;7.2406236999999996;2.121000051498413;1673368037.1920087;29.373811721801758;-0.7192775011062622;89.29359436035156
67;1673368037.294835;47.1306425;7.240623299999999;2.2820000648498535;1673368037.4193704;28.865293502807617;0.2862740755081177;89.38301849365234
68;1673368037.4860673;47.1306425;7.2406228;2.455000162124634;1673368037.586226;28.488405227661133;2.4269261360168457;89.97008514404297
69;1673368037.6663506;47.1306425;7.2406222;2.639000177383423;1673368037.7713513;27.873933792114258;-0.26988986134529114;89.21549987792969
70;1673368037.844198;47.1306425;7.2406215;2.830000162124634;1673368037.9442706;27.43178367614746;-0.5824414491653442;89.15009307861328
71;1673368038.024904;47.1306424;7.240621;3.0230002403259277;1673368038.1348982;26.893360137939453;1.8656954765319824;90.11600494384766
72;1673368038.2136886;47.1306423;7.2406204999999995;3.2140002250671387;1673368038.3295414;26.617849349975586;0.22448872029781342;89.715576171875
73;1673368038.4170916;47.1306423;7.2406201999999995;3.4050002098083496;1673368038.534693;26.599536895751953;-1.4163646697998047;89.10897827148438
74;1673368038.6247098;47.1306422;7.24062;3.5960001945495605;1673368038.7365105;26.75203514099121;1.7552851438522339;89.86200714111328
75;1673368038.819102;47.1306423;7.24062;3.7860002517700195;1673368038.9358091;27.0167293548584;0.29962342977523804;89.494384765625
76;1673368039.0185068;47.1306423;7.24062;3.9780001640319824;1673368039.132415;27.285295486450195;-1.595131278038025;89.1569595336914
77;1673368039.221821;47.1306423;7.2406201;4.173000335693359;1673368039.3403068;27.398548126220703;1.4891234636306763;89.87962341308594
78;1673368039.4224973;47.1306423;7.2406201999999995;4.368000030517578;1673368039.5363154;27.717012405395508;0.7611477375030518;89.6440658569336
79;1673368039.6219795;47.1306424;7.2406203;4.561000347137451;1673368039.731523;27.77132797241211;-1.2128829956054688;89.00547790527344
80;1673368039.8239563;47.1306424;7.2406204;4.752000331878662;1673368039.9435973;27.913808822631836;1.48637056350708;89.73580169677734
81;1673368040.0303576;47.130642599999995;7.2406204999999995;4.943000316619873;1673368040.1488433;28.009239196777344;1.8918466567993164;89.80806732177734
82;1673368040.2323265;47.130642599999995;7.2406204999999995;5.138000011444092;1673368040.3583517;27.980085372924805;-0.7958381175994873;89.05980682373047
83;1673368040.4481792;47.130642599999995;7.2406206;5.334000110626221;1673368040.558083;28.02580451965332;0.6594815850257874;89.50884246826172
84;1673368040.6376832;47.1306425;7.2406206;5.53000020980835;1673368040.7504804;27.93379020690918;1.9953194856643677;90.0416030883789
85;1673368040.8388658;47.1306425;7.2406206;5.7260003089904785;1673368040.9545846;27.723976135253906;-1.2426210641860962;89.17738342285156
86;1673368041.0411444;47.1306425;7.2406204999999995;5.920000076293945;1673368041.1558952;27.660764694213867;-0.3874242305755615;89.34696197509766
87;1673368041.2286677;47.1306425;7.2406204999999995;6.115000247955322;1673368041.35302;27.735992431640625;2.3934595584869385;90.13568115234375
88;1673368041.4366379;47.1306425;7.2406204999999995;6.310000419616699;1673368041.543683;27.811996459960938;-0.6390755772590637;89.2554931640625
89;1673368041.6188495;47.130642599999995;7.2406206;6.506000518798828;1673368041.7440698;27.87030029296875;-0.6616030335426331;89.11128234863281
90;1673368041.8295283;47.1306425;7.2406206;6.700000286102295;1673368041.9295268;27.859638214111328;2.080033540725708;90.01839447021484
91;1673368042.018019;47.1306425;7.2406207;6.89400053024292;1673368042.1298344;27.91951560974121;-0.18124136328697205;89.46878051757812
92;1673368042.214623;47.1306425;7.2406206;7.086000442504883;1673368042.3483171;27.769412994384766;-1.1276624202728271;89.06552124023438
93;1673368042.4293509;47.1306425;7.2406206;7.279000282287598;1673368042.5567906;27.769306182861328;2.28035306930542;90.02368927001953
94;1673368042.644632;47.130642599999995;7.2406206;7.4720001220703125;1673368042.7889416;27.754392623901367;1.0091708898544312;89.65760803222656
95;1673368042.878824;47.130642599999995;7.2406206;7.664000511169434;1673368043.0199084;27.8146915435791;-1.2680596113204956;88.89585876464844
96;1673368043.1034153;47.1306425;7.2406204999999995;7.859000205993652;1673368043.2016647;27.799285888671875;1.5713673830032349;89.68049621582031
97;1673368043.280769;47.1306425;7.2406204999999995;8.052000045776367;1673368043.3836067;27.822467803955078;1.281429409980774;89.74604034423828
98;1673368043.4575093;47.1306425;7.2406204999999995;8.248000144958496;1673368043.5582793;27.682193756103516;-1.20732843875885;88.93570709228516
99;1673368043.6432269;47.1306425;7.2406204;8.445000648498535;1673368043.7619019;27.808216094970703;1.0822970867156982;89.4998550415039
100;1673368043.896494;47.1306425;7.2406204;8.643000602722168;1673368043.9987288;27.797101974487305;1.967410683631897;89.9807357788086
101;1673368044.0788171;47.1306425;7.2406204;8.842000007629395;1673368044.1770666;27.666934967041016;-1.2421915531158447;89.20513153076172
102;1673368044.250947;47.1306424;7.2406203;9.043000221252441;1673368044.3448305;27.69533348083496;0.2816872298717499;89.58199310302734
103;1673368044.4182498;47.1306424;7.2406203;9.244000434875488;1673368044.5429192;27.738143920898438;2.109356641769409;90.08598327636719
104;1673368044.6345954;47.1306424;7.2406203;9.443000793457031;1673368044.7499797;27.78631019592285;-1.077691912651062;89.1378173828125
105;1673368044.8315744;47.1306424;7.2406203;9.63800048828125;1673368045.0008714;27.66826057434082;0.08090237528085709;89.36125183105469
106;1673368045.0882049;47.1306424;7.2406203;9.836000442504883;1673368045.1963239;27.641698837280273;2.2465455532073975;89.95809936523438
107;1673368045.2792969;47.1306424;7.2406203;10.040000915527344;1673368045.385329;27.885210037231445;-0.5845416188240051;89.30084991455078
108;1673368045.469867;47.1306424;7.2406201999999995;10.267000198364258;1673368045.576805;26.833845138549805;-0.011824168264865875;89.36665344238281
109;1673368045.653531;47.1306423;7.2406198999999996;10.608000755310059;1673368045.7594624;28.831384658813477;1.0270038843154907;89.74964141845703
110;1673368045.8391163;47.1306423;7.2406194;11.003000259399414;1673368045.9529111;27.410526275634766;0.8558329343795776;89.79090118408203
111;1673368046.0345774;47.1306423;7.2406187;11.409000396728516;1673368046.1400576;26.120386123657227;-1.1485693454742432;89.04055786132812
112;1673368046.2230906;47.1306423;7.2406182;11.820000648498535;1673368046.3379924;25.5264949798584;1.2636973857879639;89.71835327148438
113;1673368046.422502;47.1306424;7.2406178;12.233000755310059;1673368046.5392523;25.083097457885742;1.465540885925293;89.77616119384766
114;1673368046.6260495;47.1306424;7.240617599999999;12.64900016784668;1673368046.736045;25.133729934692383;-1.276717185974121;88.99876403808594
115;1673368046.840165;47.1306424;7.240617599999999;13.067000389099121;1673368046.966706;25.3930606842041;0.895334780216217;89.56111145019531
116;1673368047.0558195;47.1306424;7.2406177;13.480000495910645;1673368047.1679292;25.917137145996094;1.4988268613815308;89.81809997558594
117;1673368047.2593536;47.1306424;7.2406179999999996;13.887001037597656;1673368047.3707147;26.28213882446289;-1.0557981729507446;89.00454711914062
118;1673368047.447862;47.1306424;7.2406182999999995;14.292000770568848;1673368047.5480127;26.793066024780273;0.6962845921516418;89.44124603271484
119;1673368047.6296203;47.1306425;7.2406185999999995;14.696001052856445;1673368047.7483115;27.070114135742188;2.07027530670166;89.90803527832031
120;1673368047.8360374;47.1306425;7.2406188;15.10300064086914;1673368047.9411833;27.2586669921875;-0.6757570505142212;89.24146270751953
121;1673368048.0286305;47.1306425;7.240619;15.509000778198242;1673368048.1640356;27.259035110473633;-0.026441728696227074;89.5027084350586
122;1673368048.2559464;47.1306425;7.240619199999999;15.916000366210938;1673368048.363367;27.17156982421875;2.1838011741638184;90.03437042236328
123;1673368048.4617424;47.130642599999995;7.240619199999999;16.32400131225586;1673368048.5790086;27.201581954956055;-0.2754402756690979;89.25471496582031
124;1673368048.6622212;47.130642599999995;7.240619199999999;16.72800064086914;1673368048.7820516;26.944246292114258;-0.12633821368217468;89.16780090332031
125;1673368048.8597894;47.130642599999995;7.240619199999999;17.12700080871582;1673368048.9678023;26.892393112182617;2.426936626434326;89.93265533447266
126;1673368049.0525427;47.130642699999996;7.240619199999999;17.529001235961914;1673368049.170858;26.819135665893555;0.1418420970439911;89.43138122558594
127;1673368049.260258;47.130642599999995;7.240619199999999;17.935001373291016;1673368049.376363;26.898143768310547;-0.5556719899177551;89.1362533569336
128;1673368049.4544055;47.130642599999995;7.240619199999999;18.34200096130371;1673368049.5705078;26.712709426879883;1.9714298248291016;89.89558410644531
129;1673368049.6618538;47.130642599999995;7.240619199999999;18.74700164794922;1673368049.7658684;26.780258178710938;0.6465785503387451;89.53759765625
130;1673368049.846561;47.130642599999995;7.240619199999999;19.148000717163086;1673368049.9515858;26.742536544799805;-0.7565435171127319;89.0210952758789
131;1673368050.0392187;47.130642599999995;7.240619199999999;19.545000076293945;1673368050.1600232;26.808929443359375;2.0967600345611572;89.87492370605469
132;1673368050.2481523;47.130642599999995;7.240619199999999;19.941001892089844;1673368050.3710785;26.763010025024414;0.8791497349739075;89.7044448852539
133;1673368050.4592133;47.130642599999995;7.240619199999999;20.343000411987305;1673368050.5809443;26.844221115112305;-0.8368122577667236;89.22837829589844
134;1673368050.6856368;47.1306425;7.240619199999999;20.748001098632812;1673368050.7850106;26.68914794921875;1.4618644714355469;89.7245101928711
135;1673368050.8607378;47.1306425;7.240619199999999;21.152000427246094;1673368050.966741;26.90262222290039;1.3614853620529175;89.72948455810547
136;1673368051.0395315;47.1306425;7.2406193;21.55500030517578;1673368051.1464562;26.65610694885254;-0.9549683928489685;88.97947692871094
137;1673368051.2260528;47.1306425;7.2406193;21.95400047302246;1673368051.3488479;26.78597068786621;1.4800645112991333;89.72544860839844
138;1673368051.4353688;47.1306425;7.2406193;22.35300064086914;1673368051.5521162;26.84602165222168;1.9011175632476807;89.92858123779297
139;1673368051.637651;47.1306425;7.2406193;22.755001068115234;1673368051.758255;26.847766876220703;-1.0414806604385376;89.13818359375
140;1673368051.8456647;47.1306425;7.2406194;23.160001754760742;1673368051.9604113;26.846620559692383;0.8367228507995605;89.61637115478516
141;1673368052.0400026;47.1306424;7.2406194;23.565000534057617;1673368052.149891;26.806062698364258;1.9875925779342651;89.95184326171875
142;1673368052.2392664;47.1306425;7.240619499999999;23.968000411987305;1673368052.3560963;26.996644973754883;-0.8064552545547485;89.08334350585938
143;1673368052.4383483;47.1306425;7.2406196;24.371000289916992;1673368052.5643895;26.985130310058594;0.6064155101776123;89.44217681884766
144;1673368052.6543832;47.1306424;7.2406196;24.770000457763672;1673368052.76571;26.89197540283203;2.021832227706909;89.96160125732422
145;1673368052.8475223;47.1306424;7.2406196;25.16900062561035;1673368052.9632545;26.962095260620117;-0.7290897369384766;89.24972534179688
146;1673368053.0466535;47.1306424;7.2406197;25.57400131225586;1673368053.1565733;26.84640121459961;0.11255838721990585;89.4102554321289
147;1673368053.2409925;47.1306424;7.2406197;25.979001998901367;1673368053.3526392;26.928390502929688;2.316574811935425;90.02671813964844
148;1673368053.4364235;47.1306424;7.2406197;26.38300132751465;1673368053.5512083;26.91710662841797;-0.43907421827316284;89.15859985351562
149;1673368053.6348562;47.1306424;7.2406197;26.785001754760742;1673368053.7495983;26.83245277404785;-0.2718779742717743;89.20796966552734
150;1673368053.824333;47.1306424;7.2406196;27.184001922607422;1673368053.9302952;26.78293228149414;1.8871030807495117;89.90016174316406
151;1673368054.013043;47.1306424;7.2406196;27.58100128173828;1673368054.1660929;26.9244327545166;0.07408910989761353;89.40706634521484
152;1673368054.2648358;47.1306424;7.2406196;27.985000610351562;1673368054.392178;26.894426345825195;-0.6480943560600281;89.22005462646484
153;1673368054.4738426;47.1306425;7.2406197;28.39000129699707;1673368054.5851686;26.83686065673828;2.1094868183135986;89.90724182128906
154;1673368054.6667278;47.130642599999995;7.2406197;28.796001434326172;1673368054.769037;26.880083084106445;0.6661242842674255;89.5512466430664
155;1673368054.8478124;47.130642699999996;7.2406197;29.19700050354004;1673368054.956689;26.76361846923828;-0.37887921929359436;89.05278778076172
156;1673368055.0401838;47.130642699999996;7.2406197;29.599000930786133;1673368055.1914642;26.907855987548828;2.065491199493408;89.7707748413086
157;1673368055.2886832;47.1306428;7.2406197;29.998001098632812;1673368055.4203224;26.80792999267578;1.4941020011901855;89.76234436035156
158;1673368055.5173788;47.130642699999996;7.2406197;30.393001556396484;1673368055.6063483;26.873594284057617;-0.7660574316978455;89.11933898925781
159;1673368055.6810706;47.130642699999996;7.2406197;30.795001983642578;1673368055.8027935;26.86043357849121;1.651258945465088;89.66233825683594
160;1673368055.8804357;47.1306428;7.2406197;31.202001571655273;1673368055.9825983;26.87828826904297;1.6509692668914795;89.71694946289062
161;1673368056.0501885;47.1306428;7.2406197;31.60700225830078;1673368056.1547103;26.78367805480957;-0.706459105014801;89.06287384033203
162;1673368056.242172;47.1306428;7.2406197;32.009002685546875;1673368056.3606293;26.879676818847656;1.4290305376052856;89.64434051513672
163;1673368056.4412649;47.130642699999996;7.2406197;32.40800094604492;1673368056.5883167;26.81669807434082;1.6644870042800903;89.73472595214844
164;1673368056.671985;47.130642699999996;7.2406197;32.80500030517578;1673368056.80015;26.82769012451172;-0.6650485992431641;89.096923828125
165;1673368056.8868165;47.130642699999996;7.2406197;33.20600128173828;1673368057.0036998;26.830455780029297;0.6607839465141296;89.51094818115234
166;1673368057.0765393;47.130642699999996;7.240619799999999;33.608001708984375;1673368057.195197;26.926328659057617;2.3577077388763428;89.89842987060547
167;1673368057.287901;47.130642699999996;7.240619799999999;34.012001037597656;1673368057.3948815;26.960186004638672;-0.12744231522083282;89.29186248779297
168;1673368057.4696696;47.1306428;7.240619799999999;34.41800308227539;1673368057.5806975;26.86883544921875;0.6356155276298523;89.44622039794922
169;1673368057.6663814;47.1306428;7.2406198999999996;34.82200241088867;1673368057.7919407;26.83148765563965;2.555622100830078;90.04928588867188
170;1673368057.908167;47.1306428;7.2406198999999996;35.22200012207031;1673368058.035013;26.930194854736328;-0.21572232246398926;89.2970962524414
171;1673368058.1290298;47.130642699999996;7.240619799999999;35.61900329589844;1673368058.2507703;26.87633514404297;0.10999522358179092;89.36236572265625
172;1673368058.3222253;47.130642699999996;7.240619799999999;36.02300262451172;1673368058.452492;26.920127868652344;2.6060240268707275;90.02133178710938
173;1673368058.5233955;47.130642699999996;7.240619799999999;36.43000030517578;1673368058.6313198;26.82396697998047;0.18145456910133362;89.34552764892578
174;1673368058.7055347;47.130642699999996;7.2406198999999996;36.83500289916992;1673368058.8257494;26.94841957092285;-0.33347758650779724;89.10419464111328
175;1673368058.9079003;47.130642599999995;7.2406198999999996;37.23800277709961;1673368059.0155556;26.88392448425293;2.2211368083953857;89.78372955322266
176;1673368059.117562;47.130642599999995;7.240619799999999;37.63600158691406;1673368059.2275193;26.946273803710938;0.17616404592990875;89.44041442871094
177;1673368059.2909431;47.130642599999995;7.240619799999999;38.03000259399414;1673368059.3825102;26.722923278808594;-0.7178491950035095;89.1668472290039
178;1673368059.458244;47.130642599999995;7.240619799999999;38.428001403808594;1673368059.5622926;26.91788673400879;2.1776320934295654;89.87117004394531
179;1673368059.6379871;47.130642599999995;7.240619799999999;38.829002380371094;1673368059.7566314;26.826749801635742;1.1519042253494263;89.71973419189453
180;1673368059.8453758;47.130642599999995;7.240619799999999;39.23100280761719;1673368059.9710517;26.87916374206543;-0.719685971736908;89.15550231933594
181;1673368060.0716536;47.130642599999995;7.240619799999999;39.63500213623047;1673368060.1861422;26.65292739868164;1.8369792699813843;89.8196029663086
182;1673368060.2686746;47.130642599999995;7.240619799999999;40.040000915527344;1673368060.448412;26.791934967041016;1.5759323835372925;89.82011413574219
183;1673368060.53694;47.130642699999996;7.240619799999999;40.441001892089844;1673368060.6331382;26.777484893798828;-0.7718684673309326;89.1049575805664
184;1673368060.6975534;47.130642699999996;7.240619799999999;40.8380012512207;1673368060.7859852;26.714197158813477;1.4161404371261597;89.5496597290039
185;1673368060.8569045;47.130642699999996;7.240619799999999;41.2400016784668;1673368060.9581916;26.805538177490234;2.3042237758636475;89.8868637084961
186;1673368061.0425653;47.130642699999996;7.240619799999999;41.64200210571289;1673368061.1515367;26.762731552124023;-0.4346931576728821;89.09807586669922
187;1673368061.2312164;47.130642699999996;7.240619799999999;42.04300308227539;1673368061.3391125;26.740768432617188;0.8671398162841797;89.51355743408203
188;1673368061.419471;47.130642699999996;7.240619799999999;42.444000244140625;1673368061.5477967;26.75759506225586;2.3429503440856934;89.94039916992188
189;1673368061.6344478;47.130642699999996;7.240619799999999;42.84000015258789;1673368061.7560108;26.8749942779541;-0.5225579738616943;89.24506378173828
190;1673368061.840909;47.130642599999995;7.240619799999999;43.237003326416016;1673368061.955904;26.802650451660156;0.15402407944202423;89.2036361694336
191;1673368062.0521157;47.130642599999995;7.240619799999999;43.6410026550293;1673368062.161124;26.94050407409668;2.3984570503234863;89.84903717041016
192;1673368062.2574065;47.130642699999996;7.240619799999999;44.047000885009766;1673368062.3911476;26.865964889526367;0.6230409145355225;89.43181610107422
193;1673368062.4790812;47.130642699999996;7.240619799999999;44.4530029296875;1673368062.5817208;26.87465476989746;-0.23723457753658295;89.18944549560547
194;1673368062.6496582;47.130642699999996;7.240619799999999;44.85900115966797;1673368062.762455;26.832286834716797;2.4350640773773193;89.87417602539062
195;1673368062.8382618;47.130642699999996;7.240619799999999;45.26300048828125;1673368062.9452682;26.720746994018555;1.037607192993164;89.59502410888672
196;1673368063.0231123;47.130642699999996;7.240619799999999;45.660003662109375;1673368063.1344142;26.749967575073242;-0.6553577184677124;89.11689758300781
197;1673368063.2239492;47.130642699999996;7.240619799999999;46.05400085449219;1673368063.3674145;26.770835876464844;2.05745267868042;89.78610229492188
198;1673368063.4491343;47.130642699999996;7.240619799999999;46.454002380371094;1673368063.5749729;26.868471145629883;1.768239140510559;89.78168487548828
199;1673368063.6555395;47.130642699999996;7.240619799999999;46.85400390625;1673368063.7605643;26.865005493164062;-0.5364999175071716;89.21966552734375
200;1673368063.8431063;47.130642699999996;7.2406198999999996;47.255001068115234;1673368063.9579067;26.877058029174805;1.068887710571289;89.58637237548828
201;1673368064.0414338;47.130642599999995;7.2406198999999996;47.65700149536133;1673368064.1484346;26.840055465698242;2.240797996520996;90.00637817382812
202;1673368064.2466583;47.130642599999995;7.2406198999999996;48.053001403808594;1673368064.3723083;26.975366592407227;-0.43128064274787903;89.4012222290039
203;1673368064.4659472;47.130642599999995;7.24062;48.410003662109375;1673368064.6268685;27.077728271484375;1.0300860404968262;89.43228912353516
204;1673368064.7364943;47.130642599999995;7.2406201999999995;48.71900177001953;1673368064.8348393;27.16009521484375;2.419895648956299;90.02700805664062
205;1673368064.9302745;47.130642599999995;7.2406206;48.98200225830078;1673368065.0380492;27.60336685180664;-0.19603249430656433;89.20362854003906
206;1673368065.1094406;47.130642599999995;7.240621;49.204002380371094;1673368065.215669;28.743391036987305;0.8294038772583008;89.43450164794922
207;1673368065.292017;47.1306425;7.2406215;49.3910026550293;1673368065.4010322;36.463836669921875;1.7806127071380615;87.16844940185547
208;1673368065.4837499;47.1306424;7.2406216;49.51900100708008;1673368065.597431;25.030580520629883;-0.779978334903717;78.15999603271484
209;1673368065.6666918;47.1306422;7.2406217999999996;49.531002044677734;1673368065.7657983;32.55229568481445;-4.307181358337402;65.77692413330078
210;1673368065.8508983;47.1306417;7.240622;49.53900146484375;1673368065.967496;38.87455749511719;-11.603179931640625;54.99850845336914
211;1673368066.055843;47.1306407;7.2406216;49.577003479003906;1673368066.168603;22.082746505737305;-21.016170501708984;47.094722747802734
212;1673368066.2466762;47.1306393;7.2406204999999995;49.63100051879883;1673368066.3586404;23.770721435546875;-23.768253326416016;37.456329345703125
213;1673368066.4496138;47.1306381;7.2406193;49.68400192260742;1673368066.553871;17.570499420166016;-25.300546646118164;28.471519470214844
214;1673368066.648865;47.130637;7.240617899999999;49.73100280761719;1673368066.772932;10.134197235107422;-27.5826358795166;18.646394729614258
215;1673368066.8486161;47.130635999999996;7.2406166;49.76700210571289;1673368066.9576213;4.719613075256348;-28.345136642456055;9.184128761291504
216;1673368067.0477674;47.130635299999994;7.2406153;49.79500198364258;1673368067.1717427;-1.130799651145935;-28.774812698364258;0.01863062009215355
217;1673368067.2729955;47.1306346;7.2406143;49.827003479003906;1673368067.3986995;-5.7975616455078125;-28.251667022705078;-9.325199127197266
218;1673368067.4937813;47.130634199999996;7.2406134;49.86100387573242;1673368067.631756;-9.907757759094238;-27.18146514892578;-18.196638107299805
219;1673368067.7195492;47.1306339;7.2406128;49.893001556396484;1673368067.8207114;-13.609319686889648;-25.035266876220703;-26.93844223022461
220;1673368067.8995798;47.1306337;7.2406123;49.92100143432617;1673368068.001756;-16.82135772705078;-21.625619888305664;-35.6678581237793
221;1673368068.076971;47.130633599999996;7.240611899999999;49.94700241088867;1673368068.1793613;-19.82181739807129;-18.38428497314453;-44.504295349121094
222;1673368068.2594607;47.130633499999995;7.2406117;49.96600341796875;1673368068.36832;-21.92157745361328;-15.024036407470703;-52.280601501464844
223;1673368068.4472222;47.130633499999995;7.2406117;49.98100280761719;1673368068.557503;-22.12808609008789;-16.05927085876465;-50.62897491455078
224;1673368068.6435792;47.130633599999996;7.2406118;49.999000549316406;1673368068.757541;-20.71175193786621;-20.737871170043945;-46.38310241699219
225;1673368068.8372295;47.1306338;7.240612;50.0150032043457;1673368068.95223;-20.101192474365234;-23.364606857299805;-45.26445007324219
226;1673368069.0379214;47.130634;7.240612199999999;50.031002044677734;1673368069.1518629;-20.106731414794922;-23.532794952392578;-44.98984909057617
227;1673368069.2361917;47.130634099999995;7.2406123;50.044002532958984;1673368069.3514576;-20.176185607910156;-21.502986907958984;-45.03740310668945
228;1673368069.4342332;47.130634;7.240612199999999;50.047000885009766;1673368069.5529568;-20.298994064331055;-20.013790130615234;-45.129791259765625
229;1673368069.6471143;47.130634;7.2406121;50.047000885009766;1673368069.7695436;-20.3579158782959;-19.371789932250977;-45.19812774658203
230;1673368069.8700025;47.1306339;7.240612;50.052001953125;1673368069.996618;-20.316679000854492;-19.697425842285156;-45.22172927856445
231;1673368070.0891263;47.1306338;7.240611899999999;50.05600357055664;1673368070.2169845;-20.126972198486328;-21.22394371032715;-44.75459671020508
232;1673368070.2858489;47.130633599999996;7.2406117;50.06100082397461;1673368070.404614;-21.464759826660156;-22.366851806640625;-44.40043640136719
233;1673368070.4817371;47.130633499999995;7.2406115;50.066001892089844;1673368070.590826;-38.83041000366211;-19.833717346191406;-44.7993278503418
234;1673368070.6747339;47.1306338;7.2406106999999995;50.08000183105469;1673368070.7957437;-51.800437927246094;-13.343557357788086;-46.12527084350586
235;1673368070.872764;47.130635399999996;7.240608099999999;50.086002349853516;1673368071.0112605;-59.35268020629883;-8.566549301147461;-48.3704948425293
236;1673368071.0848198;47.1306389;7.2406032;50.0780029296875;1673368071.184869;-55.940101623535156;-4.944005489349365;-51.12217712402344
237;1673368071.2621284;47.1306444;7.2405963;50.060001373291016;1673368071.3648264;-53.18568801879883;-6.583608150482178;-51.035011291503906
238;1673368071.4508069;47.1306513;7.2405878999999995;50.0410041809082;1673368071.562076;-52.3292236328125;-6.778449058532715;-50.468265533447266
239;1673368071.637941;47.1306594;7.2405783999999995;50.01900100708008;1673368071.7561545;-52.60359573364258;-8.727051734924316;-49.514896392822266
240;1673368071.846405;47.1306685;7.2405678;49.9890022277832;1673368071.9787745;-51.47642517089844;-9.137619972229004;-49.15300369262695
241;1673368072.0728118;47.130678499999995;7.2405563;49.952003479003906;1673368072.1869628;-49.2679557800293;-9.319159507751465;-48.99675369262695
242;1673368072.2607546;47.1306892;7.240544099999999;49.91400146484375;1673368072.3858087;-48.470115661621094;-9.195028305053711;-48.9398078918457
243;1673368072.480004;47.1307003;7.2405314999999995;49.88600158691406;1673368072.5858579;-46.937435150146484;-10.18521785736084;-48.91632843017578
244;1673368072.6728618;47.1307117;7.2405186;49.86600112915039;1673368072.7839227;-48.13429260253906;-10.813741683959961;-49.19084548950195
245;1673368072.8748837;47.1307233;7.2405053;49.855003356933594;1673368072.9889388;-48.488006591796875;-10.94108772277832;-49.328006744384766
246;1673368073.074432;47.130735099999995;7.2404917;49.84700393676758;1673368073.17813;-47.77288818359375;-10.967682838439941;-49.436248779296875
247;1673368073.2598393;47.1307469;7.2404778;49.8390007019043;1673368073.3807354;-47.53364562988281;-11.344991683959961;-49.4592170715332
248;1673368073.4650295;47.1307589;7.2404636;49.83100128173828;1673368073.5823374;-47.26310348510742;-11.23310375213623;-51.46004867553711
249;1673368073.6694021;47.1307707;7.2404492;49.82400131225586;1673368073.7883801;-47.13044738769531;-10.153572082519531;-51.993003845214844
250;1673368073.8740613;47.130782599999996;7.2404345;49.816001892089844;1673368073.9882421;-46.839725494384766;-10.662922859191895;-51.377349853515625
251;1673368074.073096;47.1307944;7.2404196999999995;49.81300354003906;1673368074.1821072;-47.102081298828125;-11.11035442352295;-51.299068450927734
252;1673368074.2712512;47.1308061;7.240404799999999;49.816001892089844;1673368074.3850346;-47.28375244140625;-11.738446235656738;-51.22572326660156
253;1673368074.4640193;47.130817799999996;7.240389599999999;49.820003509521484;1673368074.5941005;-47.15264892578125;-12.86327838897705;-51.17558670043945
254;1673368074.6721358;47.130829399999996;7.2403743;49.82100296020508;1673368074.7930634;-46.53404998779297;-14.116734504699707;-51.344608306884766
255;1673368074.8701775;47.130840799999994;7.2403588;49.820003509521484;1673368074.9862006;-45.84882354736328;-15.572005271911621;-51.447940826416016
256;1673368075.0651793;47.130851799999995;7.240342999999999;49.82400131225586;1673368075.1641502;-45.07944869995117;-17.934436798095703;-51.44688034057617
257;1673368075.2549696;47.1308625;7.2403268999999995;49.83100128173828;1673368075.3603125;-44.4368782043457;-21.01774024963379;-51.893211364746094
258;1673368075.4520729;47.1308726;7.2403105;49.84100341796875;1673368075.5801911;-43.466346740722656;-25.343107223510742;-52.110694885253906
259;1673368075.665977;47.1308818;7.2402937;49.849002838134766;1673368075.7809315;-41.90920639038086;-26.773588180541992;-53.51485824584961
260;1673368075.864102;47.13089;7.2402766;49.85600280761719;1673368075.9810317;-37.847755432128906;-33.0355110168457;-53.971012115478516
261;1673368076.0629199;47.130896799999995;7.2402592;49.86000061035156;1673368076.1856492;-25.483766555786133;-42.5387077331543;-55.73073959350586
262;1673368076.2840037;47.1309018;7.2402419;49.84600067138672;1673368076.3896973;1.3691203594207764;-35.14466857910156;-62.324729919433594
263;1673368076.470803;47.130904699999995;7.2402264999999995;49.78700256347656;1673368076.5830112;8.722286224365234;-14.937122344970703;-54.4701042175293
264;1673368076.6656203;47.130905899999995;7.2402143;49.71600341796875;1673368076.7863772;23.513042449951172;-19.180816650390625;-43.30179214477539
265;1673368076.8835552;47.1309055;7.2402063;49.71200180053711;1673368076.9877167;33.09984588623047;-24.10422706604004;-42.35882568359375
266;1673368077.0626962;47.1309027;7.2402022;49.750003814697266;1673368077.179958;26.050416946411133;-26.26207160949707;-43.667259216308594
267;1673368077.2547603;47.1308978;7.2402013;49.803001403808594;1673368077.3750908;7.946479797363281;-29.30313491821289;-44.57600021362305
268;1673368077.4568052;47.1308916;7.2402026;49.845001220703125;1673368077.572526;-2.826542377471924;-23.77619743347168;-47.45595932006836
269;1673368077.6552267;47.1308849;7.240205;49.88100051879883;1673368077.7710087;-0.015307307243347168;-20.86857032775879;-48.784820556640625
270;1673368077.8648365;47.130877999999996;7.240208399999999;49.910003662109375;1673368077.9831314;21.056367874145508;-17.50918960571289;-50.141845703125
271;1673368078.0658545;47.130870699999996;7.2402133;49.939002990722656;1673368078.1818502;31.222780227661133;-19.20414924621582;-48.67447280883789
272;1673368078.2809896;47.1308626;7.2402206;49.965003967285156;1673368078.409894;33.546566009521484;-22.873666763305664;-46.84770202636719
273;1673368078.489953;47.130853599999995;7.2402299999999995;49.90200424194336;1673368078.6136699;30.098644256591797;-23.808353424072266;-43.800537109375
274;1673368078.697424;47.1308447;7.2402397;49.47600173950195;1673368078.811468;22.610328674316406;-11.836590766906738;-40.10408020019531
275;1673368078.8939693;47.1308359;7.2402497;48.68000411987305;1673368079.0088289;9.18043041229248;11.88689136505127;-39.36027908325195
276;1673368079.103212;47.1308272;7.240259999999999;47.50800323486328;1673368079.2112396;-6.7146315574646;43.68769836425781;-46.32529830932617
277;1673368079.2830255;47.1308186;7.240270499999999;45.94200134277344;1673368079.396801;-16.81526756286621;74.82746887207031;-59.532676696777344
278;1673368079.4680727;47.130809899999996;7.240280899999999;43.999000549316406;1673368079.5889308;-20.050392150878906;90.74530792236328;-69.5470962524414
279;1673368079.669485;47.1308011;7.240291399999999;41.69600296020508;1673368079.7741113;-22.443134307861328;82.72592163085938;-69.8171615600586
280;1673368079.8445787;47.130792299999996;7.2403018999999995;39.04100036621094;1673368079.9495854;-20.860931396484375;49.47527313232422;-57.860870361328125
281;1673368080.0331569;47.1307833;7.2403124;36.025001525878906;1673368080.1656103;-4.252469062805176;4.704770088195801;-44.65281295776367
282;1673368080.2518277;47.1307743;7.2403229;32.624000549316406;1673368080.362721;16.680095672607422;-26.911136627197266;-44.13410186767578
283;1673368080.4452953;47.1307654;7.240333799999999;28.832000732421875;1673368080.5625741;27.293058395385742;-33.17206954956055;-44.565635681152344
284;1673368080.6507807;47.130756999999996;7.240344899999999;24.684001922607422;1673368080.7682211;19.806766510009766;-7.195854187011719;-36.58202362060547
285;1673368080.8527675;47.130748999999994;7.2403562;20.171001434326172;1673368080.9637508;-4.552682399749756;30.334524154663086;-37.33778762817383
286;1673368081.048231;47.130741099999995;7.2403673;15.265000343322754;1673368081.174699;-24.869001388549805;56.069664001464844;-49.396514892578125
287;1673368081.2640572;47.130733;7.240378199999999;9.991000175476074;1673368081.3837488;-31.7598934173584;45.749298095703125;-48.70368194580078
288;1673368081.465317;47.1307246;7.240388899999999;4.38700008392334;1673368081.592013;-16.123367309570312;4.495907306671143;-33.855403900146484
289;1673368081.6814094;47.1307191;7.2403967;0.26200002431869507;1673368081.7892365;-6.124924659729004;5.390447616577148;-40.723297119140625
290;1673368081.8786595;47.1307234;7.2403958;0.4440000355243683;1673368081.9936316;-7.826430797576904;4.548276424407959;-48.26902389526367
291;1673368082.0827243;47.130727799999995;7.240394299999999;0.5090000033378601;1673368082.1992805;-7.656052589416504;7.900538444519043;-47.810829162597656
292;1673368082.284217;47.1307325;7.240392699999999;0.5509999990463257;1673368082.4029276;-7.584596633911133;6.6014323234558105;-47.64455795288086
293;1673368082.486437;47.130737499999995;7.2403911;0.5850000381469727;1673368082.599775;-7.52719259262085;6.898299217224121;-47.53612518310547
294;1673368082.68486;47.1307425;7.2403892999999995;0.6150000095367432;1673368082.8005881;-7.399050235748291;6.6917572021484375;-47.419700622558594
295;1673368082.880179;47.130747;7.240387699999999;0.6320000290870667;1673368082.9820778;-7.207455158233643;6.450294017791748;-47.32046890258789
296;1673368083.0648017;47.1307508;7.2403862;0.6410000324249268;1673368083.177789;-6.975198745727539;6.279451370239258;-47.242156982421875
297;1673368083.2695706;47.130753899999995;7.240384799999999;0.6490000486373901;1673368083.376142;-6.702409267425537;6.053223609924316;-47.16176223754883
298;1673368083.454778;47.130756299999994;7.2403835;0.659000039100647;1673368083.5705082;-6.455616474151611;5.839582443237305;-47.082183837890625
299;1673368083.6569335;47.1307581;7.240382299999999;0.6720000505447388;1673368083.7659974;-6.178314685821533;5.6180548667907715;-46.99797821044922
300;1673368083.858906;47.1307603;7.240380999999999;0.6920000314712524;1673368083.987759;-6.062992572784424;5.529250621795654;-46.88595962524414
301;1673368084.0741956;47.130762499999996;7.2403797;0.7200000286102295;1673368084.1928625;-5.737823486328125;5.204023361206055;-46.8076171875
302;1673368084.2825525;47.130763099999996;7.2403789;0.7500000596046448;1673368084.4613338;-5.436782360076904;5.050740718841553;-46.78599166870117
303;1673368084.538488;47.130762399999995;7.2403786;0.7830000519752502;1673368084.6426072;-5.111554145812988;4.888443470001221;-46.672462463378906
304;1673368084.7157917;47.1307615;7.2403786;0.8160000443458557;1673368084.8180275;-4.800865650177002;4.584046363830566;-46.58655548095703
305;1673368084.896605;47.1307603;7.240378799999999;0.8480000495910645;1673368084.9977684;-4.497642517089844;4.27496337890625;-46.48167037963867
306;1673368085.0712612;47.1307602;7.2403787;0.8820000290870667;1673368085.1737194;-4.443152904510498;4.213853359222412;-46.370914459228516
307;1673368085.265724;47.1307608;7.2403784;0.9170000553131104;1673368085.3767924;-4.149329662322998;3.910508871078491;-46.261962890625
308;1673368085.4594388;47.1307597;7.2403789;0.9510000348091125;1673368085.5898266;-3.8340461254119873;3.613532304763794;-46.1400146484375
309;1673368085.6765873;47.130758;7.2403797999999995;0.9820000529289246;1673368085.8030396;-3.542919635772705;3.4108307361602783;-46.00398635864258
310;1673368085.8848295;47.1307562;7.2403808;1.0099999904632568;1673368086.0440764;-3.2964046001434326;3.2106497287750244;-45.876346588134766
311;1673368086.1164093;47.130754499999995;7.2403818;1.0329999923706055;1673368086.234596;-3.023339033126831;3.062939167022705;-45.745906829833984
312;1673368086.323792;47.1307529;7.240382899999999;1.0500000715255737;1673368086.4165494;-2.8101933002471924;2.904491901397705;-45.58346176147461
313;1673368086.4909592;47.1307525;7.2403835;1.065000057220459;1673368086.5848289;-2.7198829650878906;2.891329050064087;-45.4921875
314;1673368086.668106;47.1307529;7.2403837;1.0800000429153442;1673368086.7877562;-2.464273452758789;2.75066876411438;-45.324256896972656
315;1673368086.8810809;47.130752;7.240384499999999;1.0910000801086426;1673368086.993089;-2.261662721633911;2.641352415084839;-45.20485305786133
316;1673368087.0689204;47.1307505;7.2403857;1.097000002861023;1673368087.1750305;-2.027111530303955;2.5243966579437256;-45.07081604003906
317;1673368087.2614608;47.1307489;7.2403868;1.0940001010894775;1673368087.3751926;-1.8139957189559937;2.4643099308013916;-44.97212219238281
318;1673368087.4606621;47.130747299999996;7.240387999999999;1.0880000591278076;1673368087.5795014;-1.6303876638412476;2.3938100337982178;-44.820106506347656
319;1673368087.65309;47.1307468;7.2403887;1.0789999961853027;1673368087.7668593;-1.5385130643844604;2.402066469192505;-44.66368103027344
320;1673368087.8610876;47.1307468;7.2403892;1.0670000314712524;1673368087.9801059;-1.2808881998062134;2.378464937210083;-44.543731689453125
321;1673368088.0557604;47.1307457;7.240390199999999;1.0520000457763672;1673368088.1624205;-1.1429789066314697;2.298581123352051;-44.39833068847656
322;1673368088.244923;47.130744199999995;7.2403911999999995;1.0320000648498535;1673368088.3598557;-0.9048121571540833;2.2337019443511963;-44.26655960083008
323;1673368088.444256;47.130740599999996;7.2403926;1.0170000791549683;1673368088.5735283;-0.5241170525550842;1.2195210456848145;-44.16437911987305
324;1673368088.6603997;47.130734499999996;7.2403944;1.0210000276565552;1673368088.7784111;0.5172675848007202;0.20250025391578674;-44.02635192871094
325;1673368088.8641512;47.130729099999996;7.2403958;-0.0010000000474974513;1673368089.0151756;2.5964643955230713;-1.6594843864440918;-43.834877014160156
326;1673368089.1202984;47.1307252;7.2403968999999995;-0.02200000174343586;1673368089.2340946;3.6402430534362793;-2.64190411567688;-43.56294250488281
327;1673368089.3145866;47.1307228;7.240397499999999;1.0130000114440918;1673368089.47205;6.186355113983154;-5.165429592132568;-43.451148986816406
