;pos_time;latitude;longitude;altitude;alt_time;pitch;roll;yaw
0;1673367124.8206975;47.1306424;7.2406204;0.0010000000474974513;1673367124.8236327;0.010117334313690662;-0.09205026924610138;89.82722473144531
1;1673367125.0220847;47.1306424;7.2406204;0.0010000000474974513;1673367125.0250134;0.22201214730739594;-0.11879991739988327;89.83151245117188
2;1673367125.232978;47.1306424;7.2406204999999995;0.0;1673367125.2359004;0.29060444235801697;-0.06516914069652557;89.80464172363281
3;1673367125.4230082;47.1306424;7.2406204999999995;0.0;1673367125.4249523;-0.030143143609166145;-0.06536301970481873;89.96825408935547
4;1673367125.6198957;47.1306424;7.2406204999999995;-0.0010000000474974513;1673367125.622869;-0.1004071831703186;-0.2880406975746155;89.98925018310547
5;1673367125.8117826;47.1306424;7.2406204;-0.0020000000949949026;1673367125.8137388;-0.11306829005479813;-0.02435777150094509;89.85830688476562
6;1673367126.0139422;47.1306424;7.2406203;-0.004000000189989805;1673367126.0188124;-0.10302586108446121;-0.3069186508655548;89.80985260009766
7;1673367126.2186296;47.1306424;7.2406201999999995;-0.006000000052154064;1673367126.223854;0.012420031242072582;-0.26218748092651367;89.90801239013672
8;1673367126.4328706;47.1306424;7.2406201999999995;-0.00800000037997961;1673367126.4357815;0.23952803015708923;-0.1998290866613388;89.98634338378906
9;1673367126.632001;47.1306423;7.2406201;-0.01100000087171793;1673367126.6339529;0.2183043658733368;-0.127276211977005;90.05123901367188
10;1673367126.8259666;47.1306424;7.2406201999999995;-0.007000000216066837;1673367126.8279204;0.08153384178876877;-0.3485547602176666;90.05906677246094
11;1673367127.0338438;47.1306424;7.2406201999999995;-0.007000000216066837;1673367127.0387228;0.0490032359957695;-0.25616735219955444;90.15544891357422
12;1673367127.2351758;47.1306424;7.2406203;-0.010000000707805157;1673367127.238115;-0.00470407260581851;-0.202085480093956;90.08541107177734
13;1673367127.4318104;47.1306424;7.2406201999999995;-0.013000000268220901;1673367127.435707;0.16659507155418396;-0.23870594799518585;90.00181579589844
14;1673367127.6282508;47.1306424;7.2406201999999995;0.0;1673367127.6307676;0.2968064546585083;-0.1662766933441162;89.856689453125
15;1673367127.8148565;47.1306424;7.2406203;0.004000000189989805;1673367127.8187602;0.24004851281642914;-0.2324395477771759;89.9949722290039
16;1673367128.0177665;47.1306424;7.2406203;0.013000000268220901;1673367128.0221603;0.12782514095306396;-0.10591538995504379;90.0142822265625
17;1673367128.2257037;47.1306424;7.2406204;0.018000001087784767;1673367128.2286446;0.06166158989071846;0.027515605092048645;89.90022277832031
18;1673367128.4340308;47.1306425;7.2406204999999995;0.021000001579523087;1673367128.4369793;-0.015259255655109882;-0.1699155569076538;89.86924743652344
19;1673367128.6438303;47.1306425;7.2406204999999995;0.02200000174343586;1673367128.647736;-0.1490246206521988;-0.06990372389554977;90.01073455810547
20;1673367128.8427496;47.1306425;7.2406204999999995;0.020000001415610313;1673367128.8476293;0.3002472519874573;0.06226903200149536;90.19192504882812
21;1673367129.0319133;47.1306424;7.2406204999999995;0.017000000923871994;1673367129.035814;0.4956642985343933;0.0923626720905304;90.11527252197266
22;1673367129.2248588;47.1306424;7.2406206;0.01900000125169754;1673367129.227779;0.23382975161075592;-0.20923727750778198;90.0007553100586
23;1673367129.4238605;47.1306424;7.2406206;0.0010000000474974513;1673367129.4277635;0.20047050714492798;-0.08102045208215714;90.03286743164062
24;1673367129.6253054;47.1306425;7.2406204;0.004000000189989805;1673367129.6282537;0.4068055748939514;-0.4599466621875763;90.02731323242188
25;1673367129.8327904;47.1306425;7.2406204;0.004000000189989805;1673367129.8347435;0.5309902429580688;-0.35149502754211426;90.38440704345703
26;1673367130.0432563;47.1306425;7.2406203;0.003000000026077032;1673367130.0471606;1.0636563301086426;-0.14893031120300293;89.98881530761719
27;1673367130.245985;47.1306425;7.2406203;0.005000000353902578;1673367130.2519374;2.8535807132720947;-0.2613671123981476;90.08973693847656
28;1673367130.4397733;47.1306425;7.2406201;0.003000000026077032;1673367130.443715;4.701995372772217;-0.12397608906030655;90.14090728759766
29;1673367130.6406507;47.1306425;7.24062;0.007000000216066837;1673367130.6435785;6.340435028076172;-0.019726291298866272;90.06590270996094
30;1673367130.831986;47.1306425;7.240619199999999;-0.006000000052154064;1673367130.834914;0.370283305644989;-0.2072620838880539;87.26759338378906
31;1673367131.0199997;47.1306425;7.240617299999999;0.0010000000474974513;1673367131.0239303;-2.317082166671753;-0.2615610659122467;88.29188537597656
32;1673367131.2250862;47.1306425;7.240614399999999;0.020000001415610313;1673367131.2280152;-8.677098274230957;0.3458409011363983;87.93283081054688
33;1673367131.4228785;47.1306424;7.2406106999999995;0.04000000283122063;1673367131.4258099;-15.923352241516113;-0.9773528575897217;87.87911987304688
34;1673367131.634868;47.1306423;7.240606199999999;0.06100000441074371;1673367131.6368194;-16.053142547607422;-0.9252055287361145;88.40518951416016
35;1673367131.849688;47.1306422;7.240601099999999;0.10000000149011612;1673367131.8526475;-16.496082305908203;1.4764171838760376;88.12950897216797
36;1673367132.0420141;47.130642099999996;7.2405954999999995;0.1510000079870224;1673367132.0478482;-17.84252166748047;0.3567764163017273;88.6584243774414
37;1673367132.2377925;47.130641999999995;7.2405896;0.2110000103712082;1673367132.242778;-19.490951538085938;-1.4014917612075806;89.38864135742188
38;1673367132.4227948;47.1306418;7.2405836;0.28600001335144043;1673367132.425729;-21.404071807861328;-0.27177199721336365;89.27691650390625
39;1673367132.6227443;47.1306416;7.240577699999999;0.3760000169277191;1673367132.6256557;-23.35188865661621;0.6132907867431641;89.0926513671875
40;1673367132.834808;47.130641499999996;7.240571999999999;0.4150000214576721;1673367132.837736;-25.461088180541992;-0.6043626070022583;89.60145568847656
41;1673367133.0357583;47.1306413;7.240566299999999;0.359000027179718;1673367133.0386844;-27.495243072509766;-0.6541186571121216;89.6881103515625
42;1673367133.2258575;47.1306412;7.2405611;0.30400002002716064;1673367133.2278116;-29.62200355529785;-0.0791923850774765;89.56768035888672
43;1673367133.4196746;47.1306411;7.2405566;0.25600001215934753;1673367133.4226403;-31.766923904418945;-1.4992716312408447;89.9808120727539
44;1673367133.6207142;47.130640899999996;7.2405528;0.21000000834465027;1673367133.6250467;-33.93082809448242;-1.0523741245269775;89.90676879882812
45;1673367133.8428183;47.130640899999996;7.24055;0.17600001394748688;1673367133.845736;-36.1091423034668;-0.30114755034446716;89.52262878417969
46;1673367134.0457006;47.130640899999996;7.2405484;0.14600001275539398;1673367134.0486147;-38.305870056152344;-1.5187689065933228;89.90435791015625
47;1673367134.2506294;47.130640899999996;7.2405479999999995;0.1210000067949295;1673367134.2540572;-40.51058578491211;-1.2599973678588867;89.87706756591797
48;1673367134.4450018;47.130641;7.240549;0.11100000888109207;1673367134.4476008;-42.703826904296875;-0.6590172648429871;89.61627960205078
49;1673367134.6318336;47.130641;7.240551399999999;0.10700000822544098;1673367134.6347628;-44.88138198852539;-1.1576851606369019;89.80278778076172
50;1673367134.8269098;47.1306411;7.2405553;0.10000000149011612;1673367134.830994;-47.09760284423828;-1.1573503017425537;89.80838775634766
51;1673367135.0258508;47.1306413;7.2405608;0.10000000149011612;1673367135.0287783;-48.26668930053711;-0.9063587188720703;89.65142822265625
52;1673367135.229819;47.130641499999996;7.2405677;0.09600000083446503;1673367135.2327716;-44.15398025512695;-0.7041751146316528;89.58898162841797
53;1673367135.432963;47.1306417;7.240575499999999;0.08700000494718552;1673367135.43589;-39.2429313659668;-0.46377435326576233;89.42173767089844
54;1673367135.6508074;47.1306418;7.2405836;0.08100000023841858;1673367135.6560743;-33.83753204345703;-0.36241060495376587;89.44220733642578
55;1673367135.8485448;47.130641999999995;7.2405915;0.09300000220537186;1673367135.8511767;-28.119043350219727;-0.6668598651885986;89.5684814453125
56;1673367136.0650008;47.130642099999996;7.2405984;0.11800000816583633;1673367136.0689032;-23.857309341430664;-0.2686017155647278;89.50066375732422
57;1673367136.2689192;47.1306422;7.240604299999999;0.14800000190734863;1673367136.2719226;-20.960906982421875;-0.11119524389505386;89.46795654296875
58;1673367136.4329011;47.1306423;7.2406087999999995;0.18800000846385956;1673367136.4358354;-19.78786849975586;-0.1230921521782875;89.53895568847656
59;1673367136.6187649;47.1306424;7.240612;0.2370000183582306;1673367136.6227672;-20.04825782775879;-1.0484403371810913;89.85225677490234
60;1673367136.8085592;47.1306423;7.2406139;0.30000001192092896;1673367136.8130538;-21.421588897705078;-0.5497658252716064;89.77608489990234
61;1673367137.010039;47.1306423;7.240615;0.3850000202655792;1673367137.0133698;-22.58685874938965;1.3521288633346558;89.08706665039062
62;1673367137.2267747;47.1306423;7.240615399999999;0.48500001430511475;1673367137.2286954;-24.556814193725586;-1.6452430486679077;90.01695251464844
63;1673367137.4328244;47.1306422;7.2406155;0.6000000238418579;1673367137.4357605;-26.382720947265625;-1.9436622858047485;90.19483947753906
64;1673367137.6359591;47.130642099999996;7.240615399999999;0.7360000610351562;1673367137.6388893;-27.896230697631836;0.9306705594062805;89.1132583618164
65;1673367137.8303294;47.1306422;7.240615399999999;0.8850000500679016;1673367137.8352122;-28.740760803222656;-1.855507493019104;90.13372802734375
66;1673367138.025699;47.1306422;7.2406156;1.0470000505447388;1673367138.028632;-29.368432998657227;-2.0408856868743896;90.5721206665039
67;1673367138.2161195;47.1306422;7.2406159;1.222000002861023;1673367138.21905;-29.221805572509766;1.3059909343719482;89.45365905761719
68;1673367138.4309733;47.1306422;7.2406163999999995;1.408000111579895;1673367138.4348602;-28.92012596130371;-1.3067342042922974;90.39713287353516
69;1673367138.6453362;47.130642099999996;7.240616999999999;1.600000023841858;1673367138.6472912;-28.10190773010254;-2.0455703735351562;90.57376861572266
70;1673367138.8402169;47.130641999999995;7.2406177;1.7880001068115234;1673367138.8436937;-27.23603630065918;0.4094866216182709;90.81501007080078
71;1673367139.034833;47.130641999999995;7.2406182999999995;1.9750001430511475;1673367139.038738;-26.902664184570312;-1.7604804039001465;91.5128173828125
72;1673367139.3030026;47.130641999999995;7.2406187;2.1620001792907715;1673367139.3059316;-26.453235626220703;-2.319486379623413;91.8665771484375
73;1673367139.4925497;47.130641999999995;7.240619;2.3510000705718994;1673367139.4944851;-26.37441062927246;0.8293758630752563;90.7471694946289
74;1673367139.6702964;47.130641999999995;7.240619199999999;2.5420000553131104;1673367139.6722503;-26.387195587158203;-1.5243288278579712;91.39688873291016
75;1673367139.8519802;47.1306419;7.2406193;2.7290000915527344;1673367139.8539314;-26.604825973510742;-3.0048651695251465;91.6236801147461
76;1673367140.046394;47.1306419;7.2406193;2.9190001487731934;1673367140.0483425;-26.73731803894043;0.28997671604156494;90.20647430419922
77;1673367140.2401826;47.130641999999995;7.2406193;3.1090002059936523;1673367140.2431128;-27.414066314697266;-0.7099545001983643;90.67086791992188
78;1673367140.444837;47.130642099999996;7.2406193;3.2980000972747803;1673367140.4477675;-27.72178077697754;-2.511340379714966;91.42301177978516
79;1673367140.6337554;47.1306422;7.2406193;3.4900002479553223;1673367140.6367004;-27.907581329345703;0.8861408233642578;90.3719482421875
80;1673367140.8242657;47.1306423;7.2406194;3.681000232696533;1673367140.8301218;-27.95698356628418;0.22050189971923828;90.4961166381836
81;1673367141.0371978;47.1306423;7.2406196;3.874000072479248;1673367141.04208;-27.81536102294922;-2.6011271476745605;91.51256561279297
82;1673367141.2199092;47.1306424;7.2406197;4.065000057220459;1673367141.223825;-27.597692489624023;0.41617462038993835;90.45295715332031
83;1673367141.418187;47.1306425;7.2406198999999996;4.258000373840332;1673367141.4220912;-27.575042724609375;0.6943348050117493;90.46575164794922
84;1673367141.6251996;47.1306425;7.2406201;4.448000431060791;1673367141.6281266;-27.261577606201172;-2.3861701488494873;91.48641204833984
85;1673367141.8253915;47.1306425;7.2406201999999995;4.64300012588501;1673367141.8302886;-27.290433883666992;-0.21700194478034973;90.69120025634766
86;1673367142.0306785;47.1306425;7.2406203;4.838000297546387;1673367142.036535;-27.136367797851562;0.6141618490219116;90.26534271240234
87;1673367142.224282;47.1306424;7.2406204;5.03000020980835;1673367142.226254;-27.12318992614746;-2.867187738418579;91.46888732910156
88;1673367142.4186714;47.1306424;7.2406206;5.224000453948975;1673367142.4215996;-26.664522171020508;-0.8954870700836182;90.82149505615234
89;1673367142.62861;47.1306425;7.2406207;5.420000076293945;1673367142.6325257;-27.142717361450195;1.1475040912628174;90.09890747070312
90;1673367142.868415;47.130642599999995;7.2406207;5.612000465393066;1673367142.871355;-26.885072708129883;-2.244508981704712;91.37705993652344
91;1673367143.0852537;47.130642599999995;7.240620799999999;5.806000232696533;1673367143.0881798;-27.04724884033203;-0.8593975901603699;90.9455795288086
92;1673367143.301375;47.130642599999995;7.240620799999999;6.00100040435791;1673367143.3042967;-26.89376449584961;1.0465173721313477;90.23622131347656
93;1673367143.472325;47.1306425;7.240620799999999;6.197000503540039;1673367143.4762282;-27.22803497314453;-2.2558226585388184;91.2888412475586
94;1673367143.6561153;47.1306425;7.240620799999999;6.395000457763672;1673367143.6590497;-27.01825523376465;-1.3863400220870972;91.01512145996094
95;1673367143.8450205;47.130642599999995;7.240620799999999;6.588000297546387;1673367143.847948;-27.371395111083984;1.4633008241653442;90.15974426269531
96;1673367144.0514522;47.130642699999996;7.240620799999999;6.7870001792907715;1673367144.0543814;-26.963788986206055;-1.5941401720046997;91.16973876953125
97;1673367144.308935;47.130642699999996;7.240620799999999;6.987000465393066;1673367144.312838;-27.35811996459961;-1.4938162565231323;91.23353576660156
98;1673367144.49564;47.130642699999996;7.240620799999999;7.185000419616699;1673367144.4995427;-27.123071670532227;1.3600502014160156;90.15592956542969
99;1673367144.679223;47.130642599999995;7.240620799999999;7.38200044631958;1673367144.681175;-27.252716064453125;-1.6483511924743652;91.05398559570312
100;1673367144.849651;47.130642599999995;7.240620799999999;7.580000400543213;1673367144.8521712;-26.94597625732422;-2.254387617111206;91.33918762207031
101;1673367145.0542364;47.130642599999995;7.2406209;7.7870001792907715;1673367145.0571764;-27.376121520996094;1.3545857667922974;90.05026245117188
102;1673367145.24026;47.130642699999996;7.2406209;7.996000289916992;1673367145.2422233;-26.931528091430664;-1.0055851936340332;90.89019012451172
103;1673367145.4436126;47.130642699999996;7.2406209;8.208000183105469;1673367145.44653;-27.190555572509766;-1.952610969543457;91.33045196533203
104;1673367145.6340706;47.130642699999996;7.240621;8.419000625610352;1673367145.6380048;-27.04261016845703;1.0078182220458984;90.3200454711914
105;1673367145.8333051;47.130642599999995;7.2406209;8.624000549316406;1673367145.8362224;-27.27639389038086;-0.5947875380516052;90.7251968383789
106;1673367146.0243516;47.1306425;7.2406209;8.832000732421875;1673367146.0282557;-27.210569381713867;-2.6743688583374023;91.47566986083984
107;1673367146.2381425;47.1306425;7.240621;9.039999961853027;1673367146.2410743;-27.344797134399414;0.4196815490722656;90.45642852783203
108;1673367146.4281933;47.130642599999995;7.240621099999999;9.247000694274902;1673367146.4320977;-26.948701858520508;-0.2190946638584137;90.61056518554688
109;1673367146.6294882;47.130642599999995;7.2406212;9.458000183105469;1673367146.633393;-27.226383209228516;-2.6345953941345215;91.44529724121094
110;1673367146.831631;47.1306425;7.2406213;9.667000770568848;1673367146.8345604;-26.84429359436035;0.2909611761569977;90.52593994140625
111;1673367147.0328245;47.1306425;7.2406213;9.880000114440918;1673367147.0367303;-27.106904983520508;0.0549703985452652;90.53427124023438
112;1673367147.2234697;47.1306425;7.2406213;10.087000846862793;1673367147.2263947;-26.86070442199707;-2.7946934700012207;91.51740264892578
113;1673367147.4487238;47.1306425;7.2406213;10.324000358581543;1673367147.4516718;-27.151338577270508;0.4070321321487427;90.63521575927734
114;1673367147.6786878;47.130642599999995;7.240621699999999;10.640000343322754;1673367147.6816175;-32.63671112060547;-0.003173363395035267;90.62572479248047
115;1673367147.853935;47.130642599999995;7.2406229;11.021000862121582;1673367147.856424;-30.380352020263672;-2.080167531967163;91.2557144165039
116;1673367148.031099;47.130642599999995;7.2406242999999995;11.420000076293945;1673367148.0349934;-26.96991729736328;0.06608271598815918;90.55496215820312
117;1673367148.2322733;47.130642599999995;7.2406255999999996;11.822000503540039;1673367148.2342198;-24.440919876098633;0.47671714425086975;90.54259490966797
118;1673367148.429116;47.130642599999995;7.240626499999999;12.212000846862793;1673367148.4330223;-22.44923210144043;-1.7590354681015015;91.3034896850586
119;1673367148.6285274;47.130642599999995;7.240627;12.597000122070312;1673367148.6411982;-21.625579833984375;-0.3881241977214813;90.87033081054688
120;1673367148.84732;47.130642699999996;7.240627;12.969000816345215;1673367148.8492534;-21.860187530517578;1.1283155679702759;90.31397247314453
121;1673367149.046124;47.130642599999995;7.240626499999999;13.327000617980957;1673367149.050031;-22.613492965698242;-2.0053389072418213;91.31608581542969
122;1673367149.2385309;47.1306425;7.2406257;13.677000999450684;1673367149.2424474;-24.097841262817383;-1.1965733766555786;91.00276184082031
123;1673367149.42731;47.1306425;7.2406247;14.02500057220459;1673367149.4312162;-25.307756423950195;1.0672117471694946;90.22305297851562
124;1673367149.635338;47.1306425;7.240623599999999;14.367000579833984;1673367149.6382635;-26.599586486816406;-1.768533706665039;91.13998413085938
125;1673367149.8298438;47.1306425;7.2406226;14.700000762939453;1673367149.8337555;-27.50306510925293;-1.699519157409668;91.05500030517578
126;1673367150.031528;47.1306425;7.2406217999999996;15.042000770568848;1673367150.035432;-28.29662322998047;1.3119635581970215;90.24485778808594
127;1673367150.267409;47.1306425;7.2406213;15.392001152038574;1673367150.2702546;-28.345304489135742;-0.7325541377067566;90.86736297607422
128;1673367150.5268748;47.1306424;7.240621099999999;15.749000549316406;1673367150.5288498;-28.393312454223633;-2.257366895675659;91.23817443847656
129;1673367150.6904728;47.1306423;7.240621099999999;16.111000061035156;1673367150.693406;-28.01008415222168;0.6110298037528992;90.32612609863281
130;1673367150.8549826;47.1306424;7.2406213;16.477001190185547;1673367150.8579113;-27.67551040649414;-0.7404886484146118;90.90011596679688
131;1673367151.0616162;47.1306424;7.2406215;16.838001251220703;1673367151.0635855;-26.868083953857422;-1.860616683959961;91.33580780029297
132;1673367151.268467;47.1306424;7.2406217999999996;17.20800018310547;1673367151.271382;-26.543119430541992;0.6928898692131042;90.4674301147461
133;1673367151.473592;47.1306425;7.2406220999999995;17.578001022338867;1673367151.4755447;-25.967782974243164;0.11411190032958984;90.60604095458984
134;1673367151.6804712;47.1306424;7.2406223;17.950000762939453;1673367151.6824322;-25.882837295532227;-2.1011013984680176;91.45059204101562
135;1673367151.8528264;47.1306424;7.2406223999999995;18.32900047302246;1673367151.855756;-25.594152450561523;0.355071097612381;90.6339111328125
136;1673367152.0361147;47.1306423;7.2406223;18.70400047302246;1673367152.040953;-26.011159896850586;0.640933096408844;90.4031753540039
137;1673367152.2290041;47.1306423;7.2406223;19.077001571655273;1673367152.2319322;-25.813241958618164;-2.260279893875122;91.35076141357422
138;1673367152.4246001;47.1306423;7.2406220999999995;19.44099998474121;1673367152.4275286;-26.170732498168945;-0.19719663262367249;90.76192474365234
139;1673367152.616526;47.1306423;7.2406219;19.810001373291016;1673367152.6184647;-26.368873596191406;1.005532145500183;90.35723114013672
140;1673367152.8178632;47.1306423;7.2406217999999996;20.181001663208008;1673367152.820792;-26.6337890625;-2.2019357681274414;91.30672454833984
141;1673367153.0439541;47.1306422;7.240621699999999;20.558000564575195;1673367153.0468757;-26.68638038635254;-0.9104506969451904;90.92074584960938
142;1673367153.261208;47.130642099999996;7.2406216;20.934001922607422;1673367153.2636929;-26.79491424560547;0.832602858543396;90.23721313476562
143;1673367153.479667;47.130642099999996;7.2406215;21.3070011138916;1673367153.482596;-26.642454147338867;-2.0253348350524902;91.24079132080078
144;1673367153.67234;47.1306422;7.240621399999999;21.67500114440918;1673367153.6762583;-27.028837203979492;-1.1053732633590698;91.03193664550781
145;1673367153.8922033;47.1306422;7.240621399999999;22.052001953125;1673367153.8970857;-26.781047821044922;1.1978760957717896;90.25009155273438
146;1673367154.1334033;47.1306422;7.2406215;22.431001663208008;1673367154.1392615;-26.700119018554688;-1.6548022031784058;91.11112976074219
147;1673367154.3280232;47.130642099999996;7.2406215;22.81300163269043;1673367154.3299758;-26.551849365234375;-1.5454959869384766;91.19315338134766
148;1673367154.5393407;47.130642099999996;7.2406215;23.19500160217285;1673367154.541311;-26.605798721313477;1.0617765188217163;90.21614837646484
149;1673367154.7269297;47.1306422;7.2406216;23.580001831054688;1673367154.7308354;-26.469057083129883;-1.3748208284378052;91.04025268554688
150;1673367154.932473;47.1306422;7.2406216;23.963001251220703;1673367154.934423;-26.5656795501709;-1.810396432876587;91.22579193115234
151;1673367155.138768;47.1306422;7.2406215;24.338001251220703;1673367155.1405997;-26.373746871948242;0.8913559317588806;90.28604888916016
152;1673367155.3388922;47.1306422;7.2406215;24.71900177001953;1673367155.3408444;-26.595056533813477;-0.7645371556282043;90.84727478027344
153;1673367155.5529478;47.1306422;7.2406215;25.101001739501953;1673367155.5539296;-26.358957290649414;-2.2144291400909424;91.32432556152344
154;1673367155.7328837;47.1306423;7.2406215;25.488000869750977;1673367155.7387717;-26.634428024291992;0.8269460797309875;90.30024719238281
155;1673367155.9377606;47.1306424;7.2406215;25.876001358032227;1673367155.9406943;-26.621702194213867;-0.2332567572593689;90.72834777832031
156;1673367156.1069655;47.1306425;7.2406215;26.264001846313477;1673367156.1098902;-26.601924896240234;-2.159519672393799;91.47847747802734
157;1673367156.2867002;47.1306425;7.240621399999999;26.64000129699707;1673367156.2896304;-26.382680892944336;1.5248422622680664;90.25751495361328
158;1673367156.4781692;47.1306425;7.2406213;27.022001266479492;1673367156.480125;-26.576982498168945;-0.9826446175575256;90.9592514038086
159;1673367156.6738427;47.1306425;7.2406213;27.400001525878906;1673367156.6777434;-26.415407180786133;-1.601314902305603;91.20503997802734
160;1673367156.8742259;47.1306425;7.2406213;27.782001495361328;1673367156.8771737;-26.81974983215332;1.3575540781021118;90.23023223876953
161;1673367157.1485274;47.1306425;7.2406213;28.16600227355957;1673367157.1495123;-26.64453887939453;-0.9993651509284973;90.99356842041016
162;1673367157.342923;47.1306425;7.2406213;28.549001693725586;1673367157.3439107;-26.720970153808594;-1.6544829607009888;91.29622650146484
163;1673367157.544335;47.1306425;7.2406213;28.9320011138916;1673367157.547268;-26.50479507446289;1.0830106735229492;90.37989807128906
164;1673367157.7359385;47.1306425;7.2406213;29.308000564575195;1673367157.7378824;-26.72575569152832;-0.7113951444625854;90.82825469970703
165;1673367157.9423072;47.1306425;7.2406212;29.692001342773438;1673367157.9442573;-26.58067512512207;-2.0652804374694824;91.36526489257812
166;1673367158.1488867;47.1306425;7.2406213;30.077001571655273;1673367158.1498632;-26.752004623413086;1.0133908987045288;90.32908630371094
167;1673367158.3505309;47.130642599999995;7.2406213;30.461002349853516;1673367158.3524883;-26.55017852783203;0.034486208111047745;90.61852264404297
168;1673367158.5304668;47.130642599999995;7.2406213;30.84800148010254;1673367158.538293;-26.516271591186523;-1.7576192617416382;91.28948211669922
169;1673367158.7493453;47.130642599999995;7.2406213;31.233001708984375;1673367158.750337;-26.510942459106445;0.7978166341781616;90.55162048339844
170;1673367158.9520812;47.130642599999995;7.2406212;31.61100196838379;1673367158.9549913;-26.6596736907959;0.23635895550251007;90.64277648925781
171;1673367159.1505451;47.130642599999995;7.240621099999999;31.9950008392334;1673367159.1603165;-26.563814163208008;-2.2277350425720215;91.41605377197266
172;1673367159.36829;47.130642599999995;7.240621099999999;32.38300323486328;1673367159.3702424;-26.761695861816406;0.2853745222091675;90.60257720947266
173;1673367159.5511355;47.130642599999995;7.240621;32.77300262451172;1673367159.5599294;-26.731754302978516;0.8315473198890686;90.39591979980469
174;1673367159.741247;47.130642699999996;7.240621;33.163002014160156;1673367159.7441764;-26.743534088134766;-2.026262044906616;91.45243072509766
175;1673367159.9508777;47.130642599999995;7.2406209;33.551002502441406;1673367159.9528325;-26.706037521362305;0.06227516755461693;90.81398010253906
176;1673367160.1518126;47.130642599999995;7.2406209;33.939002990722656;1673367160.1566935;-26.746000289916992;0.8638771772384644;90.42875671386719
177;1673367160.3400366;47.130642599999995;7.2406209;34.31800079345703;1673367160.343941;-26.763561248779297;-2.0167622566223145;91.38859558105469
178;1673367160.5431511;47.130642699999996;7.2406209;34.704002380371094;1673367160.5480292;-26.725614547729492;-0.20024046301841736;90.90925598144531
179;1673367160.7402883;47.1306428;7.2406209;35.09100341796875;1673367160.7432146;-26.792829513549805;1.5583977699279785;90.3633804321289
180;1673367160.949625;47.1306428;7.2406209;35.48200225830078;1673367160.951577;-26.723342895507812;-1.317750334739685;91.1996841430664
181;1673367161.148619;47.130642699999996;7.2406209;35.87200164794922;1673367161.1505728;-26.70732879638672;-0.35813820362091064;90.9647445678711
182;1673367161.3474283;47.130642699999996;7.2406209;36.2660026550293;1673367161.349381;-26.73507308959961;1.3360974788665771;90.29263305664062
183;1673367161.560295;47.130642599999995;7.240620799999999;36.64900207519531;1673367161.5622523;-26.834619522094727;-1.5005230903625488;91.1237564086914
184;1673367161.7491522;47.130642599999995;7.240620799999999;37.03700256347656;1673367161.751058;-26.79960823059082;-0.9694748520851135;91.0805435180664
185;1673367161.9467926;47.130642599999995;7.240620799999999;37.427001953125;1673367161.948763;-26.746845245361328;1.6388490200042725;90.236083984375
186;1673367162.1563082;47.130642599999995;7.240620799999999;37.816001892089844;1673367162.1582425;-26.69816780090332;-1.1108406782150269;91.03269958496094
187;1673367162.3323607;47.130642599999995;7.240620799999999;38.204002380371094;1673367162.3352888;-26.84615135192871;-1.2650398015975952;91.16300964355469
188;1673367162.5325482;47.1306425;7.240620799999999;38.59400177001953;1673367162.5354764;-26.68616485595703;1.3370070457458496;90.31270599365234
189;1673367162.7486203;47.130642599999995;7.240620799999999;38.98500061035156;1673367162.750544;-26.821529388427734;-0.8075082302093506;90.97944641113281
190;1673367162.956904;47.130642599999995;7.2406207;39.36900329589844;1673367162.9588575;-26.6829891204834;-1.3751569986343384;91.19464874267578
191;1673367163.1302235;47.130642599999995;7.240620799999999;39.76000213623047;1673367163.1341276;-26.881446838378906;1.5126923322677612;90.31902313232422
192;1673367163.343277;47.130642599999995;7.240620799999999;40.156002044677734;1673367163.3452404;-26.611265182495117;-0.21211601793766022;90.73788452148438
193;1673367163.5610874;47.1306425;7.2406207;40.55400085449219;1673367163.5620503;-26.844097137451172;-1.6017295122146606;91.32056427001953
194;1673367163.7555304;47.1306425;7.2406207;40.9530029296875;1673367163.759424;-26.580612182617188;1.0989938974380493;90.37584686279297
195;1673367163.9568474;47.1306425;7.2406207;41.34600067138672;1673367163.9587884;-26.787261962890625;-0.14581343531608582;90.67347717285156
196;1673367164.1416073;47.1306425;7.2406207;41.729000091552734;1673367164.1474643;-26.542089462280273;-1.8160794973373413;91.3209457397461
197;1673367164.3303416;47.1306425;7.2406207;42.12000274658203;1673367164.334362;-26.894426345825195;1.041575312614441;90.4886703491211
198;1673367164.5462298;47.1306425;7.2406206;42.5150032043457;1673367164.55019;-26.717437744140625;0.5026743412017822;90.60844421386719
199;1673367164.7392507;47.1306425;7.2406206;42.91100311279297;1673367164.7490118;-26.80979347229004;-1.838403582572937;91.33694458007812
200;1673367164.9394388;47.1306424;7.2406206;43.307003021240234;1673367164.9404044;-26.666522979736328;0.5385767817497253;90.56932830810547
201;1673367165.1524673;47.1306424;7.2406204999999995;43.7030029296875;1673367165.1632042;-26.824323654174805;0.810598611831665;90.46758270263672
202;1673367165.365796;47.1306424;7.2406204999999995;44.09700393676758;1673367165.3677568;-26.669445037841797;-1.8485174179077148;91.3641128540039
203;1673367165.5330844;47.1306424;7.2406204999999995;44.48100280761719;1673367165.536997;-26.8709716796875;0.13704009354114532;90.79798126220703
204;1673367165.7333508;47.1306424;7.2406204;44.871002197265625;1673367165.7372549;-26.627477645874023;1.2933560609817505;90.46501922607422
205;1673367165.9585779;47.1306424;7.2406204;45.26100158691406;1673367165.9605324;-26.983264923095703;-1.7924944162368774;91.47151184082031
206;1673367166.154322;47.1306423;7.2406204;45.65300369262695;1673367166.1562753;-26.59024429321289;-0.16042053699493408;90.95816040039062
207;1673367166.3623247;47.1306423;7.2406203;46.04800033569336;1673367166.364287;-27.121980667114258;1.1978603601455688;90.39643859863281
208;1673367166.5324154;47.1306422;7.2406203;46.44200134277344;1673367166.5353298;-26.74057960510254;-1.5955219268798828;91.27579498291016
209;1673367166.7227867;47.1306422;7.2406203;46.832000732421875;1673367166.725722;-26.938129425048828;-0.3200565576553345;90.94319915771484
210;1673367166.9465377;47.1306423;7.2406204;47.22800064086914;1673367166.947511;-26.672658920288086;1.5897941589355469;90.1796875
211;1673367167.1381142;47.1306422;7.2406204;47.63100051879883;1673367167.1400647;-26.94204330444336;-1.231539011001587;91.00080871582031
212;1673367167.3395627;47.1306422;7.2406204;48.027000427246094;1673367167.3424904;-26.924800872802734;-0.37391576170921326;90.96898651123047
213;1673367167.53379;47.130642099999996;7.2406203;48.380001068115234;1673367167.5367734;-27.13873863220215;0.8363243937492371;90.45941925048828
214;1673367167.7507172;47.130642099999996;7.2406201;48.67900085449219;1673367167.7516904;-27.057327270507812;-0.9543483257293701;91.08977508544922
215;1673367167.954812;47.130642099999996;7.240619799999999;48.93100357055664;1673367167.959693;-27.500335693359375;-0.41616684198379517;90.97127532958984
216;1673367168.1482272;47.130642099999996;7.2406193;49.134002685546875;1673367168.1521616;-28.074167251586914;1.0836588144302368;90.39946746826172
217;1673367168.340643;47.130641999999995;7.2406188;49.307003021240234;1673367168.343579;-27.36776351928711;1.1880974769592285;90.60460662841797
218;1673367168.5329792;47.1306418;7.2406181;49.435001373291016;1673367168.5359144;-19.333385467529297;5.431270122528076;88.98339080810547
219;1673367168.7512608;47.1306413;7.2406168;49.50600051879883;1673367168.7532136;-18.434358596801758;14.797758102416992;78.44233703613281
220;1673367168.9771075;47.1306406;7.240615099999999;49.57500076293945;1673367168.979118;-26.918622970581055;11.339001655578613;64.81277465820312
221;1673367169.1642082;47.1306398;7.2406134;49.63300323486328;1673367169.1661592;-19.597366333007812;17.645307540893555;55.95866012573242
222;1673367169.3652203;47.130639099999996;7.240611599999999;49.678001403808594;1673367169.3682716;-19.63149070739746;18.935100555419922;47.170921325683594
223;1673367169.5759451;47.130638399999995;7.2406099;49.72200393676758;1673367169.5794291;-17.67156219482422;20.13562774658203;37.761756896972656
224;1673367169.7722769;47.1306377;7.240608399999999;49.762001037597656;1673367169.7742305;-14.560104370117188;22.83683967590332;28.419395446777344
225;1673367169.9812202;47.1306371;7.2406068999999995;49.798004150390625;1673367169.982195;-10.337677001953125;26.155134201049805;19.28925895690918
226;1673367170.181332;47.1306365;7.240605599999999;49.82600402832031;1673367170.1823213;-5.769309997558594;29.383960723876953;10.175304412841797
227;1673367170.3791988;47.1306361;7.2406045;49.84700393676758;1673367170.38018;-0.9888366460800171;31.812427520751953;1.033761978149414
228;1673367170.5850515;47.1306358;7.2406036;49.8640022277832;1673367170.5870035;4.03175163269043;32.229549407958984;-8.227663040161133
229;1673367170.7861164;47.1306355;7.240602999999999;49.868003845214844;1673367170.788183;9.400487899780273;30.27373695373535;-17.377105712890625
230;1673367170.9598105;47.130635399999996;7.2406029;49.87000274658203;1673367170.9627388;14.992440223693848;26.757776260375977;-26.377992630004883
231;1673367171.159479;47.130635299999994;7.240602999999999;49.871002197265625;1673367171.1643453;19.39645004272461;23.175222396850586;-35.36465835571289
232;1673367171.364618;47.130635299999994;7.2406033;49.87600326538086;1673367171.364618;22.015470504760742;19.59052085876465;-44.44487380981445
233;1673367171.5688186;47.130635299999994;7.240603699999999;49.884002685546875;1673367171.5776021;23.699594497680664;16.244943618774414;-52.10832214355469
234;1673367171.771155;47.1306352;7.2406041;49.8900032043457;1673367171.7740843;23.685131072998047;16.659194946289062;-51.08623504638672
235;1673367171.987068;47.130635;7.2406044;49.887001037597656;1673367171.9880462;22.50887680053711;18.884057998657227;-47.793819427490234
236;1673367172.1872103;47.130634799999996;7.240604599999999;49.88600158691406;1673367172.189162;22.134855270385742;19.29261016845703;-46.32406997680664
237;1673367172.3936117;47.130634699999995;7.2406047;49.8900032043457;1673367172.395564;21.881929397583008;18.88724136352539;-45.76373291015625
238;1673367172.5860417;47.130634699999995;7.2406047;49.893001556396484;1673367172.588969;21.65403175354004;17.8044376373291;-45.648704528808594
239;1673367172.789463;47.1306346;7.240604599999999;49.89500427246094;1673367172.7914293;21.41691017150879;17.29730224609375;-45.64381790161133
240;1673367172.9902892;47.1306344;7.2406045;49.90400314331055;1673367172.991275;20.963241577148438;17.92474365234375;-46.100460052490234
241;1673367173.1917057;47.1306343;7.240604299999999;49.915000915527344;1673367173.1936474;20.540569305419922;19.32097053527832;-46.520809173583984
242;1673367173.3869889;47.130634;7.2406041;49.913002014160156;1673367173.3889422;20.40302276611328;20.61499786376953;-46.41258239746094
243;1673367173.5898194;47.130634;7.2406038;49.915000915527344;1673367173.5917559;10.315861701965332;21.844186782836914;-48.180973052978516
244;1673367173.7979443;47.1306345;7.2406025;49.919002532958984;1673367173.7998948;-20.536956787109375;22.191909790039062;-49.280582427978516
245;1673367173.9857044;47.130636599999995;7.2405985;49.927001953125;1673367173.9886332;-46.17774200439453;13.150973320007324;-46.79408645629883
246;1673367174.1695416;47.130640899999996;7.240590399999999;49.90300369262695;1673367174.1734855;-49.572975158691406;5.39556884765625;-43.50616455078125
247;1673367174.373645;47.1306473;7.2405778;49.86600112915039;1673367174.3765738;-46.76801681518555;6.036256313323975;-44.766456604003906
248;1673367174.578418;47.1306557;7.2405608;49.840003967285156;1673367174.580371;-49.729042053222656;7.745173454284668;-43.618247985839844
249;1673367174.7694163;47.130666;7.2405398;49.83500289916992;1673367174.77137;-52.4913215637207;8.985123634338379;-43.02200698852539
250;1673367174.9704568;47.1306782;7.2405152;49.84400177001953;1673367174.9733994;-55.9799919128418;12.120746612548828;-43.00061798095703
251;1673367175.1674228;47.1306924;7.2404877999999995;49.855003356933594;1673367175.1776326;-57.252662658691406;13.563304901123047;-42.56105041503906
252;1673367175.38331;47.1307086;7.2404581;49.86000061035156;1673367175.3854215;-55.55978775024414;13.031219482421875;-42.0657844543457
253;1673367175.5691905;47.1307263;7.2404268;49.85000228881836;1673367175.571163;-52.960350036621094;13.592376708984375;-42.32642364501953
254;1673367175.7542503;47.130745399999995;7.2403942;49.82100296020508;1673367175.7584527;-52.484371185302734;16.088993072509766;-43.32426834106445
255;1673367175.961113;47.130765499999995;7.240361099999999;49.79300308227539;1673367175.96209;-50.88368225097656;15.916839599609375;-43.29569625854492
256;1673367176.1691067;47.1307864;7.2403274;49.75400161743164;1673367176.1720362;-47.572837829589844;15.004254341125488;-43.48527908325195
257;1673367176.3860223;47.1308078;7.2402932;49.7140007019043;1673367176.3928556;-45.57600402832031;14.5101318359375;-43.74611282348633
258;1673367176.5740445;47.1308296;7.240258799999999;49.691001892089844;1673367176.575997;-46.03764343261719;15.73129940032959;-42.60346984863281
259;1673367176.770734;47.130851899999996;7.2402242999999995;49.685001373291016;1673367176.774684;-46.9571647644043;18.329233169555664;-41.290870666503906
260;1673367176.9807286;47.1308746;7.2401902;49.68000411987305;1673367176.9827113;-43.21831512451172;26.730911254882812;-41.36627197265625
261;1673367177.1829994;47.1308976;7.2401577999999995;49.689002990722656;1673367177.1869178;-19.577796936035156;24.5841007232666;-35.112796783447266
262;1673367177.3911698;47.1309195;7.240127299999999;49.66800308227539;1673367177.3938556;28.8588924407959;20.76656150817871;-36.40100860595703
263;1673367177.581591;47.1309391;7.2400991999999995;49.51400375366211;1673367177.5835876;19.362564086914062;5.0151262283325195;-39.619293212890625
264;1673367177.7815366;47.1309555;7.2400734;49.32400131225586;1673367177.784085;15.940591812133789;0.4266727566719055;-44.651039123535156
265;1673367177.9889376;47.1309687;7.240049699999999;49.215003967285156;1673367177.9908898;15.100874900817871;0.10722221434116364;-45.075836181640625
266;1673367178.1894407;47.130978999999996;7.240028199999999;49.202003479003906;1673367178.1913927;25.888927459716797;3.661731243133545;-46.01670455932617
267;1673367178.3875685;47.1309867;7.2400091;49.237003326416016;1673367178.3895254;35.95090866088867;6.262124061584473;-47.292118072509766
268;1673367178.581668;47.130991599999994;7.2399933999999995;49.31300354003906;1673367178.584896;46.50208282470703;8.3473539352417;-47.867855072021484
269;1673367178.7766623;47.130994;7.2399814;49.393001556396484;1673367178.7786152;50.88730239868164;11.273514747619629;-47.90689468383789
270;1673367178.9953551;47.130994;7.2399732;49.474002838134766;1673367178.998314;53.80536651611328;15.7920503616333;-46.36690139770508
271;1673367179.1863425;47.130992;7.2399691;49.55600357055664;1673367179.1892712;56.3806266784668;18.641733169555664;-45.7596435546875
272;1673367179.394499;47.1309882;7.2399692;49.62600326538086;1673367179.398957;56.73569107055664;18.996488571166992;-46.76089096069336
273;1673367179.5911953;47.130983199999996;7.239973099999999;49.676002502441406;1673367179.5941222;55.615840911865234;20.00423812866211;-48.023197174072266
274;1673367179.8160114;47.1309773;7.2399802;49.71200180053711;1673367179.8179636;53.459259033203125;22.942487716674805;-47.53031539916992
275;1673367179.9913247;47.130970999999995;7.23999;49.73500061035156;1673367179.9938269;49.25783920288086;23.952672958374023;-48.81105422973633
276;1673367180.1909428;47.1309646;7.2400018;49.73500061035156;1673367180.1938572;47.042049407958984;27.931068420410156;-48.778011322021484
277;1673367180.3912766;47.1309586;7.2400153;49.73600387573242;1673367180.3932278;46.36769104003906;30.36246109008789;-48.344696044921875
278;1673367180.5920165;47.1309532;7.2400302;49.74500274658203;1673367180.5939758;38.62686538696289;29.324113845825195;-49.62299346923828
279;1673367180.804637;47.130948499999995;7.2400454;49.75100326538086;1673367180.8075655;23.59457015991211;23.216136932373047;-47.318260192871094
280;1673367181.000936;47.1309444;7.2400595;49.75200271606445;1673367181.0038638;8.061034202575684;17.459524154663086;-43.65522384643555
281;1673367181.2011135;47.1309411;7.2400709999999995;49.75100326538086;1673367181.2050164;-0.31495949625968933;14.427489280700684;-42.67604446411133
282;1673367181.3958774;47.130938799999996;7.240079799999999;49.74500274658203;1673367181.4061725;-3.872055768966675;11.647705078125;-43.08169937133789
283;1673367181.601828;47.1309371;7.2400866;49.61600112915039;1673367181.6047552;-17.148033142089844;14.258941650390625;-41.673824310302734
284;1673367181.8165584;47.1309354;7.2400926;49.12700271606445;1673367181.8204496;-42.41460037231445;0.5072575807571411;-40.13479232788086
285;1673367182.0090218;47.1309337;7.2400983;48.249000549316406;1673367182.0109737;-68.08422088623047;-45.23830795288086;-16.504920959472656
286;1673367182.2092087;47.130932;7.2401038;46.99700164794922;1673367182.2101736;-68.22875213623047;-132.06765747070312;43.75593948364258
287;1673367182.4007618;47.130930199999995;7.2401091;45.371002197265625;1673367182.4036927;-63.985755920410156;-167.014404296875;55.96952438354492
288;1673367182.5979357;47.130928499999996;7.2401140999999996;43.39800262451172;1673367182.6008923;-76.35733795166016;-163.50286865234375;38.92554473876953
289;1673367182.7978396;47.130927;7.2401189;41.07500076293945;1673367182.7998025;-67.89604187011719;-21.177732467651367;-103.52748107910156
290;1673367182.9947438;47.1309256;7.2401238;38.38199996948242;1673367182.9966962;-21.055875778198242;3.649388313293457;-112.42797088623047
291;1673367183.1817296;47.1309244;7.2401285;35.290000915527344;1673367183.183685;20.23270034790039;27.91379737854004;-104.01113891601562
292;1673367183.4135673;47.130922899999995;7.240132699999999;31.823001861572266;1673367183.4155192;36.34099197387695;48.753475189208984;-94.48822784423828
293;1673367183.5973418;47.1309213;7.2401364;28.009000778198242;1673367183.5993297;28.713912963867188;43.779972076416016;-109.1583023071289
294;1673367183.7845776;47.130919299999995;7.2401396;23.827001571655273;1673367183.7923915;-4.2508158683776855;26.655359268188477;-136.84695434570312
295;1673367184.0137513;47.1309172;7.2401428;19.25800132751465;1673367184.0156941;-46.04914474487305;20.234600067138672;-162.06336975097656
296;1673367184.203178;47.1309154;7.2401462;14.329000473022461;1673367184.2061102;-62.830257415771484;23.037437438964844;176.87083435058594
297;1673367184.4228432;47.1309141;7.240149499999999;9.072999954223633;1673367184.4238203;-41.84814453125;13.374419212341309;-179.6184539794922
298;1673367184.6158266;47.130913199999995;7.2401526;3.4600002765655518;1673367184.6177902;8.488882064819336;12.078052520751953;-172.2627716064453
299;1673367184.8174407;47.1309154;7.240147599999999;0.19500000774860382;1673367184.8193948;1.9361305236816406;9.419490814208984;-179.646240234375
300;1673367185.0236304;47.1309264;7.2401298;0.11600000411272049;1673367185.03048;-17.337766647338867;13.229381561279297;-179.22239685058594
301;1673367185.2277086;47.1309391;7.240112;0.024000000208616257;1673367185.23747;-19.475845336914062;11.591239929199219;-179.2653045654297
302;1673367185.4280493;47.130952199999996;7.240094999999999;-0.05100000277161598;1673367185.4299915;-8.387232780456543;12.301573753356934;-177.30368041992188
303;1673367185.6283607;47.1309651;7.240079199999999;-0.18300001323223114;1673367185.6312864;19.753860473632812;12.736185073852539;-172.83346557617188
304;1673367185.825063;47.1309784;7.240061099999999;-0.2160000056028366;1673367185.8348322;12.624942779541016;14.93873405456543;-174.33624267578125
305;1673367186.036236;47.1309931;7.2400417;-0.2900000214576721;1673367186.0411162;14.217602729797363;18.1664981842041;-173.97360229492188
306;1673367186.2325244;47.1310088;7.2400211;-0.36000001430511475;1673367186.2335036;14.695292472839355;18.95809555053711;-174.22103881835938
307;1673367186.4348114;47.1310256;7.2399993;-0.48600003123283386;1673367186.4406693;14.781829833984375;18.756011962890625;-174.3744659423828
308;1673367186.6534214;47.1310429;7.239976899999999;-0.5820000171661377;1673367186.6553736;14.744958877563477;18.414655685424805;-174.53411865234375
309;1673367186.8576617;47.131060999999995;7.239953799999999;-0.6620000600814819;1673367186.8591847;14.653480529785156;18.027009963989258;-174.657470703125
310;1673367187.0524583;47.1310797;7.239929999999999;-0.7380000352859497;1673367187.0593977;14.630780220031738;17.54686164855957;-174.79324340820312
311;1673367187.2381475;47.1310991;7.2399056999999996;-0.8080000281333923;1673367187.2432451;14.587698936462402;17.021528244018555;-174.90927124023438
312;1673367187.4454215;47.131119;7.2398808;-0.8710000514984131;1673367187.4464054;14.498899459838867;16.57421112060547;-175.00653076171875
313;1673367187.63434;47.131139999999995;7.2398546999999995;-1.0010000467300415;1673367187.6413844;14.47797679901123;16.136857986450195;-175.1044464111328
314;1673367187.853378;47.1311615;7.2398282;-1.0980000495910645;1673367187.8553247;14.424784660339355;15.577319145202637;-175.20050048828125
315;1673367188.0472946;47.1311833;7.2398013;-1.1660000085830688;1673367188.0561278;14.290966033935547;15.124059677124023;-175.31314086914062
316;1673367188.2906492;47.1312056;7.2397738;-1.2290000915527344;1673367188.2965038;14.217643737792969;14.668158531188965;-175.36021423339844
317;1673367188.4754465;47.1312284;7.239745699999999;-1.2850000858306885;1673367188.476406;14.106553077697754;14.122079849243164;-175.46788024902344
318;1673367188.6632829;47.1312517;7.239717;-1.3330000638961792;1673367188.665237;14.024203300476074;13.66683578491211;-175.58786010742188
319;1673367188.8782516;47.1312755;7.239687699999999;-1.378000020980835;1673367188.880261;13.971653938293457;13.22741985321045;-175.65505981445312
320;1673367189.0315983;47.1313009;7.2396571;-1.499000072479248;1673367189.033519;13.950403213500977;12.801295280456543;-175.72740173339844
321;1673367189.2381492;47.1313262;7.2396261;-1.5720000267028809;1673367189.2416828;13.925528526306152;12.395098686218262;-175.77566528320312
322;1673367189.4434834;47.131351699999996;7.2395947;-1.6170001029968262;1673367189.4444609;13.870560646057129;11.965253829956055;-175.87319946289062
323;1673367189.6414084;47.1313775;7.2395628;-1.6500000953674316;1673367189.6424031;13.713985443115234;11.505777359008789;-175.97412109375
324;1673367189.8495371;47.1314038;7.2395302;-1.6680001020431519;1673367189.8524683;13.666441917419434;11.158893585205078;-176.04661560058594
325;1673367190.0351372;47.131430699999996;7.2394969;-1.689000129699707;1673367190.0455518;13.621468544006348;10.789704322814941;-176.1277618408203
326;1673367190.2362182;47.131459299999996;7.239462199999999;-1.7790000438690186;1673367190.2413263;13.570167541503906;10.433387756347656;-176.20858764648438
327;1673367190.45248;47.131487799999995;7.2394270999999994;-1.8250000476837158;1673367190.456353;13.494064331054688;10.128986358642578;-176.31051635742188
328;1673367190.678294;47.1314889;7.2394257;-1.8410000801086426;1673367190.6812696;13.428594589233398;9.750849723815918;-176.3965606689453
329;1673367192.40627;47.1309275;7.240142;-1.7100000381469727;1673367190.887356;13.327884674072266;9.425081253051758;-176.4884490966797
330;1673367192.5973072;47.1309174;7.2401485999999995;-1.475000023841858;1673367191.0605106;13.297324180603027;9.112825393676758;-176.57119750976562
331;;;;;1673367191.260552;13.204925537109375;8.801590919494629;-176.64682006835938
332;;;;;1673367191.4476604;13.111577033996582;8.480846405029297;-176.73184204101562
333;;;;;1673367191.6406145;12.993675231933594;7.340063095092773;-176.827392578125
334;;;;;1673367191.813383;12.884522438049316;6.566582679748535;-176.8937530517578
335;;;;;1673367191.991317;12.826407432556152;5.998746395111084;-176.94534301757812
336;;;;;1673367192.1816664;12.81442928314209;5.561866283416748;-177.02366638183594
337;;;;;1673367192.3742151;12.713478088378906;5.2302565574646;-177.1217803955078
338;;;;;1673367192.5582864;12.689058303833008;4.951244831085205;-177.2179718017578
