;pos_time;latitude;longitude;altitude;alt_time;pitch;roll;yaw
0;1673366536.924353;47.1306424;7.24062;0.0;1673366537.0786626;0.13894326984882355;-0.3902207016944885;90.37696075439453
1;1673366537.1245334;47.1306424;7.24062;-0.0010000000474974513;1673366537.2886012;0.07867779582738876;-0.20564228296279907;90.31083679199219
2;1673366537.3325217;47.1306424;7.2406201;0.0;1673366537.4809701;0.15225985646247864;-0.44207680225372314;90.20806884765625
3;1673366537.5278225;47.1306424;7.2406201;0.0;1673366537.69579;0.12827596068382263;-0.35435035824775696;90.25840759277344
4;1673366537.745127;47.1306424;7.2406201;0.0010000000474974513;1673366537.9184523;0.07996000349521637;-0.40122994780540466;90.09427642822266
5;1673366537.9619343;47.1306424;7.24062;0.003000000026077032;1673366538.1523542;-0.020292291417717934;-0.13173449039459229;90.12944793701172
6;1673366538.195298;47.1306424;7.2406198999999996;0.00800000037997961;1673366538.3720524;0.15383851528167725;-0.22884328663349152;90.09159088134766
7;1673366538.4071884;47.1306424;7.240619799999999;0.010000000707805157;1673366538.6005366;0.02661297842860222;-0.4751836955547333;90.04325866699219
8;1673366538.6327503;47.1306424;7.240619799999999;0.009000000543892384;1673366538.7626593;0.13896293938159943;-0.3168509304523468;90.10549926757812
9;1673366538.798329;47.1306424;7.2406197;0.009000000543892384;1673366538.9340353;0.26670360565185547;-0.3908465504646301;90.23882293701172
10;1673366538.9745831;47.1306424;7.2406197;-0.0010000000474974513;1673366539.1264005;0.1596471220254898;-0.2271796315908432;90.17713928222656
11;1673366539.1708596;47.1306424;7.2406196;-0.003000000026077032;1673366539.3256042;0.43556371331214905;-0.2296631783246994;90.19297790527344
12;1673366539.3690856;47.1306424;7.2406196;-0.006000000052154064;1673366539.523831;0.21480244398117065;-0.2893795073032379;90.21720123291016
13;1673366539.5702412;47.1306424;7.2406196;-0.01100000087171793;1673366539.7230344;0.18366719782352448;-0.25179049372673035;90.22835540771484
14;1673366539.766485;47.1306424;7.2406196;-0.014000000432133675;1673366539.894096;0.20059171319007874;-0.1261398047208786;90.00680541992188
15;1673366539.930215;47.1306424;7.2406197;-0.017000000923871994;1673366540.0927513;0.1985160857439041;-0.14169204235076904;90.3031005859375
16;1673366540.133989;47.1306424;7.2406197;-0.017000000923871994;1673366540.3211343;0.08208759874105453;-0.14069804549217224;89.996337890625
17;1673366540.3671982;47.1306424;7.2406197;-0.01600000075995922;1673366540.5183797;0.2789292633533478;0.014372621662914753;90.05562591552734
18;1673366540.5628395;47.1306424;7.2406197;0.0;1673366540.7121313;0.5256467461585999;-0.7402753829956055;90.072509765625
19;1673366540.7611282;47.1306423;7.240619799999999;0.0;1673366540.9011288;0.30697101354599;-0.17349064350128174;90.04161071777344
20;1673366540.9520755;47.1306423;7.240619799999999;0.0010000000474974513;1673366541.1041863;0.35279956459999084;-0.32549095153808594;89.7552261352539
21;1673366541.1541622;47.1306423;7.240619799999999;0.0;1673366541.3210957;0.1576240360736847;-0.23374392092227936;89.94676971435547
22;1673366541.3658378;47.1306423;7.2406198999999996;0.003000000026077032;1673366541.5202777;0.4866240620613098;0.24456024169921875;89.76025390625
23;1673366541.565148;47.1306424;7.2406198999999996;0.009000000543892384;1673366541.7230926;0.31444913148880005;-0.4898430109024048;89.1026611328125
24;1673366541.7650297;47.1306424;7.2406198999999996;0.015000000596046448;1673366541.9020774;0.4356442391872406;0.15433748066425323;88.9031982421875
25;1673366541.9382026;47.1306425;7.24062;0.021000001579523087;1673366542.1041646;0.9318034052848816;-0.2725812494754791;89.24935150146484
26;1673366542.1462026;47.1306425;7.24062;0.023000001907348633;1673366542.2901528;1.9362082481384277;-0.07553327083587646;89.5074462890625
27;1673366542.3332036;47.1306424;7.24062;0.02500000037252903;1673366542.484052;3.475801944732666;-0.11373493075370789;89.73001098632812
28;1673366542.5251155;47.1306424;7.24062;0.030000001192092896;1673366542.677252;-2.153203248977661;-0.5236756801605225;91.97430419921875
29;1673366542.72625;47.1306424;7.2406196;0.03200000151991844;1673366542.8981845;-5.902794361114502;-0.03791391849517822;91.56640625
30;1673366542.9481554;47.1306425;7.240618899999999;0.058000002056360245;1673366543.1032047;-10.8346529006958;-4.411872386932373;92.24992370605469
31;1673366543.1411278;47.130642599999995;7.2406182;0.10300000756978989;1673366543.307203;-11.024188041687012;1.5447598695755005;91.48448944091797
32;1673366543.3675408;47.130642699999996;7.240617599999999;0.16200000047683716;1673366543.5081792;-11.799620628356934;1.7896662950515747;91.38252258300781
33;1673366543.5550797;47.1306428;7.240617299999999;0.2330000102519989;1673366543.717135;-11.641715049743652;-3.3896732330322266;91.85050201416016
34;1673366543.757702;47.1306429;7.240617299999999;0.3160000145435333;1673366543.9042456;-11.072502136230469;0.6113264560699463;91.16635131835938
35;1673366543.9432871;47.1306429;7.2406175;0.4150000214576721;1673366544.0868561;-10.364648818969727;2.603577136993408;90.72367858886719
36;1673366544.1327276;47.1306428;7.2406178;0.5320000052452087;1673366544.287033;-9.548434257507324;-3.3760244846343994;91.42589569091797
37;1673366544.3289998;47.130642599999995;7.2406182;0.6640000343322754;1673366544.4852612;-9.015304565429688;-1.8981252908706665;91.24903106689453
38;1673366544.5330834;47.130642599999995;7.2406185;0.8080000281333923;1673366544.6991024;-8.588517189025879;2.245523452758789;90.58849334716797
39;1673366544.7459502;47.130642599999995;7.240618899999999;0.9620000720024109;1673366544.9169226;-8.08360767364502;-2.0198378562927246;91.36306762695312
40;1673366544.9637733;47.130642599999995;7.2406191;1.124000072479248;1673366545.1141715;-8.348550796508789;-2.6691956520080566;91.56620025634766
41;1673366545.1561449;47.130642699999996;7.240619199999999;1.3000000715255737;1673366545.309493;-8.493958473205566;2.409306526184082;90.77357482910156
42;1673366545.3670807;47.130642699999996;7.2406193;1.4890000820159912;1673366545.5204113;-8.563754081726074;-1.1025583744049072;91.27312469482422
43;1673366545.5614061;47.130642599999995;7.2406193;1.6770000457763672;1673366545.743034;-8.520208358764648;-3.522163152694702;91.62049102783203
44;1673366545.7948875;47.1306425;7.2406193;1.8640000820159912;1673366545.954992;-8.989404678344727;1.181270956993103;91.0350341796875
45;1673366545.994566;47.1306425;7.240619199999999;2.055000066757202;1673366546.1395538;-9.124543190002441;0.5706453323364258;91.01380157470703
46;1673366546.1879482;47.1306425;7.2406191;2.247000217437744;1673366546.3319588;-9.200164794921875;-3.5733277797698975;91.75907135009766
47;1673366546.3705714;47.130642599999995;7.2406191;2.440000057220459;1673366546.5594695;-9.383495330810547;1.285522222518921;90.93905639648438
48;1673366546.6146605;47.130642599999995;7.2406191;2.63700008392334;1673366546.7738924;-9.494833946228027;1.3640438318252563;90.87844848632812
49;1673366546.8109984;47.1306425;7.2406191;2.8350000381469727;1673366546.947202;-9.62647533416748;-3.987255811691284;91.6305923461914
50;1673366546.9926372;47.1306423;7.2406191;3.0350000858306885;1673366547.1346962;-9.306660652160645;-0.7833189964294434;90.95053100585938
51;1673366547.176227;47.1306423;7.240619199999999;3.2360000610351562;1673366547.3290224;-9.461935043334961;1.9299790859222412;90.73343658447266
52;1673366547.3783617;47.1306423;7.240619199999999;3.43500018119812;1673366547.519445;-9.183669090270996;-2.9073221683502197;91.49221801757812
53;1673366547.5604393;47.1306424;7.2406194;3.630000114440918;1673366547.7049866;-9.000412940979004;-0.9476689696311951;91.392333984375
54;1673366547.7459798;47.1306425;7.240619499999999;3.8310000896453857;1673366547.8954968;-8.967995643615723;2.7089569568634033;90.7510757446289
55;1673366547.9364872;47.1306424;7.2406197;4.0360002517700195;1673366548.0907984;-8.878138542175293;-2.6269078254699707;91.38074493408203
56;1673366548.138624;47.130642099999996;7.240619799999999;4.240000247955322;1673366548.3183153;-8.745418548583984;-3.2396562099456787;91.40408325195312
57;1673366548.3622377;47.130641999999995;7.2406198999999996;4.444000244140625;1673366548.5282621;-8.772645950317383;1.6807974576950073;90.52870178222656
58;1673366548.5673094;47.130641999999995;7.2406198999999996;4.645000457763672;1673366548.7059996;-8.83470344543457;-1.4929583072662354;91.12421417236328
59;1673366548.7469928;47.130641999999995;7.2406198999999996;4.8460001945495605;1673366548.8975086;-8.836188316345215;-3.2153639793395996;91.58204650878906
60;1673366548.9414282;47.130642099999996;7.2406198999999996;5.048000335693359;1673366549.1016052;-9.208877563476562;1.5046461820602417;90.98062133789062
61;1673366549.1455245;47.130642099999996;7.2406198999999996;5.253000259399414;1673366549.298857;-9.104317665100098;-0.8182836174964905;91.19758605957031
62;1673366549.3437512;47.130641999999995;7.2406198999999996;5.460000038146973;1673366549.5058868;-9.134493827819824;-4.10082483291626;91.59532928466797
63;1673366549.5498056;47.130641999999995;7.2406198999999996;5.668000221252441;1673366549.6943545;-9.128458023071289;1.1382681131362915;90.85240173339844
64;1673366549.7441308;47.130642099999996;7.2406198999999996;5.872000217437744;1673366549.895593;-9.21233081817627;0.8158689141273499;90.89429473876953
65;1673366549.937561;47.130642099999996;7.2406198999999996;6.074000358581543;1673366550.0879743;-9.207945823669434;-3.735257387161255;91.62094116210938
66;1673366550.1289642;47.1306422;7.2406198999999996;6.273000240325928;1673366550.2969377;-9.118833541870117;0.8262431025505066;91.03448486328125
67;1673366550.3496406;47.1306423;7.2406198999999996;6.473000526428223;1673366550.5010207;-9.375481605529785;1.7106349468231201;90.8243408203125
68;1673366550.5429883;47.1306422;7.2406198999999996;6.676000118255615;1673366550.6963174;-9.308656692504883;-3.6331472396850586;91.60375213623047
69;1673366550.7431633;47.130642099999996;7.240619799999999;6.879000186920166;1673366550.9014673;-9.445648193359375;-0.600159227848053;91.0448989868164
70;1673366550.9512422;47.1306422;7.240619799999999;7.086000442504883;1673366551.100669;-9.43684196472168;2.130146026611328;90.81272888183594
71;1673366551.148492;47.1306422;7.240619799999999;7.2960004806518555;1673366551.2998903;-9.298001289367676;-2.9474070072174072;91.57523345947266
72;1673366551.3477116;47.130642099999996;7.240619799999999;7.50100040435791;1673366551.5078897;-9.339178085327148;-1.5788037776947021;91.37845611572266
73;1673366551.5547287;47.130642099999996;7.240619799999999;7.706000328063965;1673366551.7080693;-9.538848876953125;1.9028664827346802;90.72021484375
74;1673366551.7529655;47.130641999999995;7.240619799999999;7.914000511169434;1673366551.9083073;-9.293686866760254;-2.4002249240875244;91.115478515625
75;1673366551.9483235;47.1306419;7.2406198999999996;8.120000839233398;1673366552.0909193;-9.214009284973145;-3.136960029602051;91.56999969482422
76;1673366552.1328888;47.1306419;7.2406198999999996;8.325000762939453;1673366552.2764633;-9.351133346557617;2.0002694129943848;90.6482925415039
77;1673366552.324288;47.130641999999995;7.24062;8.529000282287598;1673366552.5088506;-9.206250190734863;-0.9479650855064392;91.16709899902344
78;1673366552.569367;47.130641999999995;7.24062;8.733000755310059;1673366552.724648;-9.355142593383789;-3.4713010787963867;91.58247375488281
79;1673366552.769547;47.130641999999995;7.24062;8.934000015258789;1673366552.9229355;-9.162931442260742;1.7626510858535767;90.91045379638672
80;1673366552.9658844;47.130641999999995;7.24062;9.13800048828125;1673366553.121181;-9.290400505065918;-0.2928786873817444;91.06917572021484
81;1673366553.163153;47.1306419;7.2406201;9.342000007629395;1673366553.3174553;-9.25403881072998;-4.082505226135254;91.53042602539062
82;1673366553.3584476;47.1306419;7.2406201;9.542000770568848;1673366553.5156815;-9.284059524536133;0.8724627494812012;90.96299743652344
83;1673366553.5586257;47.1306419;7.2406201;9.741000175476074;1673366553.7168436;-9.318070411682129;0.6889254450798035;90.78095245361328
84;1673366553.7675982;47.1306419;7.2406201;9.940000534057617;1673366553.9073162;-9.582860946655273;-3.994853973388672;91.61064147949219
85;1673366553.948308;47.1306419;7.24062;10.13800048828125;1673366554.10457;-9.413118362426758;-0.7210329174995422;91.03351593017578
86;1673366554.1660604;47.1306419;7.24062;10.384000778198242;1673366554.3145108;-11.133443832397461;1.4324413537979126;90.63524627685547
87;1673366554.3564806;47.1306418;7.2406203;10.725000381469727;1673366554.5059059;-10.146076202392578;-2.4144997596740723;91.21683502197266
88;1673366554.5468993;47.1306418;7.2406207;11.100000381469727;1673366554.707063;-9.170446395874023;-2.9032275676727295;91.58434295654297
89;1673366554.7431767;47.1306419;7.240621099999999;11.48900032043457;1673366554.884856;-8.22923469543457;1.6843948364257812;90.8665771484375
90;1673366554.9277985;47.130641999999995;7.2406215;11.885000228881836;1673366555.0718088;-7.770561695098877;-0.6343994140625;91.24113464355469
91;1673366555.11919;47.130642099999996;7.240621699999999;12.284000396728516;1673366555.2842515;-7.751343250274658;-2.8719162940979004;91.66758728027344
92;1673366555.3301237;47.1306422;7.2406217999999996;12.684000968933105;1673366555.4770668;-7.585419178009033;1.5181782245635986;90.9026870727539
93;1673366555.5205438;47.1306422;7.2406219;13.087000846862793;1673366555.6914618;-7.856313705444336;0.24491378664970398;90.94502258300781
94;1673366555.7285287;47.1306422;7.2406217999999996;13.48900032043457;1673366555.877473;-8.01274299621582;-3.531264066696167;91.56847381591797
95;1673366555.9189985;47.1306422;7.240621699999999;13.893000602722168;1673366556.07765;-8.616294860839844;-0.19549815356731415;91.13160705566406
96;1673366556.1240563;47.1306422;7.2406215;14.296000480651855;1673366556.2832422;-8.95362663269043;1.8347517251968384;90.87146759033203
97;1673366556.3261852;47.1306423;7.2406212;14.697000503540039;1673366556.484414;-9.30622673034668;-3.0584163665771484;91.50782775878906
98;1673366556.5263808;47.1306423;7.240621;15.100000381469727;1673366556.6826484;-9.459110260009766;-1.4173470735549927;91.25528717041016
99;1673366556.7236407;47.1306423;7.2406209;15.505001068115234;1673366556.8906932;-9.576544761657715;1.9160399436950684;90.56000518798828
100;1673366556.9287565;47.1306422;7.2406207;15.915000915527344;1673366557.0889204;-9.471122741699219;-2.0365498065948486;91.24287414550781
101;1673366557.1299112;47.1306422;7.2406207;16.321001052856445;1673366557.2900877;-9.198766708374023;-2.936126232147217;91.42479705810547
102;1673366557.3330286;47.1306422;7.2406207;16.725000381469727;1673366557.4853842;-9.12766170501709;2.118194341659546;90.86553955078125
103;1673366557.5263765;47.1306423;7.240620799999999;17.131000518798828;1673366557.6836114;-9.122406005859375;0.2923222780227661;91.10742950439453
104;1673366557.729484;47.1306424;7.240620799999999;17.538000106811523;1673366557.8907363;-9.15135669708252;-3.1218597888946533;91.69964599609375
105;1673366557.9366066;47.1306424;7.240620799999999;17.946001052856445;1673366558.0831084;-8.88592529296875;1.0153148174285889;90.84796905517578
106;1673366558.1289802;47.1306424;7.240620799999999;18.358001708984375;1673366558.275923;-8.826236724853516;0.9104735851287842;90.68698120117188
107;1673366558.3193986;47.1306423;7.240620799999999;18.77400016784668;1673366558.4760988;-8.967129707336426;-3.535120725631714;91.47277069091797
108;1673366558.5195775;47.1306423;7.240620799999999;19.189001083374023;1673366558.6895041;-8.89171028137207;-0.28601962327957153;91.2198257446289
109;1673366558.732448;47.1306424;7.240620799999999;19.606000900268555;1673366558.9151552;-8.937788963317871;1.990157961845398;90.92981719970703
110;1673366558.9541929;47.1306424;7.240620799999999;20.022001266479492;1673366559.0948615;-8.978795051574707;-2.6824839115142822;91.52793884277344
111;1673366559.1368046;47.1306424;7.240620799999999;20.43600082397461;1673366559.2921348;-9.052412986755371;-1.5202395915985107;91.50727844238281
112;1673366559.3311732;47.1306423;7.2406207;20.84800148010254;1673366559.4865613;-9.044723510742188;2.2021000385284424;90.6993637084961
113;1673366559.5353603;47.1306423;7.2406207;21.262001037597656;1673366559.7004108;-8.988362312316895;-1.7532497644424438;91.20378875732422
114;1673366559.7414002;47.1306422;7.2406207;21.671001434326172;1673366559.9006598;-9.022988319396973;-2.919635534286499;91.35759735107422
115;1673366559.9475105;47.1306422;7.2406207;22.078001022338867;1673366560.111604;-9.089079856872559;2.0088179111480713;90.7257080078125
116;1673366560.1574755;47.1306423;7.2406207;22.488000869750977;1673366560.3186939;-9.022260665893555;-0.40131670236587524;91.19674682617188
117;1673366560.3665206;47.1306423;7.2406207;22.8960018157959;1673366560.5227816;-9.018143653869629;-3.2282071113586426;91.65097045898438
118;1673366560.5618238;47.1306424;7.2406206;23.299001693725586;1673366560.739606;-9.080273628234863;1.4274804592132568;91.06072235107422
119;1673366560.779624;47.1306424;7.2406204999999995;23.701000213623047;1673366560.917459;-9.130165100097656;0.8143383264541626;91.06913757324219
120;1673366560.9613786;47.1306423;7.2406204999999995;24.101001739501953;1673366561.1167493;-9.337048530578613;-3.4830970764160156;91.45883178710938
121;1673366561.1626184;47.1306423;7.2406204;24.50200080871582;1673366561.2955375;-9.199417114257812;-0.2745140790939331;91.01134490966797
122;1673366561.3501992;47.1306423;7.2406204;24.904001235961914;1673366561.5084438;-9.165531158447266;1.8378371000289917;90.69615173339844
123;1673366561.5562654;47.1306424;7.2406204;25.304000854492188;1673366561.7106967;-8.986518859863281;-2.743375539779663;91.57848358154297
124;1673366561.7546525;47.1306424;7.2406203;25.703001022338867;1673366561.9012506;-9.025822639465332;-1.2101116180419922;91.35287475585938
125;1673366561.9432375;47.1306424;7.2406203;26.102001190185547;1673366562.1014707;-9.113893508911133;2.1796605587005615;90.89347839355469
126;1673366562.1473408;47.1306424;7.2406203;26.507001876831055;1673366562.3008018;-9.232037544250488;-2.314519166946411;91.4732666015625
127;1673366562.341796;47.1306423;7.2406203;26.911001205444336;1673366562.4839182;-9.070195198059082;-2.6109604835510254;91.43347930908203
128;1673366562.5273972;47.1306424;7.2406203;27.314001083374023;1673366562.6875765;-9.163485527038574;2.0698704719543457;90.79743957519531
129;1673366562.734415;47.1306425;7.2406201999999995;27.71900177001953;1673366562.89576;-9.008698463439941;-0.48154276609420776;90.96690368652344
130;1673366562.958228;47.1306425;7.2406201999999995;28.125001907348633;1673366563.098961;-9.218574523925781;-2.7595412731170654;91.5343246459961
131;1673366563.138977;47.130642599999995;7.2406201;28.524002075195312;1673366563.283055;-9.285387992858887;1.5490106344223022;90.80257415771484
132;1673366563.3314571;47.130642599999995;7.2406201;28.926000595092773;1673366563.4813685;-9.305835723876953;0.7122740745544434;91.01316833496094
133;1673366563.52296;47.1306425;7.24062;29.33100128173828;1673366563.673906;-9.206504821777344;-3.373344659805298;91.57514953613281
134;1673366563.719328;47.1306425;7.24062;29.738000869750977;1673366563.875114;-9.37933349609375;0.49564096331596375;91.14130401611328
135;1673366563.92347;47.1306425;7.2406198999999996;30.143001556396484;1673366564.1032724;-9.261473655700684;1.8803983926773071;90.85074615478516
136;1673366564.1501381;47.130642599999995;7.2406198999999996;30.549001693725586;1673366564.3084166;-9.364002227783203;-2.9729268550872803;91.5460433959961
137;1673366564.3630683;47.1306425;7.2406198999999996;30.94900131225586;1673366564.5009549;-9.24458122253418;-0.6889861226081848;91.2693862915039
138;1673366564.5428731;47.1306425;7.2406198999999996;31.34600067138672;1673366564.7568185;-9.28353500366211;2.158259391784668;90.74886322021484
139;1673366564.8121164;47.1306424;7.2406198999999996;31.7450008392334;1673366564.9806545;-9.133790016174316;-2.5150763988494873;91.40518951416016
140;1673366565.0202909;47.1306424;7.2406198999999996;32.143001556396484;1673366565.170186;-9.245002746582031;-2.151143789291382;91.38182830810547
141;1673366565.2059305;47.1306424;7.2406198999999996;32.54600143432617;1673366565.388983;-9.192927360534668;2.2351462841033936;90.86589813232422
142;1673366565.4344413;47.1306425;7.240619799999999;32.9530029296875;1673366565.559976;-9.392535209655762;0.0701698362827301;91.16903686523438
143;1673366565.6103806;47.1306425;7.240619799999999;33.354000091552734;1673366565.74858;-9.275744438171387;-3.0841808319091797;91.6209487915039
144;1673366565.789236;47.130642599999995;7.240619799999999;33.75;1673366565.9381824;-9.18714714050293;1.320373773574829;90.87728118896484
145;1673366565.9782016;47.1306425;7.240619799999999;34.14900207519531;1673366566.1217852;-9.400978088378906;1.0007216930389404;90.90679168701172
146;1673366566.1647272;47.1306424;7.240619799999999;34.54500198364258;1673366566.3112984;-9.1106538772583;-3.4506235122680664;91.58186340332031
147;1673366566.353264;47.1306423;7.240619799999999;34.94300079345703;1673366566.504731;-9.430482864379883;-0.20451106131076813;91.12712860107422
148;1673366566.547665;47.1306424;7.240619799999999;35.34400177001953;1673366566.7128162;-9.077611923217773;2.011476755142212;90.69996643066406
149;1673366566.7586899;47.1306424;7.240619799999999;35.74100112915039;1673366566.921806;-9.371716499328613;-2.604200601577759;91.39494323730469
150;1673366566.9686546;47.1306424;7.240619799999999;36.134002685546875;1673366567.1200728;-9.335041046142578;-1.3408221006393433;91.30523681640625
151;1673366567.163988;47.1306424;7.2406198999999996;36.53000259399414;1673366567.3018732;-9.435260772705078;2.310230016708374;90.65565490722656
152;1673366567.3418884;47.1306424;7.2406198999999996;36.93100357055664;1673366567.4918303;-9.120576858520508;-1.8377482891082764;91.39848327636719
153;1673366567.5382683;47.1306423;7.2406198999999996;37.332000732421875;1673366567.7025585;-9.18392276763916;-3.2264440059661865;91.54252624511719
154;1673366567.7445276;47.1306423;7.24062;37.73400115966797;1673366567.9099674;-9.28311824798584;2.258239984512329;90.84593963623047
155;1673366567.949007;47.1306424;7.24062;38.137001037597656;1673366568.1103756;-9.249540328979492;0.23927715420722961;91.11873626708984
156;1673366568.1554618;47.1306425;7.24062;38.540000915527344;1673366568.3478858;-9.253411293029785;-3.065255641937256;91.62667846679688
157;1673366568.404232;47.130642599999995;7.24062;38.94000244140625;1673366568.5396278;-9.085378646850586;1.4282934665679932;91.01628875732422
158;1673366568.5816746;47.130642599999995;7.24062;39.34400177001953;1673366568.7156572;-9.185783386230469;1.31645929813385;90.86018371582031
159;1673366568.7566488;47.130642599999995;7.24062;39.74800109863281;1673366568.902397;-9.294610977172852;-3.2540245056152344;91.48007202148438
160;1673366568.9433782;47.1306425;7.24062;40.152000427246094;1673366569.0934277;-9.336660385131836;0.21180857717990875;91.00045013427734
161;1673366569.1359565;47.130642599999995;7.24062;40.557003021240234;1673366569.2908468;-9.383370399475098;2.2532780170440674;90.88107299804688
162;1673366569.3597136;47.130642699999996;7.24062;40.96200180053711;1673366569.5151155;-9.181519508361816;-2.6880970001220703;91.4646224975586
163;1673366569.5591953;47.130642699999996;7.24062;41.3650016784668;1673366569.7086804;-9.161360740661621;-0.9416902661323547;91.38397216796875
164;1673366569.7486782;47.130642699999996;7.24062;41.76000213623047;1673366569.9069467;-9.233327865600586;2.5843262672424316;90.83609771728516
165;1673366569.9430454;47.130642599999995;7.24062;42.15500259399414;1673366570.095839;-9.171492576599121;-1.6286455392837524;91.39718627929688
166;1673366570.145174;47.130642599999995;7.2406201;42.551002502441406;1673366570.3112624;-9.228658676147461;-2.6025640964508057;91.44119262695312
167;1673366570.3590841;47.130642599999995;7.2406201;42.95100021362305;1673366570.5232308;-9.238153457641602;2.203768730163574;90.64022064208984
168;1673366570.5671327;47.130642699999996;7.2406201;43.35100173950195;1673366570.7380412;-9.049637794494629;0.7986668348312378;90.97088623046875
169;1673366570.7839088;47.130642699999996;7.2406201;43.749000549316406;1673366570.9267104;-9.036173820495605;-2.898082733154297;91.53175354003906
170;1673366570.9628198;47.130642699999996;7.2406201;44.14600372314453;1673366571.1005876;-9.143963813781738;1.4963828325271606;90.82984161376953
171;1673366571.1436253;47.130642699999996;7.2406201;44.54900360107422;1673366571.2907758;-9.187976837158203;1.3363744020462036;90.8936996459961
172;1673366571.3333397;47.130642699999996;7.2406201;44.952003479003906;1673366571.503359;-9.151283264160156;-3.00667142868042;91.6700439453125
173;1673366571.5552044;47.130642599999995;7.2406201;45.35400390625;1673366571.7182171;-9.030582427978516;0.07954340428113937;91.27952575683594
174;1673366571.760333;47.130642699999996;7.2406201;45.75400161743164;1673366571.9243014;-9.086280822753906;2.248096227645874;90.7431640625
175;1673366571.9731636;47.130642699999996;7.2406201;46.15500259399414;1673366572.133516;-9.279417037963867;-2.443779706954956;91.49180603027344
176;1673366572.1774523;47.130642699999996;7.24062;46.553001403808594;1673366572.323073;-9.389992713928223;-1.4928303956985474;91.24724578857422
177;1673366572.3749695;47.130642599999995;7.2406198999999996;46.94900131225586;1673366572.5342436;-9.42918872833252;2.4404478073120117;90.71182250976562
178;1673366572.5771873;47.130642599999995;7.240619799999999;47.349002838134766;1673366572.7219124;-9.355672836303711;-1.8951951265335083;91.269775390625
179;1673366572.7630696;47.1306425;7.240619799999999;47.75200271606445;1673366572.926833;-9.485426902770996;-1.1032369136810303;91.31437683105469
180;1673366572.9785655;47.1306425;7.2406197;48.143001556396484;1673366573.1251783;-9.770061492919922;0.9070062637329102;90.76658630371094
181;1673366573.1701684;47.130642599999995;7.2406196;48.48400115966797;1673366573.3472157;-9.70877742767334;-0.4799997806549072;91.13711547851562
182;1673366573.3881984;47.130642599999995;7.240619499999999;48.772003173828125;1673366573.5280967;-9.739235877990723;-2.0599584579467773;91.6496810913086
183;1673366573.562272;47.130642599999995;7.2406194;49.01100158691406;1673366573.7058623;-9.955531120300293;2.7683663368225098;90.67572784423828
184;1673366573.7460434;47.130642599999995;7.240619199999999;49.215003967285156;1673366573.894144;-8.176371574401855;-0.05776051804423332;90.92997741699219
185;1673366573.934704;47.130642599999995;7.240619;49.38300323486328;1673366574.1021674;-0.08070383220911026;5.913145542144775;87.33867645263672
186;1673366574.1690922;47.1306425;7.2406185;49.492000579833984;1673366574.3303816;1.4294826984405518;12.132585525512695;76.09722900390625
187;1673366574.3723476;47.130641999999995;7.2406174;49.552001953125;1673366574.523729;-9.330570220947266;1.7048693895339966;64.7248764038086
188;1673366574.5765798;47.1306411;7.2406159;49.60300064086914;1673366574.728955;-2.711092948913574;8.091963768005371;55.25472640991211
189;1673366574.772879;47.130640299999996;7.240614399999999;49.64500045776367;1673366574.928107;-5.284557819366455;10.870895385742188;46.233463287353516
190;1673366574.9765253;47.1306394;7.2406128;49.68000411987305;1673366575.1222715;-7.246850967407227;7.246288299560547;37.60768127441406
191;1673366575.1645906;47.130638499999996;7.2406114;49.711002349853516;1673366575.3046267;-6.426126480102539;7.807312965393066;28.99405860900879
192;1673366575.3512087;47.1306377;7.2406101;49.7400016784668;1673366575.5103285;-4.71930456161499;6.8708696365356445;20.659221649169922
193;1673366575.5513177;47.1306371;7.2406089;49.76400375366211;1673366575.7382963;-2.0830376148223877;8.831719398498535;12.435172080993652
194;1673366575.7833395;47.130636599999995;7.2406077;49.78700256347656;1673366575.943657;0.05027072876691818;11.76736831665039;3.8148033618927
195;1673366575.9875147;47.1306362;7.2406067;49.807003021240234;1673366576.1366343;0.9192089438438416;13.13973617553711;-5.292080879211426
196;1673366576.1802235;47.1306358;7.240606;49.82200241088867;1673366576.3424947;1.4402753114700317;12.803382873535156;-14.39907455444336
197;1673366576.3846397;47.1306356;7.240605599999999;49.8390007019043;1673366576.546715;3.0518226623535156;9.583664894104004;-23.496599197387695
198;1673366576.5893378;47.130635399999996;7.2406052;49.85600280761719;1673366576.7364993;5.976149559020996;7.1637864112854;-33.101722717285156
199;1673366576.7757838;47.1306352;7.2406048;49.874000549316406;1673366576.9335887;9.513260841369629;7.266924858093262;-42.314876556396484
200;1673366576.9792335;47.1306349;7.2406045;49.8900032043457;1673366577.1595845;9.95387077331543;8.099653244018555;-51.217689514160156
201;1673366577.2025642;47.1306345;7.2406044;49.90200424194336;1673366577.3386033;8.274971008300781;8.606268882751465;-53.384033203125
202;1673366577.396191;47.130634099999995;7.2406045;49.90700149536133;1673366577.571199;5.084423065185547;8.583019256591797;-50.66259765625
203;1673366577.632551;47.1306339;7.240604599999999;49.90900421142578;1673366577.788155;4.004546642303467;5.049962043762207;-47.48652648925781
204;1673366577.8417554;47.1306337;7.2406045;49.9160041809082;1673366577.9913113;5.737710475921631;6.929938793182373;-46.133880615234375
205;1673366578.0289285;47.130633599999996;7.240604299999999;49.923004150390625;1673366578.2089865;7.45050048828125;5.759802341461182;-46.47626876831055
206;1673366578.2431426;47.130633499999995;7.2406041;49.92900085449219;1673366578.3700674;7.806193828582764;8.245559692382812;-46.344329833984375
207;1673366578.4189599;47.1306334;7.2406039;49.93700408935547;1673366578.5572777;5.976103782653809;9.81209659576416;-46.3481559753418
208;1673366578.5994687;47.1306333;7.2406038;49.941001892089844;1673366578.7392306;4.234236240386963;8.503518104553223;-46.77655029296875
209;1673366578.7853131;47.1306334;7.2406035;49.939002990722656;1673366578.9497683;5.535987377166748;7.363641262054443;-46.5594596862793
210;1673366578.991751;47.130633499999995;7.2406032;49.935001373291016;1673366579.1199756;-5.412758827209473;6.492971420288086;-48.142486572265625
211;1673366579.161943;47.1306337;7.240602699999999;49.928001403808594;1673366579.3076317;-35.25708770751953;9.044676780700684;-50.50804901123047
212;1673366579.3469744;47.130634799999996;7.240601099999999;49.9160041809082;1673366579.502783;-46.369815826416016;6.831532955169678;-49.247764587402344
213;1673366579.552127;47.1306374;7.2405969;49.8640022277832;1673366579.7033994;-39.097049713134766;2.420398235321045;-46.779903411865234
214;1673366579.7560847;47.1306417;7.240589699999999;49.80000305175781;1673366579.9080365;-41.720733642578125;-0.9813350439071655;-44.83055877685547
215;1673366579.9528084;47.1306473;7.2405797;49.75700378417969;1673366580.1071982;-42.07645034790039;-2.9673194885253906;-44.49233627319336
216;1673366580.1428175;47.1306539;7.2405669999999995;49.733001708984375;1673366580.298149;-44.25358200073242;-0.4467604458332062;-44.9239501953125
217;1673366580.3455944;47.130661599999996;7.240551699999999;49.74100112915039;1673366580.4941792;-51.32174301147461;2.776691198348999;-45.086952209472656
218;1673366580.5380945;47.1306709;7.2405339;49.77900314331055;1673366580.6987152;-58.83991622924805;5.9835920333862305;-45.299530029296875
219;1673366580.7600372;47.1306821;7.2405133;49.829002380371094;1673366580.9219592;-60.84469985961914;6.768644332885742;-44.83127212524414
220;1673366580.9641285;47.1306954;7.2404902;49.868003845214844;1673366581.1028905;-57.972537994384766;6.294215202331543;-44.858123779296875
221;1673366581.1475441;47.1307105;7.2404649999999995;49.88100051879883;1673366581.302088;-55.73237228393555;5.657471656799316;-44.98963165283203
222;1673366581.345719;47.130727;7.2404382;49.87300109863281;1673366581.5062637;-54.36112976074219;5.716256618499756;-45.25028610229492
223;1673366581.547649;47.1307447;7.24041;49.84800338745117;1673366581.7026904;-50.76677703857422;6.101648807525635;-45.16096115112305
224;1673366581.7490351;47.130763099999996;7.2403809;49.81500244140625;1673366581.9122267;-48.784942626953125;4.149276256561279;-44.719505310058594
225;1673366581.9527934;47.130781999999996;7.2403512;49.790000915527344;1673366582.1151361;-48.041473388671875;7.010688781738281;-44.964599609375
226;1673366582.1613364;47.1308012;7.2403213;49.77700424194336;1673366582.3215275;-48.57906723022461;4.903589248657227;-42.90629577636719
227;1673366582.3645048;47.130820799999995;7.2402913;49.768001556396484;1673366582.5244954;-49.17728042602539;6.048295021057129;-43.269439697265625
228;1673366582.5640962;47.1308405;7.2402612;49.7650032043457;1673366582.7162209;-46.68930435180664;9.838997840881348;-43.637359619140625
229;1673366582.758056;47.1308606;7.240231199999999;49.77100372314453;1673366582.9307566;-15.615102767944336;11.870102882385254;-41.810630798339844
230;1673366582.9716058;47.1308807;7.240202099999999;49.790000915527344;1673366583.1266465;29.250885009765625;8.987491607666016;-41.63954544067383
231;1673366583.1707363;47.130899199999995;7.2401757;49.76900100708008;1673366583.3210032;24.5427303314209;1.4943101406097412;-41.690887451171875
232;1673366583.3617046;47.1309153;7.2401522;49.54600143432617;1673366583.5085912;17.468067169189453;-0.5999687910079956;-45.550384521484375
233;1673366583.554774;47.1309283;7.2401322;49.27100372314453;1673366583.699569;14.381478309631348;-0.6720826625823975;-45.975887298583984
234;1673366583.7498243;47.1309385;7.240115299999999;49.06300354003906;1673366583.9156203;15.02412223815918;-0.03586485609412193;-45.53731918334961
235;1673366583.9635916;47.130945999999994;7.2401013999999995;49.02800369262695;1673366584.1255;52.70854949951172;1.068469524383545;-45.498802185058594
236;1673366584.1697066;47.1309506;7.2400913;49.172000885009766;1673366584.334379;55.44439697265625;0.8121935725212097;-46.048431396484375
237;1673366584.3790166;47.1309513;7.240086499999999;49.32400131225586;1673366584.536321;59.03412628173828;2.700324296951294;-47.35670852661133
238;1673366584.578643;47.1309487;7.2400869;49.474002838134766;1673366584.7315357;55.98111343383789;3.9951319694519043;-47.76520538330078
239;1673366584.773523;47.1309434;7.240091499999999;49.5880012512207;1673366584.9247072;50.059696197509766;6.910192966461182;-47.16751480102539
240;1673366584.975562;47.1309362;7.2400994999999995;49.66800308227539;1673366585.134647;37.93931579589844;9.40580940246582;-47.25653076171875
241;1673366585.1786292;47.1309281;7.240109599999999;49.70900344848633;1673366585.3392808;22.01671600341797;11.562521934509277;-47.32150650024414
242;1673366585.3819075;47.1309198;7.2401205;49.72200393676758;1673366585.5324008;5.432718276977539;12.659051895141602;-46.31074142456055
243;1673366585.577351;47.130912099999996;7.2401311999999995;49.71000289916992;1673366585.7263665;-7.796051025390625;11.026283264160156;-45.04209518432617
244;1673366585.763031;47.1309055;7.2401406999999995;49.69600296020508;1673366585.9031048;-18.248193740844727;0.8224853277206421;-45.367008209228516
245;1673366585.9470344;47.1309003;7.240148199999999;49.6670036315918;1673366586.107509;-24.592008590698242;-1.3804876804351807;-43.882755279541016
246;1673366586.1578312;47.1308965;7.2401529;49.62700271606445;1673366586.3382783;-25.034404754638672;4.107259750366211;-43.31482696533203
247;1673366586.3872287;47.1308942;7.2401548;49.55600357055664;1673366586.5339196;-8.153629302978516;-7.363125324249268;-45.54085159301758
248;1673366586.5744846;47.130893099999994;7.2401545;49.46200180053711;1673366586.7225056;3.0518312454223633;-0.9596088528633118;-45.579288482666016
249;1673366586.7671535;47.1308922;7.2401526;49.37800216674805;1673366586.92724;12.74312973022461;2.44268798828125;-44.53530502319336
250;1673366586.9760814;47.1308911;7.2401503;49.332000732421875;1673366587.1359594;37.65776824951172;-25.29388999938965;-48.88444900512695
251;1673366587.1785085;47.1308897;7.240147899999999;49.11600112915039;1673366587.322331;51.66257095336914;-69.16936492919922;-68.17534637451172
252;1673366587.3677754;47.130888299999995;7.2401453;48.53300094604492;1673366587.5474362;53.38362121582031;-112.95164489746094;-88.70584106445312
253;1673366587.6039112;47.130887;7.2401425999999995;47.577003479003906;1673366587.749706;53.38017654418945;-141.50140380859375;-94.91763305664062
254;1673366587.7904143;47.1308857;7.2401396;46.24700164794922;1673366587.9439607;61.98386001586914;-159.4775390625;-91.53582000732422
255;1673366587.9837744;47.1308843;7.2401364;44.53600311279297;1673366588.132476;84.6948471069336;-173.55776977539062;-84.60359191894531
256;1673366588.1874604;47.130883;7.2401332;42.470001220703125;1673366588.3410442;56.44673538208008;-4.568108081817627;108.63352966308594
257;1673366588.385497;47.130881699999996;7.2401301;40.04800033569336;1673366588.5383537;4.559610366821289;-25.485000610351562;119.26393127441406
258;1673366588.5789416;47.1308802;7.240127299999999;37.242000579833984;1673366588.7076614;-40.67554473876953;-48.906532287597656;146.08624267578125
259;1673366588.749782;47.130878599999996;7.2401241999999995;34.05000305175781;1673366588.9015687;-60.00090026855469;-75.72744750976562;-173.61172485351562
260;1673366588.954307;47.1308771;7.2401208;30.50400161743164;1673366589.1102965;-65.91230773925781;-55.90864181518555;-173.3859405517578
261;1673366589.157715;47.130875599999996;7.240117199999999;26.62200164794922;1673366589.3282955;-41.61573791503906;4.435707092285156;153.63546752929688
262;1673366589.3756793;47.1308742;7.240113399999999;22.417001724243164;1673366589.5166538;11.995095252990723;32.22418975830078;164.21324157714844
263;1673366589.559256;47.130873099999995;7.240109599999999;17.834001541137695;1673366589.7228644;51.54943084716797;60.02379608154297;-162.2505340576172
264;1673366589.7692792;47.130871899999995;7.240106399999999;12.887001037597656;1673366589.9339151;65.37294006347656;55.475284576416016;-147.6910400390625
265;1673366589.9764457;47.130870599999994;7.2401034;7.63200044631958;1673366590.1117291;43.109989166259766;-4.00911283493042;-179.06260681152344
266;1673366590.1612751;47.130868899999996;7.2401005;2.057000160217285;1673366590.3463366;-1.468139886856079;1.0650180578231812;-171.35250854492188
267;1673366590.3937747;47.1308742;7.2401086;-0.08300000429153442;1673366590.544371;-12.340261459350586;-4.7918314933776855;-168.25665283203125
268;1673366590.586117;47.130885299999996;7.2401253;-0.37800002098083496;1673366590.74143;-2.994147300720215;-1.7046606540679932;-168.8508758544922
269;1673366590.7845569;47.1308973;7.2401427;-0.6320000290870667;1673366590.9502354;9.62076187133789;4.379754066467285;-169.93748474121094
270;1673366591.0015285;47.130908399999996;7.2401583;-0.8160000443458557;1673366591.1762826;9.615309715270996;4.2799072265625;-169.93601989746094
271;1673366591.2279983;47.1309185;7.240172299999999;-0.9480000734329224;1673366591.4157138;8.433509826660156;5.816360950469971;-170.1923828125
272;1673366591.4871337;47.1309283;7.240185299999999;-1.0450000762939453;1673366591.5912144;8.155001640319824;5.293464183807373;-170.44720458984375
273;1673366591.636107;47.1309397;7.2402003;-1.1460000276565552;1673366591.7640734;8.105340957641602;4.941339015960693;-170.52967834472656
274;1673366591.8012328;47.1309523;7.2402166;-1.2710000276565552;1673366591.9430616;8.081352233886719;4.556678771972656;-170.60231018066406
275;1673366591.9874933;47.130965599999996;7.240233399999999;-1.352000117301941;1673366592.1482491;7.969207286834717;4.180689811706543;-170.68519592285156
276;1673366592.1886563;47.1309794;7.240250499999999;-1.415000081062317;1673366592.341796;7.866640090942383;3.8096837997436523;-170.7611846923828
277;1673366592.3867028;47.1309936;7.2402679;-1.4640001058578491;1673366592.5318635;7.851398468017578;3.390265941619873;-170.82247924804688
278;1673366592.5818105;47.1310082;7.240285399999999;-1.5090000629425049;1673366592.764655;7.79248571395874;2.9693636894226074;-170.89822387695312
279;1673366592.8097484;47.1310232;7.2403032;-1.5440000295639038;1673366592.9618173;7.703056812286377;2.6279172897338867;-170.95040893554688
280;1673366593.0309381;47.1310387;7.2403213;-1.5950000286102295;1673366593.1746497;7.70433235168457;2.1634411811828613;-170.99632263183594
281;1673366593.217797;47.1310547;7.2403398;-1.6710001230239868;1673366593.3891492;7.543018817901611;1.738981008529663;-171.02854919433594
282;1673366593.4567432;47.1310709;7.2403583;-1.7190001010894775;1673366593.5962565;7.492523193359375;1.374542474746704;-171.05996704101562
283;1673366593.6397448;47.1310874;7.240376899999999;-1.7530001401901245;1673366593.7960997;7.412966251373291;0.9777901768684387;-171.10594177246094
284;1673366593.8836484;47.131104099999995;7.2403955;-1.7730001211166382;1673366594.0187218;7.323938846588135;0.6621119379997253;-171.15074157714844
285;1673366594.0798922;47.131121199999995;7.240414299999999;-1.7850000858306885;1673366594.254828;7.284543037414551;0.35369521379470825;-171.14813232421875
286;1673366594.2985928;47.1311387;7.2404335;-1.808000087738037;1673366594.4048476;7.276305198669434;0.03149362653493881;-171.19508361816406
287;1673366594.4367003;47.1311567;7.2404531;-1.8470001220703125;1673366594.556831;7.221554279327393;-0.22722840309143066;-171.20594787597656
288;1673366594.5916388;47.1311749;7.2404725999999995;-1.8610000610351562;1673366594.7266119;7.179742336273193;-0.5163239240646362;-171.21458435058594
289;1673366594.773729;47.1311933;7.240492199999999;-1.8560000658035278;1673366594.9399803;7.1094279289245605;-0.7701589465141296;-171.2355194091797
290;1673366594.9827614;47.1312119;7.240512;-1.840000033378601;1673366595.1607506;7.0580291748046875;-0.9865094423294067;-171.26443481445312
291;1673366595.2020292;47.1312309;7.2405319;-1.8200000524520874;1673366595.3540978;7.019481182098389;-1.2630162239074707;-171.26417541503906
292;1673366595.398695;47.1312502;7.2405522;-1.7990001440048218;1673366595.554097;6.941911697387695;-1.46292245388031;-171.2670440673828
293;1673366595.598029;47.13127;7.2405729;-1.790000081062317;1673366595.751872;6.847076892852783;-1.686477541923523;-171.2764892578125
294;1673366595.792161;47.1312904;7.2405941;-1.7950000762939453;1673366595.9406598;6.7769670486450195;-1.8336467742919922;-171.29042053222656
295;1673366595.9815598;47.131310899999995;7.240615399999999;-1.7760001420974731;1673366596.1465967;6.762728214263916;-1.9962351322174072;-171.3046112060547
296;1673366596.1935575;47.1313259;7.240630899999999;-1.7500001192092896;1673366596.3818135;6.773849010467529;-2.1726670265197754;-171.33590698242188
297;;;;;1673366596.567619;6.767128944396973;-2.303718090057373;-171.36192321777344
298;;;;;1673366596.7999356;6.761399745941162;-2.4800257682800293;-171.37820434570312
299;;;;;1673366596.9613106;6.732854843139648;-2.6286873817443848;-171.39881896972656
300;;;;;1673366597.156098;6.671492576599121;-3.08302903175354;-171.4088134765625
301;;;;;1673366597.3389912;6.607771396636963;-3.232142686843872;-171.43310546875
302;;;;;1673366597.528619;6.590958595275879;-3.440035343170166;-171.4373779296875
303;;;;;1673366597.7162817;6.475099086761475;-3.618180751800537;-171.46022033691406
