;pos_time;latitude;longitude;altitude;alt_time;pitch;roll;yaw
0;1673305594.0072398;47.1306424;7.24062;-0.013000000268220901;1673305594.090912;0.12588347494602203;-0.39000990986824036;89.8822021484375
1;1673305594.224016;47.1306424;7.2406201;-0.010000000707805157;1673305594.2997384;-0.030507786199450493;-0.5911943316459656;90.07733917236328
2;1673305594.4429545;47.1306424;7.2406201;-0.012000000104308128;1673305594.5122442;-0.19673341512680054;-0.281342476606369;89.87303924560547
3;1673305594.6394324;47.1306424;7.2406201;-0.015000000596046448;1673305594.713778;0.2292461395263672;-0.6489265561103821;89.88079071044922
4;1673305594.8305943;47.1306423;7.2406201999999995;-0.017000000923871994;1673305594.9015546;-0.1799449622631073;-0.35036516189575195;89.9570541381836
5;1673305595.0231254;47.1306423;7.2406203;-0.01900000125169754;1673305595.0968611;0.004464288707822561;-0.43999162316322327;89.87410736083984
6;1673305595.221831;47.1306423;7.2406203;-0.021000001579523087;1673305595.3000937;0.038643836975097656;-0.4022786021232605;89.9289779663086
7;1673305595.461164;47.1306423;7.2406203;-0.023000001907348633;1673305595.5334668;-0.15269924700260162;-0.40665021538734436;89.94973754882812
8;1673305595.67146;47.1306423;7.2406201999999995;-0.023000001907348633;1673305595.7350497;-0.20952893793582916;-0.4022664427757263;89.98922729492188
9;1673305595.8644736;47.1306423;7.2406201999999995;0.0;1673305595.956616;-0.022991402074694633;-0.6852393746376038;89.8855209350586
10;1673305596.0637007;47.1306423;7.2406203;-0.0020000000949949026;1673305596.1283216;0.2110964059829712;-0.7552732825279236;89.8003921508789
11;1673305596.265828;47.1306423;7.2406203;-0.004000000189989805;1673305596.3372672;0.011044654995203018;-0.7089633345603943;89.9927749633789
12;1673305596.4473333;47.1306423;7.2406201999999995;-0.007000000216066837;1673305596.5172687;-0.19945695996284485;-0.6564803719520569;89.97547149658203
13;1673305596.6455863;47.1306423;7.2406201999999995;-0.01100000087171793;1673305596.716697;-0.21185019612312317;-0.6208054423332214;89.92948150634766
14;1673305596.8333063;47.1306423;7.2406201999999995;-0.010000000707805157;1673305596.9100382;-0.1286150962114334;-0.7440458536148071;89.8686752319336
15;1673305597.0514395;47.1306423;7.2406201;-0.014000000432133675;1673305597.1295605;-0.045481350272893906;-0.6862055063247681;89.83687591552734
16;1673305597.2463183;47.1306423;7.2406201;-0.014000000432133675;1673305597.3184512;-0.15425138175487518;-0.9533904194831848;89.79240417480469
17;1673305597.4434574;47.1306423;7.24062;0.0;1673305597.5124123;0.1035744771361351;-0.8059831261634827;89.88346862792969
18;1673305597.6356864;47.1306423;7.24062;-0.0010000000474974513;1673305597.7013044;0.03765616938471794;-0.7482625246047974;89.85578155517578
19;1673305597.8152313;47.1306423;7.24062;-0.006000000052154064;1673305597.8959398;0.10350268334150314;-0.9180014729499817;89.57743072509766
20;1673305598.0285406;47.1306423;7.2406201;-0.00800000037997961;1673305598.0984905;0.150552898645401;-0.6523557901382446;89.62772369384766
21;1673305598.2296536;47.1306424;7.2406201;-0.007000000216066837;1673305598.3121576;0.4343833923339844;-0.16135823726654053;89.90886688232422
22;1673305598.4354205;47.1306424;7.2406201999999995;0.0;1673305598.5105636;0.26360949873924255;-0.4875662624835968;90.03236389160156
23;1673305598.6458611;47.1306424;7.2406201999999995;0.004000000189989805;1673305598.7169497;0.4074873924255371;-0.5326630473136902;89.95068359375
24;1673305598.833319;47.1306424;7.2406201999999995;0.0010000000474974513;1673305598.9085746;0.2614990174770355;-0.5584753155708313;89.91629028320312
25;1673305599.0422218;47.1306424;7.2406201999999995;-0.003000000026077032;1673305599.1273339;0.39036229252815247;-0.2808942198753357;89.55741882324219
26;1673305599.2604463;47.1306425;7.2406201999999995;-0.005000000353902578;1673305599.3353586;0.30051109194755554;-0.29280343651771545;88.55174255371094
27;1673305599.462386;47.1306425;7.2406201;-0.003000000026077032;1673305599.5715313;-0.44877371191978455;1.3668493032455444;86.75480651855469
28;1673305599.6955538;47.130642599999995;7.240619799999999;0.007000000216066837;1673305599.7653263;-3.8410451412200928;4.562429428100586;87.98359680175781
29;1673305599.9043198;47.130642699999996;7.240619499999999;0.026000000536441803;1673305599.9745092;-8.349723815917969;7.994874954223633;88.13481140136719
30;1673305600.0915515;47.130642699999996;7.240619199999999;0.06100000441074371;1673305600.15952;-8.324180603027344;6.79467248916626;88.4285659790039
31;1673305600.2636;47.130642699999996;7.2406191;0.11800000816583633;1673305600.3364134;-7.603211402893066;9.188549041748047;87.58284759521484
32;1673305600.464482;47.130642699999996;7.2406191;0.1940000057220459;1673305600.5303872;-7.299019813537598;6.495053768157959;87.76944732666016
33;1673305600.657158;47.130642599999995;7.2406191;0.28300002217292786;1673305600.7345984;-7.069186687469482;4.989566802978516;87.94417572021484
34;1673305600.8710878;47.1306423;7.240619199999999;0.3850000202655792;1673305601.0173888;-6.570316791534424;9.410931587219238;87.23312377929688
35;1673305601.1121485;47.1306422;7.2406194;0.5040000081062317;1673305601.1732392;-6.453675746917725;6.230625629425049;87.60558319091797
36;1673305601.2969737;47.1306422;7.240619499999999;0.6350000500679016;1673305601.3610194;-6.4483137130737305;3.9279754161834717;87.86165618896484
37;1673305601.479806;47.130642099999996;7.2406197;0.7800000309944153;1673305601.549764;-6.203875541687012;8.71302318572998;87.32090759277344
38;1673305601.668682;47.130641999999995;7.2406198999999996;0.9340000152587891;1673305601.7328231;-6.036705493927002;7.252443790435791;87.34553527832031
39;1673305601.8524904;47.130641999999995;7.24062;1.099000096321106;1673305601.9335535;-6.273081302642822;3.5354044437408447;87.93428039550781
40;1673305602.064487;47.1306419;7.2406201;1.283000111579895;1673305602.1338558;-5.995476722717285;6.885900020599365;87.69173431396484
41;1673305602.2570336;47.1306418;7.2406201999999995;1.475000023841858;1673305602.3279834;-5.708060264587402;8.478551864624023;86.78771209716797
42;1673305602.446868;47.1306419;7.2406201999999995;1.6700000762939453;1673305602.5210795;-5.827815532684326;4.206960201263428;87.0658950805664
43;1673305602.6418333;47.130641999999995;7.2406201999999995;1.8660000562667847;1673305602.7176783;-6.2362542152404785;6.157863140106201;86.85940551757812
44;1673305602.8457377;47.130642099999996;7.2406201999999995;2.059000015258789;1673305602.919083;-6.132910251617432;9.56420612335205;86.40754699707031
45;1673305603.0382187;47.1306422;7.2406201;2.25600004196167;1673305603.1143804;-6.2243757247924805;5.69931173324585;86.89176940917969
46;1673305603.2411451;47.1306422;7.2406201;2.452000141143799;1673305603.3175397;-6.522861957550049;5.082788944244385;86.87269592285156
47;1673305603.443836;47.130642099999996;7.2406201;2.6510000228881836;1673305603.5230174;-6.514845848083496;9.391965866088867;86.18318939208984
48;1673305603.6537528;47.1306422;7.24062;2.8570001125335693;1673305603.7417626;-6.41501522064209;5.680232524871826;86.67581176757812
49;1673305603.8440485;47.1306423;7.24062;3.064000129699707;1673305603.912986;-6.701961517333984;5.358598232269287;86.89556121826172
50;1673305604.0374882;47.1306423;7.24062;3.267000198364258;1673305604.112198;-6.413905620574951;9.600686073303223;86.38821411132812
51;1673305604.2369215;47.1306422;7.24062;3.4670002460479736;1673305604.3170676;-6.160607814788818;6.291500568389893;86.64350891113281
52;1673305604.4543605;47.130642099999996;7.2406201;3.6750001907348633;1673305604.5413363;-6.572667121887207;3.947427272796631;86.76032257080078
53;1673305604.6651962;47.130642099999996;7.2406201;3.88700008392334;1673305604.7366178;-6.624869346618652;8.500893592834473;86.03215789794922
54;1673305604.85401;47.130642099999996;7.2406201;4.095000267028809;1673305604.9321873;-6.447484970092773;7.27911901473999;86.35618591308594
55;1673305605.067013;47.1306423;7.2406201999999995;4.300000190734863;1673305605.1421413;-6.217204570770264;4.585390090942383;86.88418579101562
56;1673305605.2582881;47.1306424;7.2406203;4.50700044631958;1673305605.3322823;-6.186824321746826;8.437050819396973;86.40074920654297
57;1673305605.4642282;47.1306424;7.2406204;4.708000183105469;1673305605.5318875;-5.734935283660889;9.037212371826172;86.15132141113281
58;1673305605.6645358;47.1306424;7.2406204;4.9120001792907715;1673305605.734845;-5.784245491027832;4.461666107177734;86.69886779785156
59;1673305605.8753262;47.1306424;7.2406204;5.115000247955322;1673305605.9490917;-6.164891242980957;6.670474529266357;86.4197998046875
60;1673305606.0650113;47.1306423;7.2406204;5.316000461578369;1673305606.1383379;-6.224880695343018;9.638633728027344;86.27012634277344
61;1673305606.2666607;47.1306424;7.2406204;5.523000240325928;1673305606.3327892;-6.45461368560791;5.079529762268066;86.86822509765625
62;1673305606.4447598;47.1306425;7.2406204;5.728000164031982;1673305606.5175734;-6.632804870605469;6.686926364898682;86.56982421875
63;1673305606.6342568;47.1306425;7.2406203;5.932000160217285;1673305606.7079935;-6.410314083099365;9.736251831054688;86.26554107666016
64;1673305606.836705;47.1306424;7.2406203;6.130000114440918;1673305606.9103045;-6.487724304199219;5.795535564422607;86.78900909423828
65;1673305607.0316637;47.1306424;7.2406203;6.329000473022461;1673305607.1007345;-6.661131381988525;5.053147792816162;86.8034439086914
66;1673305607.222438;47.1306423;7.2406203;6.5360002517700195;1673305607.2972043;-6.4570536613464355;9.199438095092773;86.18437194824219
67;1673305607.4188287;47.1306424;7.2406203;6.748000144958496;1673305607.491669;-6.327867031097412;6.91942024230957;86.54716491699219
68;1673305607.627917;47.1306425;7.2406203;6.963000297546387;1673305607.701211;-6.424098014831543;5.032992362976074;86.86566162109375
69;1673305607.8308353;47.130642599999995;7.2406203;7.1700005531311035;1673305607.9065368;-6.643374919891357;9.5291109085083;86.11473846435547
70;1673305608.0369499;47.130642599999995;7.2406203;7.37000036239624;1673305608.109788;-6.319113254547119;8.464445114135742;86.24038696289062
71;1673305608.2344713;47.130642599999995;7.2406203;7.571000576019287;1673305608.3053133;-6.449103355407715;4.417535305023193;86.76780700683594
72;1673305608.431954;47.1306425;7.2406203;7.767000198364258;1673305608.519507;-6.504864692687988;8.056743621826172;86.23760223388672
73;1673305608.6717677;47.1306425;7.2406201999999995;7.9710001945495605;1673305608.7621732;-6.219202995300293;9.12753677368164;86.16177368164062
74;1673305608.9086154;47.130642599999995;7.2406201999999995;8.17400074005127;1673305609.0115907;-6.448480606079102;4.807044506072998;86.7450180053711
75;1673305609.1365209;47.130642699999996;7.2406203;8.373000144958496;1673305609.1927288;-6.594540596008301;8.070796966552734;86.43991088867188
76;1673305609.2966669;47.130642599999995;7.2406203;8.571000099182129;1673305609.3685067;-6.606334686279297;9.408658981323242;86.23772430419922
77;1673305609.4840605;47.1306425;7.2406203;8.767000198364258;1673305609.545586;-6.889832019805908;4.372912406921387;86.83253479003906
78;1673305609.658943;47.1306424;7.2406203;8.96500015258789;1673305609.7621806;-6.605815410614014;6.628082275390625;86.59040832519531
79;1673305609.8798559;47.1306424;7.2406203;9.170000076293945;1673305609.9823322;-6.455819606781006;9.742385864257812;86.35163116455078
80;1673305610.0952606;47.1306425;7.2406203;9.372000694274902;1673305610.1612513;-6.314443588256836;5.03171968460083;86.85749816894531
81;1673305610.2768726;47.130642599999995;7.2406203;9.57300090789795;1673305610.3501248;-6.640252590179443;6.609378814697266;86.59945678710938
82;1673305610.478079;47.130642599999995;7.2406203;9.770000457763672;1673305610.5475333;-6.583293914794922;9.924971580505371;86.20948028564453
83;1673305610.6618285;47.1306425;7.2406203;9.964000701904297;1673305610.7447877;-6.557643890380859;5.5400071144104;86.6263427734375
84;1673305610.8737352;47.1306425;7.2406203;10.158000946044922;1673305610.9488845;-6.670257568359375;4.700262069702148;86.71224212646484
85;1673305611.081707;47.1306425;7.2406203;10.426000595092773;1673305611.151004;-7.3942718505859375;9.45064640045166;86.1641845703125
86;1673305611.2691882;47.1306424;7.2406206;10.788000106811523;1673305611.3404808;-7.051398754119873;9.33596420288086;86.48605346679688
87;1673305611.4626646;47.1306424;7.2406209;11.175000190734863;1673305611.5397494;-6.297654151916504;4.854762077331543;86.91244506835938
88;1673305611.6677334;47.1306424;7.2406212;11.572000503540039;1673305611.7561347;-5.769115924835205;7.724361419677734;86.5535659790039
89;1673305611.8737988;47.1306422;7.240621399999999;11.967000961303711;1673305611.9462402;-5.087830066680908;8.229560852050781;86.35869598388672
90;1673305612.06736;47.130641999999995;7.2406215;12.36400032043457;1673305612.140592;-5.0604047775268555;3.6658554077148438;86.61489868164062
91;1673305612.2775269;47.1306419;7.2406216;12.762001037597656;1673305612.3416324;-5.363450050354004;5.5093584060668945;86.3200454711914
92;1673305612.4552066;47.1306419;7.2406216;13.164000511169434;1673305612.5333889;-5.371294975280762;8.772055625915527;86.07654571533203
93;1673305612.6876671;47.130641999999995;7.2406215;13.569000244140625;1673305612.7894843;-5.8280792236328125;4.8547773361206055;86.7860107421875
94;1673305612.907491;47.1306422;7.2406213;13.973000526428223;1673305612.9769762;-6.271951675415039;6.003036975860596;86.84492492675781
95;1673305613.075115;47.1306423;7.240621099999999;14.37600040435791;1673305613.1405797;-5.982849597930908;9.584811210632324;86.31195831298828
96;1673305613.2577803;47.1306423;7.240621;14.778000831604004;1673305613.340277;-6.070618629455566;6.098496913909912;86.36771392822266
97;1673305613.4698024;47.1306423;7.240620799999999;15.182001113891602;1673305613.533276;-6.480043888092041;5.153168201446533;86.56442260742188
98;1673305613.640381;47.1306422;7.240620799999999;15.588000297546387;1673305613.7161248;-6.6416754722595215;9.462240219116211;86.30721282958984
99;1673305613.8397596;47.1306423;7.2406207;15.998001098632812;1673305613.9115448;-6.3714823722839355;6.952988147735596;86.75920104980469
100;1673305614.052704;47.1306425;7.240620799999999;16.407001495361328;1673305614.1537862;-6.44286584854126;5.109974384307861;86.77874755859375
101;1673305614.2810187;47.1306425;7.2406209;16.82000160217285;1673305614.3567328;-6.239063262939453;9.235612869262695;86.18128204345703
102;1673305614.503349;47.1306425;7.2406209;17.23000144958496;1673305614.5807273;-5.840753078460693;8.183104515075684;86.25774383544922
103;1673305614.7361495;47.1306424;7.2406209;17.63300132751465;1673305614.8260493;-5.977464199066162;4.287837505340576;86.716552734375
104;1673305614.948184;47.1306423;7.2406209;18.036001205444336;1673305615.0126364;-6.012792110443115;7.210334777832031;86.4682846069336
105;1673305615.1274278;47.1306423;7.2406209;18.444000244140625;1673305615.1855803;-6.036452770233154;9.02515983581543;86.3487319946289
106;1673305615.2778502;47.1306424;7.2406209;18.852001190185547;1673305615.3315592;-6.053225994110107;4.767636775970459;86.79527282714844
107;1673305615.4385912;47.1306425;7.2406209;19.25400161743164;1673305615.5025659;-6.37233304977417;6.888330459594727;86.56503295898438
108;1673305615.6085215;47.1306424;7.240620799999999;19.655000686645508;1673305615.6744335;-6.235867500305176;9.466038703918457;86.19186401367188
109;1673305615.7872045;47.1306423;7.240620799999999;20.052000045776367;1673305615.8584516;-6.4782280921936035;5.120686054229736;86.73754119873047
110;1673305615.9756637;47.1306423;7.240620799999999;20.452001571655273;1673305616.047898;-6.4180216789245605;5.344010353088379;86.64136505126953
111;1673305616.1699991;47.1306423;7.240620799999999;20.85500144958496;1673305616.2451475;-6.1586432456970215;9.735612869262695;86.01718139648438
112;1673305616.366316;47.1306424;7.240620799999999;21.260000228881836;1673305616.4404867;-5.81107234954834;6.182319164276123;86.54833221435547
113;1673305616.5684414;47.1306425;7.240620799999999;21.667001724243164;1673305616.6455593;-6.26577091217041;5.42079496383667;86.78076934814453
114;1673305616.7697382;47.1306425;7.240620799999999;22.07400131225586;1673305616.8458726;-5.9073166847229;9.556418418884277;86.28169250488281
115;1673305616.9914052;47.1306425;7.240620799999999;22.479001998901367;1673305617.0700297;-5.914628028869629;7.087087631225586;86.52061462402344
116;1673305617.196466;47.1306424;7.2406207;22.876001358032227;1673305617.2653294;-6.336568355560303;4.477736949920654;86.75656127929688
117;1673305617.381056;47.1306425;7.2406207;23.27400016784668;1673305617.4532797;-6.420366287231445;8.963810920715332;86.12691497802734
118;1673305617.5724456;47.1306425;7.2406206;23.678001403808594;1673305617.646618;-6.083807468414307;8.123634338378906;86.33506774902344
119;1673305617.7697985;47.130642599999995;7.2406206;24.07900047302246;1673305617.8418014;-6.39031457901001;4.776339054107666;86.84290313720703
120;1673305617.9648776;47.130642599999995;7.2406204999999995;24.48000144958496;1673305618.0380733;-6.191146373748779;8.008296012878418;86.49139404296875
121;1673305618.1606266;47.130642599999995;7.2406204;24.887001037597656;1673305618.2372973;-6.0419487953186035;9.435750007629395;86.18830108642578
122;1673305618.3603804;47.1306425;7.2406204;25.286001205444336;1673305618.4345908;-6.16684627532959;4.263938903808594;86.73538208007812
123;1673305618.5590825;47.1306424;7.2406203;25.684001922607422;1673305618.6337905;-6.430161952972412;7.024075508117676;86.49539947509766
124;1673305618.758286;47.1306425;7.2406203;26.086000442504883;1673305618.8339696;-6.40648078918457;9.633220672607422;86.35911560058594
125;1673305618.959435;47.130642599999995;7.2406201999999995;26.492000579833984;1673305619.0360985;-6.484232425689697;5.252877712249756;86.79888153076172
126;1673305619.163092;47.130642599999995;7.2406201999999995;26.893001556396484;1673305619.237269;-6.430384635925293;6.560729026794434;86.5806884765625
127;1673305619.3633077;47.130642599999995;7.2406201999999995;27.295001983642578;1673305619.4462683;-6.113478183746338;9.578478813171387;86.04496002197266
128;1673305619.56837;47.130642599999995;7.2406201999999995;27.69700050354004;1673305619.643517;-6.113160610198975;5.945603370666504;86.57315826416016
129;1673305619.7685466;47.130642599999995;7.2406201999999995;28.09400177001953;1673305619.8427176;-6.283036231994629;5.551241397857666;86.7186279296875
130;1673305619.967743;47.1306425;7.2406201999999995;28.50200080871582;1673305620.0409405;-6.09997034072876;9.915518760681152;86.25982666015625
131;1673305620.165968;47.130642599999995;7.2406201999999995;28.908000946044922;1673305620.239165;-6.055060386657715;6.841406345367432;86.47180938720703
132;1673305620.3642445;47.130642599999995;7.2406201999999995;29.31300163269043;1673305620.4374442;-6.322385787963867;5.232349395751953;86.67037963867188
133;1673305620.5644138;47.130642599999995;7.2406201999999995;29.716001510620117;1673305620.6415179;-6.335052013397217;8.990350723266602;86.17345428466797
134;1673305620.7684968;47.1306425;7.2406201;30.119001388549805;1673305620.843646;-6.4587507247924805;7.834130764007568;86.5009994506836
135;1673305620.9686909;47.1306425;7.2406201;30.5260009765625;1673305621.0448172;-6.632539749145508;4.745014190673828;86.95426177978516
136;1673305621.170836;47.1306425;7.2406201;30.922000885009766;1673305621.2450101;-6.416264057159424;8.81691837310791;86.3006820678711
137;1673305621.3720338;47.130642599999995;7.2406201;31.321001052856445;1673305621.447203;-5.782724380493164;8.61478328704834;86.24677276611328
138;1673305621.5731945;47.130642599999995;7.2406201;31.718002319335938;1673305621.6512737;-6.016635417938232;4.938785552978516;86.6087875366211
139;1673305621.8347857;47.1306425;7.2406201999999995;32.117000579833984;1673305621.9153495;-6.2571797370910645;8.065282821655273;86.3984603881836
140;1673305622.0545733;47.1306424;7.2406201999999995;32.513999938964844;1673305622.1312373;-6.257132530212402;9.049996376037598;86.42188262939453
141;1673305622.267123;47.1306424;7.2406201999999995;32.915000915527344;1673305622.3376465;-6.638564586639404;4.68880033493042;87.01634216308594
142;1673305622.4543116;47.1306424;7.2406201999999995;33.310001373291016;1673305622.5498278;-6.45123815536499;6.614497184753418;86.56280517578125
143;1673305622.6685739;47.1306424;7.2406201999999995;33.711002349853516;1673305622.7497244;-6.349871635437012;9.669950485229492;86.03294372558594
144;1673305622.8807461;47.1306425;7.2406201999999995;34.11300277709961;1673305622.9559886;-6.161800384521484;5.6592230796813965;86.6675796508789
145;1673305623.0945785;47.1306425;7.2406201999999995;34.51100158691406;1673305623.1662333;-6.431641101837158;6.250062942504883;86.66171264648438
146;1673305623.3026361;47.1306423;7.2406201999999995;34.91100311279297;1673305623.374492;-6.173526763916016;9.559255599975586;86.19698333740234
147;1673305623.5156534;47.1306423;7.2406201999999995;35.3120002746582;1673305623.593131;-6.253440856933594;6.277007579803467;86.57395935058594
148;1673305623.743281;47.1306423;7.2406201999999995;35.7130012512207;1673305623.8580348;-6.521948337554932;4.966052055358887;86.64641571044922
149;1673305623.9642599;47.1306424;7.2406201999999995;36.108001708984375;1673305624.0502644;-6.334351062774658;10.036968231201172;86.2088851928711
150;1673305624.1545815;47.1306424;7.2406201999999995;36.50400161743164;1673305624.2338336;-6.217559337615967;6.6628618240356445;86.5787124633789
151;1673305624.3842914;47.1306425;7.2406203;36.90299987792969;1673305624.4623806;-6.274995803833008;5.204794883728027;86.79869842529297
152;1673305624.5837142;47.1306424;7.2406203;37.302001953125;1673305624.6334856;-6.1739501953125;9.642721176147461;86.15430450439453
153;1673305624.744464;47.1306424;7.2406203;37.707000732421875;1673305624.8055663;-5.953854560852051;7.374652862548828;86.3647689819336
154;1673305624.947894;47.1306424;7.2406203;38.112003326416016;1673305625.0431495;-6.304340362548828;4.598682880401611;86.79800415039062
155;1673305625.1553931;47.1306424;7.2406203;38.509002685546875;1673305625.216088;-6.240945816040039;9.511896133422852;86.4378433227539
156;1673305625.3685796;47.1306425;7.2406203;38.91100311279297;1673305625.4252229;-6.240790843963623;8.349769592285156;86.53221893310547
157;1673305625.5594752;47.1306425;7.2406203;39.316001892089844;1673305625.6175947;-6.417780876159668;4.816287517547607;86.71186065673828
158;1673305625.7453153;47.1306425;7.2406204;39.71600341796875;1673305625.8080118;-6.2752509117126465;8.106461524963379;86.21837615966797
159;1673305625.9374478;47.1306424;7.2406204;40.121002197265625;1673305625.9975696;-6.10532808303833;8.92132568359375;86.174560546875
160;1673305626.1192822;47.1306424;7.2406204;40.5260009765625;1673305626.1850393;-6.111423492431641;5.019330024719238;86.78230285644531
161;1673305626.3604357;47.1306425;7.2406204;40.92500305175781;1673305626.4156466;-6.293808460235596;7.873068332672119;86.62323760986328
162;1673305626.542286;47.1306425;7.2406203;41.31500244140625;1673305626.6073155;-5.980160713195801;9.375672340393066;86.31831359863281
163;1673305626.735754;47.1306425;7.2406203;41.70900344848633;1673305626.8480897;-6.152910232543945;5.311100006103516;86.65580749511719
164;1673305626.9409223;47.1306425;7.2406203;42.10900115966797;1673305627.0049884;-6.52618408203125;6.795286655426025;86.54393768310547
165;1673305627.1344163;47.1306424;7.2406203;42.51000213623047;1673305627.2230785;-6.223879814147949;9.631814956665039;86.20491027832031
166;1673305627.318582;47.1306424;7.2406203;42.91400146484375;1673305627.3762405;-6.345839023590088;5.5622878074646;86.62886810302734
167;1673305627.480234;47.1306424;7.2406203;43.316001892089844;1673305627.5407672;-6.312157154083252;5.568662166595459;86.65043640136719
168;1673305627.6616304;47.1306424;7.2406203;43.711002349853516;1673305627.8071346;-6.262958526611328;9.576870918273926;86.09259033203125
169;1673305627.9469569;47.1306425;7.2406203;44.112003326416016;1673305628.0174;-6.0250678062438965;7.514051914215088;86.38066101074219
170;1673305628.1309793;47.1306425;7.2406203;44.509002685546875;1673305628.1978781;-6.188115119934082;4.8486223220825195;86.80384826660156
171;1673305628.31905;47.1306424;7.2406203;44.90500259399414;1673305628.39043;-6.281672477722168;8.512893676757812;86.48057556152344
172;1673305628.5071995;47.1306424;7.2406203;45.307003021240234;1673305628.6250486;-6.153465747833252;8.715775489807129;86.42437744140625
173;1673305628.738606;47.1306424;7.2406203;45.7140007019043;1673305628.805994;-6.51145076751709;4.341567516326904;86.71642303466797
174;1673305628.939499;47.1306425;7.2406201999999995;46.12200164794922;1673305629.018145;-6.492022514343262;7.88665771484375;86.29022979736328
175;1673305629.1773498;47.1306425;7.2406201999999995;46.518001556396484;1673305629.2293086;-6.224384307861328;9.792365074157715;86.04535675048828
176;1673305629.3554943;47.1306425;7.2406201999999995;46.915000915527344;1673305629.446821;-6.112793922424316;5.134177207946777;86.7269287109375
177;1673305629.5736814;47.1306425;7.2406201999999995;47.31300354003906;1673305629.622515;-6.236862659454346;6.3835906982421875;86.71849822998047
178;1673305629.7671564;47.1306424;7.2406201999999995;47.715003967285156;1673305629.8641646;-6.048570156097412;9.79812240600586;86.35420989990234
179;1673305629.9702976;47.1306425;7.2406201999999995;48.11000061035156;1673305630.0264678;-6.593535423278809;6.293385982513428;86.7774887084961
180;1673305630.1512113;47.130642599999995;7.2406201;48.45500183105469;1673305630.2132711;-6.861310005187988;7.389718055725098;86.7257080078125
181;1673305630.3479726;47.130642599999995;7.24062;48.74100112915039;1673305630.413654;-6.423923015594482;9.786986351013184;86.26760864257812
182;1673305630.5257764;47.130642699999996;7.2406198999999996;48.98800277709961;1673305630.5954328;-6.564377784729004;6.066685199737549;86.686279296875
183;1673305630.7236595;47.130642699999996;7.240619799999999;49.195003509521484;1673305630.78494;-6.847934246063232;6.11782169342041;86.67683410644531
184;1673305630.9308348;47.130642699999996;7.2406196;49.3650016784668;1673305630.9977763;6.450982570648193;9.95067310333252;84.77981567382812
185;1673305631.125422;47.1306428;7.240618899999999;49.4900016784668;1673305631.1884718;-2.8270368576049805;11.184136390686035;74.82328033447266
186;1673305631.3622236;47.1306428;7.240617899999999;49.54600143432617;1673305631.4350872;-10.702418327331543;15.722167015075684;62.98716735839844
187;1673305631.569826;47.1306428;7.2406171;49.553001403808594;1673305631.628088;14.263558387756348;14.291218757629395;54.9733772277832
188;1673305631.754064;47.1306424;7.2406160999999996;49.560001373291016;1673305631.8422103;6.837893486022949;8.242711067199707;43.590728759765625
189;1673305631.984958;47.130641499999996;7.2406147;49.59300231933594;1673305632.0373607;2.145596742630005;9.032249450683594;35.00889587402344
190;1673305632.178113;47.1306405;7.240613499999999;49.63500213623047;1673305632.2717142;8.575122833251953;9.035562515258789;26.466825485229492
191;1673305632.36508;47.1306395;7.2406123;49.67500305175781;1673305632.425446;5.792788982391357;11.512441635131836;17.608919143676758
192;1673305632.5519917;47.1306386;7.2406112;49.708003997802734;1673305632.6161683;4.703416347503662;11.493435859680176;9.689423561096191
193;1673305632.7650473;47.1306377;7.2406101;49.7400016784668;1673305632.8611329;3.8971409797668457;8.078877449035645;1.8401808738708496
194;1673305632.9645545;47.130637;7.2406092;49.76100158691406;1673305633.0284224;4.656193733215332;6.811237812042236;-7.286587238311768
195;1673305633.131804;47.1306365;7.2406086;49.77800369262695;1673305633.2421458;7.723236083984375;3.6496191024780273;-16.314058303833008
196;1673305633.346087;47.1306363;7.240608;49.79500198364258;1673305633.4163187;10.25564956665039;4.49416971206665;-24.866207122802734
197;1673305633.5300713;47.1306362;7.240607499999999;49.81700134277344;1673305633.6001306;10.148751258850098;4.826688766479492;-33.9241943359375
198;1673305633.728943;47.1306362;7.2406071;49.83500289916992;1673305633.8190734;8.974466323852539;3.7565324306488037;-43.38380813598633
199;1673305634.0282664;47.1306362;7.2406067;49.85200119018555;1673305634.090781;8.298271179199219;-0.5185569524765015;-51.56654739379883
200;1673305634.17713;47.1306361;7.2406064;49.867000579833984;1673305634.2397685;9.27816104888916;-4.170975208282471;-53.18304443359375
201;1673305634.3562813;47.130635999999996;7.2406061;49.87300109863281;1673305634.43493;10.779526710510254;-2.6562201976776123;-50.45588684082031
202;1673305634.5665495;47.130635999999996;7.2406058;49.880001068115234;1673305634.6271458;12.198466300964355;-0.7246164083480835;-47.3052864074707
203;1673305634.741067;47.130635899999994;7.2406055;49.887001037597656;1673305634.8283858;11.131404876708984;2.255371332168579;-46.159767150878906
204;1673305634.980592;47.1306358;7.2406051;49.89400100708008;1673305635.0617826;9.425538063049316;2.3669214248657227;-46.51890563964844
205;1673305635.1783483;47.1306356;7.240604899999999;49.900001525878906;1673305635.2588558;8.79232406616211;1.592828631401062;-46.640960693359375
206;1673305635.372699;47.1306355;7.2406048;49.90200424194336;1673305635.4332078;9.236099243164062;-1.0152355432510376;-46.40006637573242
207;1673305635.548196;47.130635299999994;7.2406048;49.89800262451172;1673305635.618039;11.370593070983887;-0.3373320996761322;-45.73137664794922
208;1673305635.750828;47.130635299999994;7.240604899999999;49.90200424194336;1673305635.816912;12.376847267150879;-0.265526682138443;-45.43178939819336
209;1673305635.9357977;47.130635399999996;7.2406048;49.90700149536133;1673305636.0046709;10.599944114685059;3.462029218673706;-45.190250396728516
210;1673305636.1362705;47.130635399999996;7.2406048;49.91200256347656;1673305636.2189214;-12.53128719329834;3.0917766094207764;-46.61510467529297
211;1673305636.3411126;47.130635899999994;7.2406041;49.913002014160156;1673305636.4219835;-43.64485168457031;2.088027238845825;-48.00453186035156
212;1673305636.5585136;47.130637799999995;7.2406014;49.868003845214844;1673305636.6225317;-42.9810676574707;-0.6080496311187744;-48.127830505371094
213;1673305636.7274013;47.1306416;7.2405957;49.80000305175781;1673305636.793849;-37.26166915893555;-3.847360849380493;-46.35670471191406
214;1673305636.9112659;47.1306471;7.240587199999999;49.733001708984375;1673305636.9800825;-34.45216751098633;-4.775381088256836;-45.49563980102539
215;1673305637.1199007;47.130653699999996;7.2405763;49.68300247192383;1673305637.194142;-35.02322006225586;-2.739731788635254;-45.90351104736328
216;1673305637.3251503;47.1306613;7.240563099999999;49.65900421142578;1673305637.401899;-39.84556579589844;-0.5924067497253418;-46.20688247680664
217;1673305637.5559926;47.1306699;7.2405478;49.6660041809082;1673305637.6211114;-46.144561767578125;-0.7809635996818542;-45.62222671508789
218;1673305637.7651362;47.130679699999995;7.2405304;49.7030029296875;1673305637.8334382;-52.11311721801758;0.1914772391319275;-46.00883102416992
219;1673305637.9579232;47.1306912;7.2405104;49.76700210571289;1673305638.0190217;-58.458213806152344;2.509791135787964;-46.87183380126953
220;1673305638.141266;47.1307048;7.2404877999999995;49.832000732421875;1673305638.2099547;-59.67314529418945;3.2898623943328857;-47.198184967041016
221;1673305638.3659768;47.1307203;7.2404625;49.88200378417969;1673305638.4364538;-57.404232025146484;2.6443839073181152;-46.81079864501953
222;1673305638.5406044;47.1307373;7.2404351;49.910003662109375;1673305638.6338696;-55.87669372558594;2.8682870864868164;-46.714927673339844
223;1673305638.764206;47.1307555;7.2404062;49.923004150390625;1673305638.832972;-54.152652740478516;2.377063035964966;-46.41608810424805
224;1673305638.9628987;47.1307748;7.2403762;49.90800094604492;1673305639.028918;-52.94008255004883;0.9346123933792114;-46.07705307006836
225;1673305639.1549964;47.130794699999996;7.2403452999999995;49.88200378417969;1673305639.229237;-48.501548767089844;1.5842669010162354;-45.42475509643555
226;1673305639.401111;47.130815;7.240313899999999;49.8640022277832;1673305639.4572961;-47.41314697265625;0.8243158459663391;-45.21443557739258
227;1673305639.563552;47.130835499999996;7.2402824;49.85200119018555;1673305639.6466103;-48.27131652832031;1.6814661026000977;-45.64521026611328
228;1673305639.7700677;47.1308563;7.2402507;49.858001708984375;1673305639.8782258;-27.454450607299805;2.046536684036255;-45.85728454589844
229;1673305639.973866;47.130876699999995;7.2402197;49.87200164794922;1673305640.0364566;18.826265335083008;3.3588638305664062;-44.599029541015625
230;1673305640.1789477;47.1308953;7.2401918;49.81300354003906;1673305640.2385478;28.357742309570312;1.9964044094085693;-44.921417236328125
231;1673305640.4125931;47.1309117;7.2401672999999995;49.579002380371094;1673305640.4793372;17.715024948120117;-0.239616259932518;-45.65156555175781
232;1673305640.6046062;47.1309252;7.2401469;49.35100173950195;1673305640.6577532;15.426152229309082;-0.038155585527420044;-46.49378967285156
233;1673305640.7688484;47.130936;7.240130499999999;49.237003326416016;1673305640.8285701;24.10651969909668;-0.2926406264305115;-46.69191360473633
234;1673305640.9695747;47.1309445;7.240118;49.32200241088867;1673305641.0364342;54.34882354736328;-0.4551326632499695;-47.421363830566406
235;1673305641.1468282;47.130949699999995;7.2401105999999995;49.44700241088867;1673305641.219817;55.8188591003418;-1.0705740451812744;-47.28178787231445
236;1673305641.3825903;47.1309513;7.2401086999999995;49.608001708984375;1673305641.4486938;59.728363037109375;-0.43348589539527893;-46.70354080200195
237;1673305641.5495925;47.13095;7.2401113;49.733001708984375;1673305641.6497588;57.275840759277344;-0.5171182155609131;-46.118228912353516
238;1673305641.767595;47.130945999999994;7.240117799999999;49.82600402832031;1673305641.840405;51.92087936401367;-0.4998374283313751;-46.28124237060547
239;1673305641.9843302;47.130939999999995;7.2401271;49.88300323486328;1673305642.0665789;42.833126068115234;-0.4124603271484375;-45.98250198364258
240;1673305642.1691642;47.130933;7.2401376;49.90800094604492;1673305642.2675724;28.398950576782227;0.2599141597747803;-46.11231994628906
241;1673305642.383654;47.1309255;7.2401485;49.89800262451172;1673305642.4591665;11.51207160949707;0.5742253661155701;-46.49341583251953
242;1673305642.5799499;47.1309186;7.240158699999999;49.87600326538086;1673305642.6385176;-1.9488836526870728;1.4639688730239868;-46.4095458984375
243;1673305642.7660856;47.130912599999995;7.2401674;49.84800338745117;1673305642.8509376;-11.446635246276855;-1.9502999782562256;-47.215572357177734
244;1673305642.9710405;47.1309082;7.240174;49.80800247192383;1673305643.0350666;-2.956418514251709;-1.4843729734420776;-46.33852767944336
245;1673305643.1664627;47.130904799999996;7.2401788;49.7920036315918;1673305643.2713747;-1.5894229412078857;1.44325852394104;-45.539337158203125
246;1673305643.4191926;47.1309025;7.2401822;49.80400085449219;1673305643.4724984;-0.8735657930374146;2.94828724861145;-45.42165756225586
247;1673305643.5766842;47.1309008;7.2401846;49.82500076293945;1673305643.6662023;-0.3909148573875427;1.5938645601272583;-45.913414001464844
248;1673305643.7960343;47.1308997;7.240186;49.849002838134766;1673305643.8584945;17.637086868286133;1.3098082542419434;-46.13016128540039
249;1673305644.0049617;47.1308988;7.2401873;49.87900161743164;1673305644.0597558;20.09718132019043;13.820422172546387;-45.05000305175781
250;1673305644.1705906;47.130898099999996;7.2401884999999995;49.70000076293945;1673305644.2766995;12.129098892211914;41.92414093017578;-46.10072326660156
251;1673305644.3884015;47.130897399999995;7.2401895;49.163002014160156;1673305644.4776802;1.7285919189453125;65.73204803466797;-54.78303527832031
252;1673305644.5922937;47.1308967;7.2401903999999995;48.25700378417969;1673305644.6518478;-5.999978542327881;82.6125259399414;-70.82007598876953
253;1673305644.7579298;47.130896;7.240190999999999;46.96600341796875;1673305644.8258927;-9.8514404296875;88.9874038696289;-91.92860412597656
254;1673305644.947529;47.1308953;7.240191599999999;45.316001892089844;1673305645.0212886;-13.962807655334473;81.25662231445312;-114.13064575195312
255;1673305645.1329308;47.1308945;7.2401921;43.319000244140625;1673305645.22164;-22.05482292175293;57.14553451538086;-132.5909423828125
256;1673305645.3463128;47.1308936;7.2401928;40.95800018310547;1673305645.4166203;-31.336933135986328;17.538118362426758;-140.71217346191406
257;1673305645.5463934;47.1308928;7.2401938999999995;38.2140007019043;1673305645.6090076;-30.799169540405273;-27.292428970336914;-139.11761474609375
258;1673305645.730726;47.1308922;7.240195;35.092002868652344;1673305645.8086586;-18.43242645263672;-50.26224136352539;-147.54652404785156
259;1673305645.9225612;47.130891899999995;7.2401957999999995;31.599000930786133;1673305645.9904666;-0.47160255908966064;-45.218326568603516;-166.30108642578125
260;1673305646.1192882;47.130891899999995;7.2401962;27.751001358032227;1673305646.1906614;24.191272735595703;-17.204675674438477;179.48240661621094
261;1673305646.3136508;47.1308918;7.2401962;23.52800178527832;1673305646.3851042;40.928043365478516;27.4927921295166;-178.98391723632812
262;1673305646.5028253;47.130891299999995;7.2401962;18.93800163269043;1673305646.578345;37.500308990478516;52.34157180786133;174.78421020507812
263;1673305646.7146738;47.130890799999996;7.240196699999999;14.01300048828125;1673305646.7884586;18.449783325195312;40.95181655883789;151.27638244628906
264;1673305646.9218135;47.1308903;7.2401976999999995;8.746000289916992;1673305646.9880047;-14.314090728759766;8.906109809875488;136.93165588378906
265;1673305647.1284978;47.130890099999995;7.240198899999999;3.0930001735687256;1673305647.2009723;-31.853500366210938;-30.292089462280273;138.619873046875
266;1673305647.341713;47.1308936;7.2402128;-0.13199999928474426;1673305647.412952;-12.258268356323242;-18.643898010253906;128.70074462890625
267;1673305647.5501783;47.130900499999996;7.2402472;-0.9380000233650208;1673305647.6131988;-14.868782997131348;-25.95147132873535;122.87840270996094
268;1673305647.741728;47.1309079;7.240282799999999;-1.7640000581741333;1673305647.8128192;-15.27563190460205;-21.126955032348633;122.56057739257812
269;1673305647.9366293;47.130916199999994;7.2403214;-2.580000162124634;1673305648.01044;-15.321024894714355;-21.58131217956543;122.45343780517578
270;1673305648.1339607;47.1309253;7.240361999999999;-3.390000104904175;1673305648.2009742;-15.28700065612793;-21.036022186279297;122.34156036376953
271;1673305648.3519342;47.1309349;7.2404031;-4.130000114440918;1673305648.429602;-15.21202278137207;-20.610881805419922;122.31700134277344
272;1673305648.592992;47.130945399999995;7.240447;-4.886000156402588;1673305648.660027;-15.061664581298828;-20.22336769104004;122.18817138671875
273;1673305648.768069;47.1309562;7.240490899999999;-5.3520002365112305;1673305648.835225;-14.954936027526855;-19.789995193481445;122.01351165771484
274;1673305648.9812164;47.1309675;7.2405357;-0.8650000691413879;1673305649.0480652;-14.873246192932129;-19.571489334106445;121.91283416748047
275;1673305649.1602144;47.1309797;7.240583399999999;-0.4140000343322754;1673305649.228;-14.856840133666992;-19.540828704833984;121.88162994384766
276;1673305649.351167;47.1309928;7.2406337;-0.1990000158548355;1673305649.4162104;-14.809053421020508;-19.554096221923828;121.84992980957031
277;1673305649.5480654;47.1310066;7.2406863999999995;-0.11300000548362732;1673305649.629896;-14.805224418640137;-19.540451049804688;121.8468246459961
278;1673305649.7489471;47.1310212;7.2407411999999995;-0.09100000560283661;1673305649.8783607;-14.786675453186035;-19.595367431640625;121.8041763305664
279;1673305649.9880455;47.131036599999995;7.2407981999999995;-0.13600000739097595;1673305650.0551875;-14.751102447509766;-19.685726165771484;121.7814712524414
280;1673305650.1757884;47.1310526;7.2408570999999995;-0.16700001060962677;1673305650.2350917;-14.735748291015625;-19.76594352722168;121.79057312011719
281;1673305650.3731878;47.1310693;7.240918;-0.1730000078678131;1673305650.438028;-14.722820281982422;-19.901046752929688;121.79939270019531
282;1673305650.554294;47.1310867;7.240980899999999;-0.1810000091791153;1673305650.6129072;-14.682650566101074;-20.0516357421875;121.82380676269531
283;1673305650.7170603;47.1311055;7.2410483999999995;-0.19600000977516174;1673305650.7810326;-14.609725952148438;-20.160709381103516;121.8360366821289
284;1673305650.890061;47.1311244;7.241115199999999;-0.2070000171661377;1673305650.96372;-14.569306373596191;-20.335851669311523;121.86123657226562
285;1673305651.0801163;47.131143099999996;7.2411813;-0.2630000114440918;1673305651.1510167;-14.54213809967041;-20.4781551361084;121.87608337402344
286;1673305651.2670171;47.131163199999996;7.241251999999999;-0.28300002217292786;1673305651.3399389;-14.508820533752441;-20.62006378173828;121.92205047607422
287;1673305651.501888;47.131184;7.2413246;-0.2840000092983246;1673305651.5973804;-14.501755714416504;-20.76690673828125;121.98516082763672
288;1673305651.7437365;47.1312055;7.2413992;-0.2750000059604645;1673305651.8731687;-14.470686912536621;-20.850767135620117;122.0594482421875
289;1673305651.9980807;47.131227599999995;7.2414757;-0.27000001072883606;1673305652.049846;-14.423494338989258;-21.164775848388672;122.16263580322266
290;1673305652.15873;47.1312504;7.2415541999999995;-0.2710000276565552;1673305652.2449312;-14.375144958496094;-21.365352630615234;122.2696533203125
291;1673305652.3645215;47.131273799999995;7.2416347;-0.2630000114440918;1673305652.4320996;-14.352254867553711;-21.509624481201172;122.38094329833984
292;1673305652.5539072;47.131298;7.2417172;-0.30800002813339233;1673305652.6200087;-14.363655090332031;-21.561412811279297;122.48949432373047
293;1673305654.6356275;47.1309034;7.2402337;-0.2670000195503235;1673305652.8211157;-14.275533676147461;-21.562339782714844;122.56624603271484
294;1673305654.8118987;47.1308967;7.2402166999999995;-0.17400000989437103;1673305653.008992;-14.214073181152344;-21.57331657409668;122.65824890136719
295;;;;;1673305653.223233;-14.209627151489258;-21.60791778564453;122.74829864501953
296;;;;;1673305653.4775221;-14.094527244567871;-21.597023010253906;122.82400512695312
297;;;;;1673305653.6692684;-14.068066596984863;-21.584983825683594;122.93083190917969
298;;;;;1673305653.8820767;-14.018567085266113;-21.565885543823242;123.00074768066406
299;;;;;1673305654.0642686;-14.022391319274902;-21.4746036529541;123.10440063476562
300;;;;;1673305654.2438202;-13.979018211364746;-21.39689826965332;123.2024917602539
301;;;;;1673305654.5171025;-13.942717552185059;-21.34421730041504;123.33771514892578
302;;;;;1673305654.6729023;-13.918190002441406;-21.302101135253906;123.5499038696289
