;pos_time;latitude;longitude;altitude;alt_time;pitch;roll;yaw
0;1673366197.7773085;47.1306425;7.2406201999999995;-0.007000000216066837;1673366197.9175644;-0.10668235272169113;-0.10835900157690048;90.06877136230469
1;1673366197.989338;47.1306425;7.2406201999999995;-0.009000000543892384;1673366198.137135;-0.03985036537051201;-0.08504333347082138;90.21844482421875
2;1673366198.202096;47.1306425;7.2406201999999995;-0.012000000104308128;1673366198.3208525;0.06051066890358925;-0.032904256135225296;90.07402038574219
3;1673366198.3887496;47.1306425;7.2406203;-0.013000000268220901;1673366198.5463586;0.13654614984989166;0.0049492665566504;89.92456817626953
4;1673366198.6153088;47.1306425;7.2406203;-0.015000000596046448;1673366198.726352;-0.13244491815567017;-0.06805911660194397;90.1669921875
5;1673366198.8100243;47.1306425;7.2406203;-0.014000000432133675;1673366198.9373631;0.1866879165172577;-0.08844014257192612;90.18524932861328
6;1673366199.0171137;47.1306425;7.2406203;-0.013000000268220901;1673366199.139672;0.15769840776920319;-0.09348493069410324;90.2357177734375
7;1673366199.2195628;47.1306424;7.2406201999999995;-0.014000000432133675;1673366199.4003253;0.06483692675828934;-0.17043326795101166;90.15434265136719
8;1673366199.4699013;47.1306424;7.2406201999999995;-0.015000000596046448;1673366199.6069307;-0.13670922815799713;-0.12990760803222656;90.0770034790039
9;1673366199.663667;47.1306424;7.2406201999999995;-0.01600000075995922;1673366199.7758508;-0.05248421058058739;-0.10472344607114792;90.0107421875
10;1673366199.8348286;47.1306424;7.2406201999999995;-0.01100000087171793;1673366199.953393;-0.0415559858083725;-0.2084064483642578;89.94947814941406
11;1673366200.0384204;47.1306424;7.2406201999999995;-0.006000000052154064;1673366200.152131;-0.030336983501911163;-0.1491219848394394;90.0464096069336
12;1673366200.222049;47.1306424;7.2406201999999995;-0.0020000000949949026;1673366200.3741446;0.23858244717121124;-0.10927540808916092;90.10205078125
13;1673366200.4356568;47.1306424;7.2406203;0.0;1673366200.564203;-0.008824843913316727;-0.4611404240131378;90.13536071777344
14;1673366200.6323204;47.1306424;7.2406203;0.0010000000474974513;1673366200.79504;0.31515994668006897;-1.2772996425628662;90.04637145996094
15;1673366200.8565273;47.1306424;7.2406203;0.0;1673366200.9880025;0.08138217777013779;-0.9013966917991638;90.12128448486328
16;1673366201.0534205;47.1306424;7.2406203;0.0;1673366201.1723273;-0.12259787321090698;-1.0393848419189453;90.0226821899414
17;1673366201.24851;47.1306424;7.2406203;0.0020000000949949026;1673366201.3767383;-0.003069262718781829;-0.9910953044891357;89.95198822021484
18;1673366201.4376302;47.1306424;7.2406201999999995;0.0020000000949949026;1673366201.557522;0.22581849992275238;-0.9454995393753052;89.90054321289062
19;1673366201.630779;47.1306424;7.2406201999999995;0.003000000026077032;1673366201.7555027;0.1795063316822052;-1.051864504814148;89.94400024414062
20;1673366201.822916;47.1306424;7.2406201999999995;0.003000000026077032;1673366201.9476714;0.45246216654777527;-0.7360594272613525;89.8309097290039
21;1673366202.0186665;47.1306424;7.2406201999999995;0.0;1673366202.156531;0.39992257952690125;-0.22953492403030396;89.34522247314453
22;1673366202.222679;47.1306425;7.2406203;-0.005000000353902578;1673366202.354395;0.44356057047843933;-0.3871534764766693;89.5000991821289
23;1673366202.4234757;47.1306425;7.2406203;-0.005000000353902578;1673366202.547638;0.5442745089530945;-0.48424145579338074;89.20597076416016
24;1673366202.6146739;47.1306425;7.2406203;-0.01100000087171793;1673366202.7370756;0.768890380859375;-1.047810435295105;88.54664611816406
25;1673366202.808661;47.130642599999995;7.2406203;-0.02500000037252903;1673366202.945789;0.8977479338645935;-1.1995017528533936;88.09234619140625
26;1673366203.015686;47.1306428;7.2406201;-0.03500000014901161;1673366203.1544697;1.0837219953536987;-1.231676697731018;86.94335174560547
27;1673366203.2159984;47.1306429;7.2406198999999996;-0.03700000047683716;1673366203.3485196;1.36799156665802;-0.9314760565757751;83.94770812988281
28;1673366203.4107013;47.130643199999994;7.2406197;-0.04200000315904617;1673366203.543655;-0.6704838275909424;0.8148019909858704;74.099609375
29;1673366203.6157959;47.1306437;7.2406191;-0.0430000014603138;1673366203.7486684;-0.2208746075630188;-0.5075068473815918;72.80004119873047
30;1673366203.8236318;47.130644499999995;7.2406179999999996;-0.02500000037252903;1673366203.9595509;-1.2709534168243408;0.38689664006233215;75.79436492919922
31;1673366204.0284758;47.1306459;7.240615999999999;-0.04100000113248825;1673366204.1507404;-2.1654837131500244;3.984984874725342;82.32975006103516
32;1673366204.2156668;47.1306477;7.2406131;-0.04100000113248825;1673366204.3575768;-3.978207588195801;5.632753372192383;85.36659240722656
33;1673366204.417592;47.130649999999996;7.240609399999999;-0.026000000536441803;1673366204.5370953;-8.369093894958496;11.86332893371582;85.36299896240234
34;1673366204.612736;47.1306526;7.2406051;-0.006000000052154064;1673366204.7433252;-10.025590896606445;12.036237716674805;85.45631408691406
35;1673366204.8135848;47.130655499999996;7.2406003;0.013000000268220901;1673366204.9578135;-11.55339527130127;13.566165924072266;85.21571350097656
36;1673366205.022867;47.130658499999996;7.2405953;0.03800000250339508;1673366205.1497462;-12.770212173461914;15.733407974243164;84.76091766357422
37;1673366205.22653;47.1306614;7.24059;0.06700000166893005;1673366205.353659;-14.208417892456055;16.456642150878906;84.63139343261719
38;1673366205.4149625;47.1306643;7.2405848;0.0950000062584877;1673366205.5410595;-15.918472290039062;17.318328857421875;84.52919006347656
39;1673366205.6036794;47.130666999999995;7.2405797;0.11800000816583633;1673366205.7303338;-17.387348175048828;19.07430076599121;84.37935638427734
40;1673366205.800176;47.1306696;7.2405748999999995;0.1420000046491623;1673366205.9289906;-19.04265594482422;20.181629180908203;84.4063491821289
41;1673366205.9917393;47.1306721;7.2405705;0.15800000727176666;1673366206.1181982;-20.73485565185547;21.348134994506836;84.51983642578125
42;1673366206.187245;47.130674299999995;7.240566599999999;0.18000000715255737;1673366206.31488;-22.452245712280273;22.84665298461914;84.59754943847656
43;1673366206.381798;47.130676099999995;7.2405633;0.20100000500679016;1673366206.5111709;-24.267311096191406;23.9002742767334;84.85549926757812
44;1673366206.5810208;47.1306775;7.240560599999999;0.2120000123977661;1673366206.7207012;-26.23303985595703;25.35883903503418;85.12064361572266
45;1673366206.787098;47.130678599999996;7.240558699999999;0.21900001168251038;1673366206.9205527;-28.143762588500977;26.406166076660156;85.49467468261719
46;1673366206.983542;47.130679199999996;7.2405576;0.23000000417232513;1673366207.1140924;-30.247655868530273;27.48550033569336;85.99958801269531
47;1673366207.176217;47.1306793;7.240557399999999;0.24800001084804535;1673366207.315654;-32.38560485839844;28.675153732299805;86.56982421875
48;1673366207.3909638;47.1306789;7.2405583;0.26200002431869507;1673366207.5384374;-34.53459167480469;29.74357032775879;87.24363708496094
49;1673366207.602862;47.1306778;7.2405602;0.27300000190734863;1673366207.731989;-37.01165771484375;30.50752067565918;88.05536651611328
50;1673366207.8018546;47.130676099999995;7.2405631999999995;0.28600001335144043;1673366207.963673;-39.54938888549805;31.148977279663086;89.03704071044922
51;1673366208.0271664;47.130673599999994;7.2405674;0.2980000078678131;1673366208.164835;-40.71406555175781;30.428478240966797;90.65855407714844
52;1673366208.2367842;47.1306704;7.2405728;0.3050000071525574;1673366208.378527;-37.027503967285156;26.868549346923828;92.78366088867188
53;1673366208.477338;47.1306667;7.2405792;0.30400002002716064;1673366208.5855114;-32.599266052246094;23.13288688659668;94.38772583007812
54;1673366208.644778;47.130662699999995;7.240585899999999;0.2970000207424164;1673366208.776156;-27.40868377685547;19.74472427368164;95.3565902709961
55;1673366208.874382;47.1306588;7.240592599999999;0.2880000174045563;1673366208.9921868;-22.06022834777832;16.43505096435547;96.27371215820312
56;1673366209.0562124;47.1306551;7.240598899999999;0.31300002336502075;1673366209.180928;-18.478599548339844;14.288777351379395;96.16680908203125
57;1673366209.2431147;47.130651799999995;7.240604299999999;0.34800001978874207;1673366209.396133;-15.054835319519043;12.20733642578125;95.8925552368164
58;1673366209.4677217;47.1306492;7.240608699999999;0.37400001287460327;1673366209.603099;-14.064213752746582;12.903315544128418;94.96684265136719
59;1673366209.6889396;47.1306473;7.240611899999999;0.39400002360343933;1673366209.8102415;-14.325324058532715;13.627121925354004;94.1942367553711
60;1673366209.8693419;47.130646;7.2406139;0.4240000247955322;1673366210.0153487;-15.490598678588867;12.196025848388672;94.50615692138672
61;1673366210.0646987;47.1306453;7.240615;0.4700000286102295;1673366210.2288105;-17.380352020263672;14.478019714355469;94.08012390136719
62;1673366210.3006012;47.1306449;7.2406155;0.5300000309944153;1673366210.4086034;-18.642492294311523;18.179227828979492;93.16911315917969
63;1673366210.4892457;47.1306449;7.2406155;0.5980000495910645;1673366210.6096542;-20.829694747924805;16.55663299560547;93.65257263183594
64;1673366210.670776;47.1306448;7.240615399999999;0.6710000038146973;1673366210.776742;-22.59618377685547;16.34617042541504;93.77301788330078
65;1673366210.8416972;47.1306448;7.2406152;0.7540000081062317;1673366210.9574642;-22.991302490234375;20.32956314086914;92.68238830566406
66;1673366211.0238764;47.1306448;7.2406152;0.843000054359436;1673366211.1507432;-23.322338104248047;18.478662490844727;93.21036529541016
67;1673366211.2153924;47.1306448;7.2406153;0.9480000734329224;1673366211.3707473;-23.55007553100586;17.08929443359375;93.7886962890625
68;1673366211.4293172;47.1306447;7.2406155;1.071000099182129;1673366211.5682209;-23.038721084594727;20.4848575592041;92.85877990722656
69;1673366211.6336324;47.1306447;7.2406159;1.2020000219345093;1673366211.7717097;-21.97819709777832;19.102825164794922;93.29553985595703
70;1673366211.8361874;47.130644499999995;7.2406163999999995;1.340000033378601;1673366211.953612;-22.685035705566406;16.09027099609375;94.1307601928711
71;1673366212.0161593;47.1306443;7.2406169;1.4890000820159912;1673366212.1611438;-21.65892219543457;18.732492446899414;93.53303527832031
72;1673366212.2238517;47.1306442;7.2406175;1.6470000743865967;1673366212.351802;-20.65028953552246;18.867000579833984;92.4072265625
73;1673366212.4162357;47.130644;7.2406179999999996;1.8160001039505005;1673366212.541782;-20.859800338745117;15.95467758178711;93.27884674072266
74;1673366212.615055;47.1306438;7.2406184;1.999000072479248;1673366212.7341115;-20.750150680541992;17.71489715576172;92.79234313964844
75;1673366212.8034713;47.1306438;7.2406188;2.183000087738037;1673366212.9377472;-19.71134376525879;19.21311378479004;92.2419662475586
76;1673366213.0072067;47.1306437;7.240619;2.364000082015991;1673366213.1323037;-20.64978790283203;15.659825325012207;92.93842315673828
77;1673366213.197251;47.1306436;7.2406191;2.5470001697540283;1673366213.3287683;-20.8186092376709;17.679824829101562;92.11771392822266
78;1673366213.3939352;47.1306435;7.240619199999999;2.7280001640319824;1673366213.5323277;-20.94070053100586;19.66478157043457;91.35645294189453
79;1673366213.6095068;47.1306435;7.240619199999999;2.9130001068115234;1673366213.7363203;-21.284725189208984;17.15729331970215;92.20350646972656
80;1673366213.8027186;47.1306435;7.2406193;3.1020002365112305;1673366213.9321759;-21.788969039916992;18.308998107910156;92.08261108398438
81;1673366213.9863935;47.1306435;7.2406194;3.2940001487731934;1673366214.0933158;-20.964000701904297;20.74180030822754;91.51779174804688
82;1673366214.156314;47.1306435;7.2406196;3.4830002784729004;1673366214.2887328;-21.2449951171875;17.728734970092773;92.25575256347656
83;1673366214.3576677;47.1306434;7.2406197;3.6750001907348633;1673366214.4977381;-21.696697235107422;17.45624351501465;92.21522521972656
84;1673366214.56669;47.1306431;7.240619799999999;3.864000082015991;1673366214.6922963;-21.003652572631836;19.889123916625977;91.44249725341797
85;1673366214.7631588;47.130643;7.2406198999999996;4.056000232696533;1673366214.8945777;-20.94269371032715;17.508197784423828;92.03400421142578
86;1673366214.9781494;47.1306429;7.24062;4.246000289916992;1673366215.0977976;-21.23519515991211;16.430171966552734;92.51847839355469
87;1673366215.1599011;47.130642699999996;7.2406201;4.438000202178955;1673366215.2765834;-20.636913299560547;19.93618392944336;91.51244354248047
88;1673366215.346857;47.130642699999996;7.2406201999999995;4.627000331878662;1673366215.4944155;-20.647748947143555;17.74924087524414;91.80624389648438
89;1673366215.5574703;47.1306425;7.2406201999999995;4.820000171661377;1673366215.6885383;-21.211267471313477;15.834243774414062;92.37149047851562
90;1673366215.7666907;47.1306423;7.2406201999999995;5.010000228881836;1673366215.9039624;-21.049694061279297;19.16436004638672;91.62055206298828
91;1673366215.963075;47.1306423;7.2406201999999995;5.201000213623047;1673366216.0954285;-20.573440551757812;18.133270263671875;91.78897094726562
92;1673366216.1555188;47.1306423;7.2406201999999995;5.394000053405762;1673366216.2877946;-21.553922653198242;16.12323570251465;92.31553649902344
93;1673366216.3483188;47.1306423;7.2406203;5.587000370025635;1673366216.476369;-21.088356018066406;18.65613555908203;91.76261901855469
94;1673366216.5531242;47.1306424;7.2406203;5.784000396728516;1673366216.6859765;-20.67612075805664;19.735891342163086;91.51905059814453
95;1673366216.7504103;47.1306424;7.2406203;5.979000091552734;1673366216.8837206;-21.42990493774414;16.386140823364258;92.32261657714844
96;1673366216.944236;47.1306424;7.2406204;6.174000263214111;1673366217.1014693;-21.40618133544922;16.665420532226562;92.4279556274414
97;1673366217.1586182;47.1306423;7.2406204;6.371000289916992;1673366217.2792823;-20.81684112548828;19.918537139892578;91.4260482788086
98;1673366217.343691;47.1306424;7.2406204999999995;6.564000129699707;1673366217.4668849;-20.902036666870117;16.5843448638916;92.2933120727539
99;1673366217.5371258;47.1306424;7.2406207;6.759000301361084;1673366217.6648695;-21.19942855834961;17.3544979095459;92.26251983642578
100;1673366217.7302217;47.1306424;7.2406207;6.953000545501709;1673366217.8586512;-20.351285934448242;20.186912536621094;91.4767074584961
101;1673366217.9279451;47.1306424;7.240620799999999;7.151000499725342;1673366218.0559733;-20.8529052734375;16.764694213867188;92.41179656982422
102;1673366218.123317;47.1306423;7.240620799999999;7.350000381469727;1673366218.2497606;-21.229808807373047;16.94745445251465;92.26679229736328
103;1673366218.3176394;47.1306423;7.240620799999999;7.550000190734863;1673366218.4455972;-20.65250015258789;19.67653465270996;91.3226089477539
104;1673366218.5149262;47.1306423;7.240620799999999;7.750000476837158;1673366218.645282;-20.636310577392578;16.899030685424805;92.13389587402344
105;1673366218.7146952;47.1306423;7.2406209;7.950000286102295;1673366218.8465312;-21.273611068725586;16.82301139831543;92.38507080078125
106;1673366218.9251459;47.1306423;7.2406209;8.148000717163086;1673366219.0902379;-20.63788414001465;20.076400756835938;91.482666015625
107;1673366219.1893523;47.1306424;7.2406209;8.350000381469727;1673366219.3187582;-20.706857681274414;17.70707893371582;91.94953155517578
108;1673366219.385665;47.1306425;7.2406209;8.557000160217285;1673366219.5160215;-21.227201461791992;16.54355812072754;92.24727630615234
109;1673366219.5848985;47.1306424;7.2406209;8.76400089263916;1673366219.7177358;-20.961957931518555;19.809715270996094;91.34964752197266
110;1673366219.7880414;47.1306425;7.2406209;8.973999977111816;1673366219.9184084;-20.491601943969727;18.225162506103516;91.95232391357422
111;1673366219.9823992;47.130642599999995;7.2406209;9.18600082397461;1673366220.1156716;-21.28135871887207;16.38798713684082;92.52471160888672
112;1673366220.1943045;47.1306425;7.240620799999999;9.396000862121582;1673366220.322723;-20.77823257446289;19.727842330932617;91.50619506835938
113;1673366220.3906224;47.1306425;7.240620799999999;9.600000381469727;1673366220.5161078;-20.600040435791016;18.307971954345703;91.77117156982422
114;1673366220.59863;47.1306425;7.240620799999999;9.807000160217285;1673366220.733907;-21.340932846069336;15.7880220413208;92.48196411132812
115;1673366220.7989807;47.1306424;7.2406207;10.01400089263916;1673366220.925516;-21.02639389038086;18.705305099487305;91.73908233642578
116;1673366220.99437;47.1306425;7.2406207;10.235000610351562;1673366221.1276693;-20.87652587890625;18.079517364501953;91.97907257080078
117;1673366221.2306805;47.1306425;7.2406209;10.535000801086426;1673366221.382151;-25.047306060791016;19.967567443847656;92.23175048828125
118;1673366221.448521;47.1306423;7.240621399999999;10.908000946044922;1673366221.5784616;-22.509794235229492;19.66766929626465;92.05724334716797
119;1673366221.666021;47.1306418;7.2406222;11.294000625610352;1673366221.798382;-19.994050979614258;18.680631637573242;91.51905822753906
120;1673366221.904341;47.130641399999995;7.240622999999999;11.696000099182129;1673366222.0171716;-18.854503631591797;15.486434936523438;92.2638168334961
121;1673366222.0684597;47.130641;7.240623599999999;12.10400104522705;1673366222.1833508;-17.933631896972656;16.16409683227539;91.88706970214844
122;1673366222.2777596;47.130640799999995;7.2406239999999995;12.512001037597656;1673366222.4416149;-17.300819396972656;17.59251594543457;91.50373077392578
123;1673366222.4979558;47.130640899999996;7.2406242;12.927000999450684;1673366222.610098;-17.639938354492188;14.454368591308594;92.42120361328125
124;1673366222.6655514;47.130641;7.2406239999999995;13.350000381469727;1673366222.796421;-18.631473541259766;16.196279525756836;91.97396087646484
125;1673366222.859424;47.1306411;7.2406236999999996;13.772000312805176;1673366222.988012;-18.539674758911133;18.680952072143555;91.3903579711914
126;1673366223.0689106;47.1306413;7.2406232;14.184000968933105;1673366223.1920655;-19.776674270629883;16.079906463623047;92.15531921386719
127;1673366223.255521;47.130641499999996;7.240622699999999;14.60300064086914;1673366223.3698542;-20.688152313232422;16.949312210083008;92.17117309570312
128;1673366223.4332926;47.1306417;7.2406223;15.021000862121582;1673366223.559318;-20.540912628173828;19.92891502380371;91.47301483154297
129;1673366223.6256974;47.130641999999995;7.2406219;15.439001083374023;1673366223.7555954;-20.58616065979004;17.599462509155273;92.12922668457031
130;1673366223.8210177;47.1306422;7.240621699999999;15.85300064086914;1673366223.943553;-21.432050704956055;17.317365646362305;92.20665740966797
131;1673366224.0065696;47.1306423;7.2406215;16.261001586914062;1673366224.1717873;-20.66179084777832;19.75688362121582;91.59208679199219
132;1673366224.2465973;47.1306423;7.2406213;16.661001205444336;1673366224.3819342;-20.695425033569336;17.22272491455078;92.1064453125
133;1673366224.4504097;47.1306423;7.2406213;17.06100082397461;1673366224.5763614;-21.086923599243164;16.51241111755371;92.3885726928711
134;1673366224.6485963;47.1306423;7.2406213;17.464000701904297;1673366224.7873979;-20.321382522583008;19.487258911132812;91.67768859863281
135;1673366224.854971;47.1306423;7.2406213;17.867000579833984;1673366225.0031908;-20.011131286621094;18.0714168548584;91.99658966064453
136;1673366225.0643187;47.1306424;7.240621399999999;18.269001007080078;1673366225.18324;-20.551393508911133;16.28891372680664;92.46611022949219
137;1673366225.2526083;47.1306424;7.240621399999999;18.67300033569336;1673366225.380775;-20.23163414001465;19.05533790588379;91.71620178222656
138;1673366225.4515738;47.1306424;7.240621399999999;19.075000762939453;1673366225.607611;-19.963706970214844;18.334035873413086;91.80713653564453
139;1673366225.6960711;47.1306423;7.240621399999999;19.472000122070312;1673366225.8488386;-20.56891632080078;16.067577362060547;92.37957000732422
140;1673366225.9050117;47.1306423;7.2406213;19.87200164794922;1673366226.0181184;-20.365577697753906;18.742868423461914;91.72166442871094
141;1673366226.0957694;47.1306424;7.2406213;20.2710018157959;1673366226.2343028;-19.842512130737305;19.053176879882812;91.73844146728516
142;1673366226.2944834;47.1306424;7.240621399999999;20.67300033569336;1673366226.4180138;-20.578861236572266;16.234050750732422;92.45354461669922
143;1673366226.4881368;47.1306424;7.240621399999999;21.071001052856445;1673366226.6065924;-20.268156051635742;18.263124465942383;91.81903076171875
144;1673366226.6696773;47.1306424;7.240621399999999;21.47100067138672;1673366226.794413;-20.01735496520996;19.0737247467041;91.57574462890625
145;1673366226.8599937;47.1306424;7.2406213;21.867000579833984;1673366226.9920008;-20.345346450805664;16.107044219970703;92.38094329833984
146;1673366227.0573947;47.1306424;7.2406213;22.266000747680664;1673366227.1964154;-20.59720230102539;17.70960807800293;91.98566436767578
147;1673366227.2579045;47.1306424;7.2406213;22.670001983642578;1673366227.3873594;-19.850387573242188;19.41206932067871;91.47039031982422
148;1673366227.45568;47.1306425;7.2406213;23.077001571655273;1673366227.5853615;-20.234575271606445;16.87184715270996;92.13480377197266
149;1673366227.6605816;47.1306425;7.2406213;23.485000610351562;1673366227.7888327;-20.52832794189453;17.379743576049805;92.1668472290039
150;1673366227.8591688;47.1306425;7.2406213;23.894001007080078;1673366227.9930258;-19.903600692749023;19.49479103088379;91.5946044921875
151;1673366228.054721;47.130642599999995;7.2406213;24.30000114440918;1673366228.1698608;-20.152435302734375;17.30419158935547;92.21757507324219
152;1673366228.250991;47.130642599999995;7.2406213;24.696001052856445;1673366228.3741953;-20.50425148010254;16.916501998901367;92.31581115722656
153;1673366228.4431658;47.130642599999995;7.2406213;25.09800148010254;1673366228.5715616;-20.14604377746582;19.88778305053711;91.56838989257812
154;1673366228.6389406;47.130642699999996;7.2406213;25.501001358032227;1673366228.7737958;-19.813003540039062;18.512950897216797;91.93563079833984
155;1673366228.8472905;47.130642699999996;7.2406213;25.906002044677734;1673366228.9716156;-20.705638885498047;16.70203399658203;92.2957763671875
156;1673366229.0354595;47.130642699999996;7.2406212;26.3070011138916;1673366229.169966;-20.20551109313965;19.208940505981445;91.66629028320312
157;1673366229.2461927;47.130642699999996;7.2406212;26.70600128173828;1673366229.3956347;-20.17755699157715;18.41973876953125;91.84691619873047
158;1673366229.4584744;47.130642599999995;7.240621099999999;27.099000930786133;1673366229.5822165;-20.630109786987305;16.399396896362305;92.37246704101562
159;1673366229.6456568;47.130642599999995;7.240621099999999;27.498001098632812;1673366229.769855;-20.485441207885742;18.697425842285156;91.7643814086914
160;1673366229.838345;47.130642599999995;7.240621;27.897001266479492;1673366229.9821737;-20.055814743041992;18.795713424682617;91.696533203125
161;1673366230.0555806;47.130642599999995;7.240621;28.301000595092773;1673366230.1803327;-20.46450424194336;16.51685905456543;92.29898834228516
162;1673366230.2782745;47.130642599999995;7.240621;28.705001831054688;1673366230.397086;-20.3634033203125;18.561687469482422;91.7897720336914
163;1673366230.466603;47.1306425;7.240621;29.11100196838379;1673366230.5960493;-19.88970184326172;18.928987503051758;91.6321029663086
164;1673366230.6644351;47.1306425;7.240621;29.51500129699707;1673366230.7924259;-20.461597442626953;16.25406837463379;92.3251724243164
165;1673366230.8549273;47.1306425;7.2406209;29.911001205444336;1673366230.974556;-20.506874084472656;18.31329345703125;91.84928894042969
166;1673366231.0424106;47.130642599999995;7.2406209;30.31100082397461;1673366231.166729;-19.829065322875977;19.490076065063477;91.5687255859375
167;1673366231.248501;47.130642599999995;7.2406209;30.71900177001953;1673366231.3737464;-20.460947036743164;16.78180503845215;92.26332092285156
168;1673366231.4411979;47.1306425;7.240620799999999;31.125001907348633;1673366231.5751455;-20.371633529663086;17.7987117767334;92.14627075195312
169;1673366231.644601;47.1306425;7.240620799999999;31.5260009765625;1673366231.7712834;-19.982093811035156;19.360143661499023;91.68255615234375
170;1673366231.8538907;47.1306425;7.240620799999999;31.926000595092773;1673366232.0006325;-20.25146484375;16.878870010375977;92.33269500732422
171;1673366232.0689476;47.1306425;7.240620799999999;32.31800079345703;1673366232.200057;-20.650114059448242;17.15458869934082;92.1576919555664
172;1673366232.264544;47.1306425;7.240620799999999;32.71600341796875;1673366232.3942492;-20.13275718688965;19.832796096801758;91.5096435546875
173;1673366232.4548244;47.130642599999995;7.2406207;33.117000579833984;1673366232.5789607;-19.979732513427734;17.601057052612305;92.1346664428711
174;1673366232.647506;47.1306425;7.2406207;33.5150032043457;1673366232.782123;-20.661598205566406;16.77952766418457;92.24989318847656
175;1673366232.861514;47.1306425;7.2406207;33.915000915527344;1673366232.9969523;-20.21602439880371;19.293554306030273;91.55013275146484
176;1673366233.0684597;47.1306425;7.2406207;34.319000244140625;1673366233.2107584;-20.03333282470703;18.034109115600586;91.92537689208984
177;1673366233.2835307;47.1306425;7.2406207;34.72200012207031;1673366233.402301;-20.567359924316406;16.5390567779541;92.40411376953125
178;1673366233.462963;47.1306425;7.2406206;35.1150016784668;1673366233.6015053;-20.386455535888672;19.25459861755371;91.63104248046875
179;1673366233.6764297;47.1306425;7.2406206;35.51000213623047;1673366233.8039248;-19.882923126220703;18.590198516845703;91.8117904663086
180;1673366233.8684595;47.1306425;7.2406206;35.90999984741211;1673366233.9887314;-20.72633171081543;16.488677978515625;92.39472198486328
181;1673366234.0574582;47.1306425;7.2406206;36.310001373291016;1673366234.1758597;-20.23438835144043;18.85071563720703;91.81035614013672
182;1673366234.2472885;47.1306425;7.2406206;36.70600128173828;1673366234.383312;-20.020009994506836;19.143152236938477;91.66815185546875
183;1673366234.448981;47.1306425;7.2406206;37.105003356933594;1673366234.5737224;-20.326292037963867;16.42569351196289;92.42972564697266
184;1673366234.6438992;47.1306425;7.2406207;37.5;1673366234.7748353;-20.414777755737305;18.315773010253906;92.0274429321289
185;1673366234.8497117;47.1306425;7.2406207;37.900001525878906;1673366234.9769936;-19.664216995239258;19.413040161132812;91.68927764892578
186;1673366235.0415385;47.1306425;7.2406207;38.30500030517578;1673366235.1697483;-20.361915588378906;16.70049285888672;92.29405212402344
187;1673366235.246528;47.1306425;7.2406206;38.711002349853516;1673366235.3801806;-20.384212493896484;17.95074462890625;91.95643615722656
188;1673366235.443844;47.1306425;7.2406204999999995;39.117000579833984;1673366235.5709548;-19.805538177490234;19.565372467041016;91.46856689453125
189;1673366235.6418633;47.1306425;7.2406204999999995;39.518001556396484;1673366235.7743225;-20.40165138244629;16.92098617553711;92.16485595703125
190;1673366235.843321;47.130642599999995;7.2406204;39.9170036315918;1673366235.9724746;-20.593856811523438;17.519227981567383;92.16936492919922
191;1673366236.0515432;47.130642599999995;7.2406204;40.30900192260742;1673366236.1707819;-20.081396102905273;20.003639221191406;91.53937530517578
192;1673366236.2386851;47.130642599999995;7.2406204;40.70600128173828;1673366236.3749676;-20.084369659423828;17.2322940826416;92.19438934326172
193;1673366236.4418716;47.130642599999995;7.2406204;41.10600280761719;1673366236.5744586;-20.75530242919922;17.267751693725586;92.4010238647461
194;1673366236.6423786;47.130642599999995;7.2406204;41.50600051879883;1673366236.777875;-19.955589294433594;19.712261199951172;91.57325744628906
195;1673366236.8468018;47.130642599999995;7.2406204;41.90500259399414;1673366236.9759455;-19.961545944213867;17.988689422607422;92.01750183105469
196;1673366237.0546052;47.130642699999996;7.2406204;42.30400085449219;1673366237.1874332;-20.617876052856445;17.093868255615234;92.24375915527344
197;1673366237.2587492;47.130642699999996;7.2406203;42.694000244140625;1673366237.389893;-20.00214958190918;20.10384750366211;91.54383087158203
198;1673366237.4593384;47.130642699999996;7.2406203;43.0890007019043;1673366237.5835025;-19.931562423706055;18.077924728393555;92.03572082519531
199;1673366237.651006;47.130642599999995;7.2406203;43.48200225830078;1673366237.7773423;-20.583797454833984;16.735395431518555;92.29786682128906
200;1673366237.8433187;47.1306425;7.2406203;43.871002197265625;1673366237.9725099;-20.215274810791016;19.363550186157227;91.63967895507812
201;1673366238.0616965;47.1306425;7.2406201999999995;44.2660026550293;1673366238.1773014;-20.197206497192383;18.571258544921875;91.76641082763672
202;1673366238.2447762;47.1306425;7.2406201999999995;44.66400146484375;1673366238.3903177;-20.5041446685791;16.788801193237305;92.34420776367188
203;1673366238.456751;47.1306425;7.2406201999999995;45.0620002746582;1673366238.5776284;-20.486042022705078;19.33587646484375;91.7438735961914
204;1673366238.6574476;47.1306424;7.2406201999999995;45.454002380371094;1673366238.7811441;-19.86318016052246;18.976533889770508;91.70872497558594
205;1673366238.8549902;47.1306424;7.2406201999999995;45.849002838134766;1673366238.9910285;-20.66199493408203;16.639034271240234;92.2503433227539
206;1673366239.0604098;47.1306423;7.2406201;46.24500274658203;1673366239.1915379;-20.400896072387695;18.88398551940918;91.8125
207;1673366239.2569633;47.1306423;7.2406201;46.6400032043457;1673366239.3890247;-19.94862937927246;19.108600616455078;91.72834777832031
208;1673366239.460336;47.1306423;7.2406201;47.035003662109375;1673366239.5893247;-20.328603744506836;16.912944793701172;92.24330139160156
209;1673366239.6671603;47.1306422;7.2406201;47.428001403808594;1673366239.791924;-20.538726806640625;18.368906021118164;91.93939208984375
210;1673366239.8583598;47.1306422;7.2406201999999995;47.816001892089844;1673366239.9961152;-20.141611099243164;19.201129913330078;91.65343475341797
211;1673366240.068338;47.1306422;7.2406201999999995;48.191001892089844;1673366240.1955924;-20.53508186340332;17.743301391601562;91.89515686035156
212;1673366240.2767644;47.1306422;7.2406201;48.5160026550293;1673366240.4068463;-20.571609497070312;18.95444107055664;91.70177459716797
213;1673366240.4763184;47.1306423;7.2406198999999996;48.78900146484375;1673366240.6012704;-20.952640533447266;19.619585037231445;91.51841735839844
214;1673366240.6693423;47.1306425;7.2406197;49.0150032043457;1673366240.7990558;-21.454185485839844;17.97258949279785;92.23687744140625
215;1673366240.8664055;47.130642599999995;7.2406194;49.207000732421875;1673366241.0031078;-21.85272789001465;19.74312973022461;91.8021011352539
216;1673366241.0636437;47.1306428;7.240619;49.37000274658203;1673366241.1862884;-11.302018165588379;23.342836380004883;90.0747299194336
217;1673366241.2580733;47.1306429;7.2406184;49.48600387573242;1673366241.3809175;-6.332839488983154;33.743919372558594;79.08219146728516
218;1673366241.4451973;47.130642699999996;7.2406171;49.5420036315918;1673366241.5767486;-12.370636940002441;26.057865142822266;65.5850830078125
219;1673366241.6515934;47.1306423;7.2406156;49.586002349853516;1673366241.7861247;-2.250580310821533;29.03700828552246;56.344215393066406
220;1673366241.8463936;47.1306418;7.240614099999999;49.625003814697266;1673366241.9851866;2.345064878463745;30.87141227722168;46.812110900878906
221;1673366242.0599415;47.1306412;7.2406127;49.66400146484375;1673366242.1990287;6.330590724945068;30.581457138061523;37.63333511352539
222;1673366242.2722251;47.1306405;7.240611299999999;49.69400405883789;1673366242.4023006;10.550679206848145;30.733278274536133;28.5440673828125
223;1673366242.4643915;47.1306398;7.240609999999999;49.7130012512207;1673366242.5983841;13.799093246459961;29.05162811279297;19.459781646728516
224;1673366242.6762064;47.130639099999996;7.240609;49.72700119018555;1673366242.8052335;16.974807739257812;25.75263214111328;10.766539573669434
225;1673366242.8712869;47.1306383;7.240608399999999;49.73600387573242;1673366242.9965043;20.164724349975586;21.683555603027344;1.7884091138839722
226;1673366243.0670183;47.1306377;7.240608099999999;49.74500274658203;1673366243.194081;22.96188735961914;17.390888214111328;-7.044200897216797
227;1673366243.2662797;47.130637199999995;7.240608099999999;49.75300216674805;1673366243.3913097;24.832788467407227;13.766656875610352;-15.89289665222168
228;1673366243.4852316;47.1306368;7.2406082;49.759002685546875;1673366243.5970533;25.873058319091797;9.888147354125977;-24.944183349609375
229;1673366243.6552944;47.130636599999995;7.2406083;49.76400375366211;1673366243.7870739;26.58856964111328;7.52339506149292;-33.19059371948242
230;1673366243.8565583;47.1306364;7.2406083;49.768001556396484;1673366243.9901345;27.004348754882812;4.48999547958374;-41.66527557373047
231;1673366244.0580213;47.1306363;7.240608399999999;49.768001556396484;1673366244.1926372;26.976303100585938;-0.24948401749134064;-49.746612548828125
232;1673366244.2659905;47.1306365;7.2406086;49.775001525878906;1673366244.3917751;27.59494972229004;-3.5130410194396973;-50.182289123535156
233;1673366244.462249;47.1306367;7.2406086;49.78600311279297;1673366244.5889857;28.43629264831543;-3.265720844268799;-47.38956832885742
234;1673366244.6613927;47.1306369;7.2406085;49.794002532958984;1673366244.7869892;28.61334800720215;-4.415640830993652;-46.44388198852539
235;1673366244.8549495;47.130637;7.240608099999999;49.801002502441406;1673366244.985434;28.911407470703125;-3.8453383445739746;-45.848419189453125
236;1673366245.071847;47.1306368;7.240607499999999;49.80400085449219;1673366245.2032287;28.910335540771484;-0.849494457244873;-45.151588439941406
237;1673366245.272303;47.130636599999995;7.240606799999999;49.81500244140625;1673366245.4063826;28.716896057128906;1.8803364038467407;-44.584354400634766
238;1673366245.4724438;47.1306364;7.240606199999999;49.829002380371094;1673366245.5972376;28.731258392333984;3.4970338344573975;-44.38759994506836
239;1673366245.6669867;47.1306362;7.2406057;49.84300231933594;1673366245.7885938;29.037742614746094;3.54990291595459;-44.56189727783203
240;1673366245.8550863;47.1306361;7.2406052999999995;49.85200119018555;1673366245.9840982;29.50994300842285;2.5311062335968018;-44.85645294189453
241;1673366246.0638216;47.130635999999996;7.2406051;49.85900115966797;1673366246.1853912;27.233476638793945;1.1261876821517944;-45.68843460083008
242;1673366246.2571964;47.130635999999996;7.2406049999999995;49.86100387573242;1673366246.3895867;-1.7722504138946533;-0.784168004989624;-48.1839485168457
243;1673366246.4620442;47.130636599999995;7.2406041;49.84800338745117;1673366246.5978346;-38.338748931884766;2.7428112030029297;-50.345760345458984
244;1673366246.6699526;47.1306387;7.240600799999999;49.78600311279297;1673366246.8041422;-31.630598068237305;0.5755230188369751;-47.837127685546875
245;1673366246.8777792;47.1306431;7.240594;49.71600341796875;1673366247.005819;-46.87446594238281;-0.8066689968109131;-47.2444953918457
246;1673366247.0658612;47.1306502;7.2405829;49.69400405883789;1673366247.184986;-47.84418869018555;-0.4334823489189148;-47.039310455322266
247;1673366247.2508962;47.1306598;7.240567599999999;49.67900085449219;1673366247.3850813;-48.14640808105469;-0.6548112630844116;-46.28966522216797
248;1673366247.4570405;47.1306717;7.2405484;49.67000198364258;1673366247.5786161;-50.1259765625;0.9924458265304565;-46.788116455078125
249;1673366247.6486044;47.1306857;7.2405257999999995;49.67000198364258;1673366247.7820032;-50.94417190551758;3.1195271015167236;-47.49501037597656
250;1673366247.8487275;47.1307015;7.2405003;49.673004150390625;1673366248.014945;-51.94270706176758;2.5921716690063477;-47.738487243652344
251;1673366248.0840456;47.130719199999994;7.240472;49.68600082397461;1673366248.2052014;-56.50027084350586;0.6083648800849915;-47.26129913330078
252;1673366248.2719574;47.1307389;7.240440899999999;49.72100067138672;1673366248.4032817;-59.42794418334961;0.13800816237926483;-46.569915771484375
253;1673366248.4730184;47.1307604;7.2404068;49.76400375366211;1673366248.6153913;-59.37085723876953;0.500403642654419;-46.380680084228516
254;1673366248.6799133;47.1307835;7.2403704;49.788002014160156;1673366248.7990808;-56.33821487426758;0.7885676026344299;-46.5423698425293
255;1673366248.8710418;47.1308078;7.2403321;49.785003662109375;1673366248.9948165;-53.83505630493164;0.6494447588920593;-46.392601013183594
256;1673366249.0599437;47.130832899999994;7.2402926999999995;49.77100372314453;1673366249.187733;-51.68231201171875;0.8941544890403748;-46.51214599609375
257;1673366249.265404;47.1308587;7.2402522;49.75200271606445;1673366249.4007533;-49.58541488647461;0.3399924039840698;-46.069515228271484
258;1673366249.4678137;47.130885;7.2402109999999995;49.737003326416016;1673366249.599899;-30.745275497436523;-0.03417285531759262;-46.35181427001953
259;1673366249.673774;47.1309113;7.2401699;49.7400016784668;1673366249.7986197;15.841279029846191;1.5564948320388794;-46.713008880615234
260;1673366249.8638027;47.1309361;7.240131099999999;49.73800277709961;1673366249.99184;39.48530960083008;7.768555164337158;-44.500831604003906
261;1673366250.0589967;47.130959;7.2400953999999995;49.53900146484375;1673366250.1978552;20.2220401763916;0.337704062461853;-45.81135177612305
262;1673366250.2760925;47.1309791;7.2400641;49.21800231933594;1673366250.420736;17.143959045410156;-0.7755848169326782;-47.14815139770508
263;1673366250.4837887;47.1309968;7.2400364999999995;48.952003479003906;1673366250.6088808;15.266596794128418;-0.10142244398593903;-47.078346252441406
264;1673366250.6717618;47.131012399999996;7.2400123;48.85900115966797;1673366250.791123;39.1456298828125;-0.000454659661045298;-47.37351608276367
265;1673366250.8600008;47.1310255;7.2399919;49.000003814697266;1673366250.9908671;60.27580642700195;0.3500589430332184;-46.58852005004883
266;1673366251.0598667;47.1310352;7.239976899999999;49.17100143432617;1673366251.1961389;59.94008255004883;0.15574359893798828;-46.910823822021484
267;1673366251.2651265;47.1310411;7.2399678;49.34100341796875;1673366251.390554;61.825706481933594;-0.0712413415312767;-47.60178756713867
268;1673366251.456848;47.131043899999995;7.2399638;49.487003326416016;1673366251.5811708;62.64532470703125;-0.5176701545715332;-47.28447341918945
269;1673366251.6494505;47.1310437;7.2399644;49.608001708984375;1673366251.7868304;61.5677604675293;0.04442457854747772;-46.71971893310547
270;1673366251.858964;47.1310413;7.2399685;49.69300079345703;1673366251.9864378;59.32901382446289;-0.28392651677131653;-46.7408447265625
271;1673366252.0652618;47.1310371;7.2399754;49.74700164794922;1673366252.2016973;55.43830871582031;0.23716683685779572;-46.35628128051758
272;1673366252.26763;47.1310316;7.239984199999999;49.7760009765625;1673366252.3942838;46.352134704589844;-0.16994988918304443;-46.529571533203125
273;1673366252.4553306;47.1310254;7.2399941;49.78200149536133;1673366252.5898654;35.908180236816406;-0.22134709358215332;-46.74197769165039
274;1673366252.6537158;47.131018999999995;7.240004;49.775001525878906;1673366252.7822726;24.786685943603516;0.19912821054458618;-47.0145378112793
275;1673366252.8628767;47.1310132;7.2400129;49.762001037597656;1673366252.9932292;16.23676109313965;0.4440796375274658;-46.919677734375
276;1673366253.069936;47.131008099999995;7.240020599999999;49.7400016784668;1673366253.1985075;10.725659370422363;0.4713958203792572;-46.597320556640625
277;1673366253.303822;47.1310041;7.2400267;49.711002349853516;1673366253.4374075;9.038851737976074;0.21155297756195068;-46.450653076171875
278;1673366253.5000694;47.1310013;7.2400309;49.68700408935547;1673366253.640242;10.902231216430664;-1.0876883268356323;-46.52280807495117
279;1673366253.7077916;47.130999599999996;7.2400334;49.677001953125;1673366253.8936546;13.779035568237305;1.4563958644866943;-46.10723876953125
280;1673366253.9463587;47.130998899999994;7.240034499999999;49.68000411987305;1673366254.0694585;17.0035457611084;0.8354470729827881;-46.42539978027344
281;1673366254.1333425;47.1309988;7.2400347;49.68700408935547;1673366254.2437124;18.50995445251465;-7.251953601837158;-47.300193786621094
282;1673366254.3262687;47.1309992;7.240034199999999;49.47100067138672;1673366254.4692788;3.7199909687042236;-13.430580139160156;-44.92286682128906
283;1673366254.5401976;47.1309997;7.2400332999999994;48.89500045776367;1673366254.664751;-22.461923599243164;-20.244543075561523;-37.37127685546875
284;1673366254.7287986;47.1310005;7.2400322;47.93800354003906;1673366254.8460784;-52.955902099609375;-34.525638580322266;-18.511682510375977
285;1673366254.9483929;47.131001399999995;7.2400310999999995;46.59600067138672;1673366255.0649612;-71.1878890991211;-79.61508178710938;34.12386703491211
286;1673366255.1227677;47.1310022;7.240030099999999;44.880001068115234;1673366255.2410674;-69.630615234375;-111.3337173461914;75.86734771728516
287;1673366255.3140845;47.1310031;7.240029;42.807003021240234;1673366255.4704857;-69.40996551513672;-80.56827545166016;56.81179428100586
288;1673366255.528069;47.131004;7.2400277;40.36600112915039;1673366255.6581554;-51.67070770263672;-24.346195220947266;12.310098648071289
289;1673366255.7213047;47.1310048;7.2400264;37.57600021362305;1673366255.8404038;-11.459725379943848;-2.142374277114868;-0.45644694566726685
290;1673366255.9009652;47.1310054;7.240024999999999;34.4010009765625;1673366256.0206406;27.60840606689453;3.6433255672454834;-2.042379379272461
291;1673366256.0856802;47.131006299999996;7.2400234;30.825000762939453;1673366256.2083669;44.56407928466797;-2.727466583251953;-4.6215925216674805
292;1673366256.2764099;47.131007499999996;7.2400215;26.889001846313477;1673366256.4235418;30.39244842529297;-14.353233337402344;-4.212640285491943
293;1673366256.4926126;47.1310091;7.2400195;22.602001190185547;1673366256.6216717;-7.377811908721924;-24.289997100830078;7.19010066986084
294;1673366256.698106;47.131011;7.2400174999999996;17.9320011138916;1673366256.819829;-42.86859893798828;-35.4471549987793;26.323183059692383
295;1673366256.8799121;47.1310127;7.2400157;12.867000579833984;1673366256.996046;-54.045413970947266;-30.201526641845703;32.92691421508789
296;1673366257.0590904;47.131014099999994;7.2400138;7.469000339508057;1673366257.1915717;-31.813053131103516;-5.124645709991455;20.096952438354492
297;1673366257.2663562;47.1310151;7.2400117999999996;1.7230000495910645;1673366257.4447427;2.3138909339904785;-23.548925399780273;19.08003044128418
298;1673366257.504411;47.1310199;7.2400042;0.35500001907348633;1673366257.6357586;-0.12707950174808502;-12.697454452514648;12.733234405517578
299;1673366257.7004194;47.131026399999996;7.2399966;0.4020000100135803;1673366257.839134;0.9797755479812622;-16.041942596435547;11.552510261535645
300;1673366257.896289;47.1310328;7.2399895999999995;0.41100001335144043;1673366258.031589;1.0820170640945435;-17.800384521484375;11.122087478637695
301;1673366258.1045423;47.1310394;7.239980999999999;0.4150000214576721;1673366258.2361822;1.1415729522705078;-19.229894638061523;10.79951000213623
302;1673366258.3046353;47.131045;7.2399721999999995;0.39900001883506775;1673366258.4401748;1.21559739112854;-20.012907028198242;10.566869735717773
303;1673366258.5121572;47.1310497;7.2399634;0.3700000047683716;1673366258.6368258;1.339250922203064;-20.244842529296875;10.425167083740234
304;1673366258.700896;47.131053099999995;7.2399555;0.3270000219345093;1673366258.8217103;1.515217900276184;-20.20209312438965;10.358508110046387
305;1673366258.882763;47.1310557;7.2399477;0.2939999997615814;1673366259.0140464;1.6868085861206055;-19.86786651611328;10.32529354095459
306;1673366259.0777009;47.1310572;7.2399407;0.2590000033378601;1673366259.2296464;1.898132562637329;-19.42245101928711;10.347126960754395
307;1673366259.3024576;47.1310577;7.2399347;0.23000000417232513;1673366259.441783;2.041775703430176;-19.07951545715332;10.312559127807617
308;1673366259.526648;47.1310596;7.2399252999999995;0.19700001180171967;1673366259.6402204;2.060335397720337;-18.76099967956543;10.240943908691406
309;1673366259.7081816;47.1310631;7.2399122;0.16200000047683716;1673366259.8693814;2.0496389865875244;-18.52874755859375;10.197732925415039
310;1673366259.9462566;47.1310674;7.2398964999999995;0.12300000339746475;1673366260.0630958;2.0665171146392822;-18.305524826049805;10.166403770446777
311;1673366260.127676;47.1310722;7.239878999999999;0.0820000022649765;1673366260.2623603;2.1155006885528564;-17.950387954711914;10.076922416687012
312;1673366260.341649;47.1310772;7.239859999999999;0.03700000047683716;1673366260.477844;2.0958688259124756;-17.688581466674805;10.065021514892578
313;1673366260.534416;47.131082299999996;7.2398397999999995;-0.007000000216066837;1673366260.6498659;2.1334893703460693;-17.362436294555664;10.030189514160156
314;1673366260.7187202;47.1310876;7.2398183;-0.07100000232458115;1673366260.8397632;2.1701436042785645;-17.027393341064453;9.964350700378418
315;1673366260.9075725;47.1310931;7.239795;-0.1300000101327896;1673366261.0337434;2.1386702060699463;-16.746746063232422;9.961796760559082
316;1673366261.1189935;47.131098099999996;7.2397725;-0.1810000091791153;1673366261.236751;2.1963095664978027;-16.378141403198242;9.933688163757324
317;1673366261.3087513;47.1311034;7.2397483;-0.23200000822544098;1673366261.452754;2.1821529865264893;-16.05870246887207;9.954212188720703
318;1673366261.5565708;47.1311087;7.239723199999999;-0.2800000011920929;1673366261.6621084;2.102308750152588;-15.722363471984863;9.96735954284668
319;1673366261.720624;47.131114;7.239697199999999;-0.32600000500679016;1673366261.8375134;2.116105556488037;-15.391022682189941;9.921923637390137
320;1673366261.9045622;47.1311192;7.2396704;-0.37400001287460327;1673366262.0254564;2.1827516555786133;-15.094552993774414;9.894783973693848
321;1673366262.094702;47.1311245;7.2396422;-0.44700002670288086;1673366262.2247384;2.155412435531616;-14.832218170166016;9.872143745422363
322;1673366262.2934892;47.1311298;7.2396135;-0.5040000081062317;1673366262.4147007;2.2062292098999023;-14.524410247802734;9.849101066589355
323;1673366262.4808607;47.131135099999995;7.2395841;-0.5509999990463257;1673366262.6118312;2.217810869216919;-14.256621360778809;9.81045913696289
324;1673366262.6727607;47.1311404;7.239554099999999;-0.5890000462532043;1673366262.8099036;2.273524284362793;-13.987506866455078;9.786816596984863
325;1673366262.8789318;47.1311457;7.2395233999999995;-0.6170000433921814;1673366263.0126112;2.285834312438965;-13.677557945251465;9.770039558410645
326;1673366263.0698295;47.1311512;7.2394905;-0.6480000019073486;1673366263.2075143;2.292184591293335;-13.414834022521973;9.748058319091797
327;1673366263.280901;47.1311563;7.2394586;-0.7080000042915344;1673366263.4175787;2.3063902854919434;-13.119739532470703;9.711493492126465
328;1673366263.4825728;47.1311617;7.239425;-0.7490000128746033;1673366263.6127338;2.317532777786255;-12.817910194396973;9.680876731872559
329;1673366263.6817267;47.1311671;7.2393909999999995;-0.7720000147819519;1673366263.8574677;2.3072309494018555;-12.538137435913086;9.67031192779541
330;1673366263.9814968;47.1311726;7.2393563;-0.7880000472068787;1673366264.075704;2.32784104347229;-12.25776195526123;9.661767959594727
331;1673366264.1274233;47.131178;7.2393208;-0.800000011920929;1673366264.2387037;2.4111084938049316;-11.126837730407715;9.610835075378418
332;1673366264.2976317;47.1311798;7.2393092;-0.8050000667572021;1673366264.4187682;2.2513883113861084;-10.704232215881348;9.572319030761719
