;pos_time;latitude;longitude;altitude;alt_time;pitch;roll;yaw
0;1673444033.4512682;47.1306423;7.2406201;-0.052000001072883606;1673444033.5305917;-0.036758266389369965;-0.05913722887635231;90.39383697509766
1;1673444033.6553388;47.1306423;7.24062;-0.05400000140070915;1673444033.7285557;0.1359587162733078;-0.10555512458086014;90.49756622314453
2;1673444033.8634026;47.1306423;7.2406201;-0.05400000140070915;1673444033.929505;0.14987780153751373;-0.05437347665429115;90.4158706665039
3;1673444034.063645;47.1306423;7.2406201;-0.05700000375509262;1673444034.1354988;-0.0925043448805809;-0.11675286293029785;90.44496154785156
4;1673444034.2620704;47.1306423;7.2406201;-0.06100000441074371;1673444034.3322706;-0.03000827506184578;0.043277040123939514;90.29964447021484
5;1673444034.4564273;47.1306424;7.2406201;-0.06400000303983688;1673444034.5291793;-0.0571906715631485;-0.23622608184814453;90.53218841552734
6;1673444034.6563325;47.1306424;7.2406201;-0.07000000029802322;1673444034.7335508;-0.13933390378952026;0.03692625090479851;90.20380401611328
7;1673444034.8723433;47.1306424;7.2406201;-0.07200000435113907;1673444034.9367576;-0.18728980422019958;-0.07876038551330566;90.26021575927734
8;1673444035.0563426;47.1306424;7.2406201;0.0010000000474974513;1673444035.122545;-0.012564186006784439;-1.4413549900054932;90.33234405517578
9;1673444035.2481835;47.1306424;7.24062;0.0020000000949949026;1673444035.3172185;0.017561856657266617;-0.9419113993644714;90.2476806640625
10;1673444035.4467816;47.1306424;7.24062;0.0;1673444035.5148485;-0.1829058825969696;-1.1975268125534058;90.28768157958984
11;1673444035.649476;47.1306424;7.24062;-0.004000000189989805;1673444035.7197843;-0.13541468977928162;-0.8676732778549194;90.31401824951172
12;1673444035.8660398;47.1306424;7.2406198999999996;-0.006000000052154064;1673444035.93621;-0.06390435248613358;-0.9550445675849915;90.14444732666016
13;1673444036.0762994;47.1306425;7.2406198999999996;-0.007000000216066837;1673444036.1474705;-0.3194979727268219;-1.6339749097824097;90.21047973632812
14;1673444036.2795773;47.1306425;7.2406198999999996;-0.005000000353902578;1673444036.3383596;-0.2552286684513092;-1.6752039194107056;90.36201477050781
15;1673444036.460308;47.1306425;7.24062;-0.0010000000474974513;1673444036.5264013;-0.3539774715900421;-2.0302538871765137;90.42933654785156
16;1673444036.6505563;47.130642599999995;7.24062;0.004000000189989805;1673444036.724443;-0.29149729013442993;-0.8964776396751404;90.49998474121094
17;1673444036.853523;47.130642599999995;7.24062;0.007000000216066837;1673444036.9234865;-0.597743809223175;-0.2622205317020416;90.71316528320312
18;1673444037.0641506;47.130642699999996;7.2406201;0.01100000087171793;1673444037.139444;-0.6456934809684753;-0.6894375681877136;90.87483215332031
19;1673444037.2654622;47.130642699999996;7.2406201999999995;0.010000000707805157;1673444037.3314435;-0.787553608417511;-0.7958084344863892;91.38105010986328
20;1673444037.4505432;47.1306428;7.2406201999999995;0.00800000037997961;1673444037.5194473;-0.817295491695404;-0.682671070098877;92.18915557861328
21;1673444037.6503918;47.1306429;7.2406203;0.009000000543892384;1673444037.7204654;-0.5402231812477112;-0.4809799790382385;93.42168426513672
22;1673444037.845443;47.1306431;7.2406203;0.00800000037997961;1673444037.9141;-0.3188464343547821;-0.42552050948143005;96.56426239013672
23;1673444038.0523903;47.1306434;7.2406206;0.006000000052154064;1673444038.1182437;0.09145066142082214;-0.08050653338432312;104.98493194580078
24;1673444038.2434294;47.1306441;7.2406215;0.0020000000949949026;1673444038.3258166;0.5392385721206665;1.3161484003067017;106.25923156738281
25;1673444038.453899;47.1306452;7.2406231;0.004000000189989805;1673444038.5244184;2.4584524631500244;4.091240406036377;98.38204193115234
26;1673444038.671239;47.1306467;7.2406253;0.020000001415610313;1673444038.7384868;6.118947505950928;6.891983509063721;94.54594421386719
27;1673444038.8608947;47.1306484;7.2406282;0.036000002175569534;1673444038.9321601;10.742804527282715;11.738637924194336;94.47640228271484
28;1673444039.0635228;47.130650499999994;7.2406317;0.0560000017285347;1673444039.1309974;11.447718620300293;13.148642539978027;95.22599792480469
29;1673444039.248252;47.1306528;7.2406356;0.09100000560283661;1673444039.3143263;12.006476402282715;14.58393383026123;95.91798400878906
30;1673444039.442284;47.1306553;7.2406397;0.13900001347064972;1673444039.5133646;12.831039428710938;15.720065116882324;96.42167663574219
31;1673444039.6461902;47.130657799999994;7.2406441;0.20500001311302185;1673444039.720465;14.068443298339844;16.302059173583984;96.78067779541016
32;1673444039.8451195;47.130660299999995;7.2406485;0.29100000858306885;1673444039.9134996;15.416319847106934;17.804672241210938;97.14228820800781
33;1673444040.064276;47.130662699999995;7.2406527;0.3930000066757202;1673444040.1396532;16.661527633666992;19.351360321044922;97.42909240722656
34;1673444040.2613406;47.1306649;7.2406567;0.5110000371932983;1673444040.3282409;18.151601791381836;20.4778995513916;97.59905242919922
35;1673444040.4671273;47.130666999999995;7.2406603;0.6390000581741333;1673444040.5424392;19.753063201904297;21.745567321777344;97.6965103149414
36;1673444040.691862;47.1306687;7.2406634;0.7800000309944153;1673444040.7594366;21.327838897705078;23.302082061767578;97.66918182373047
37;1673444040.8927584;47.130670099999996;7.2406657999999995;0.940000057220459;1673444040.9582057;22.964588165283203;24.447864532470703;97.50422668457031
38;1673444041.1094856;47.130671;7.2406676;1.1160000562667847;1673444041.1842558;24.85944938659668;25.970375061035156;97.2636947631836
39;1673444041.3530295;47.1306715;7.240668599999999;1.3070000410079956;1673444041.407761;26.6756591796875;27.17074966430664;96.989990234375
40;1673444041.515668;47.1306715;7.2406687;1.5040000677108765;1673444041.575798;30.186159133911133;26.54851722717285;90.07310485839844
41;1673444041.702435;47.130671;7.2406679;1.7060000896453857;1673444041.7673912;33.110557556152344;27.052404403686523;90.10908508300781
42;1673444041.88902;47.130669999999995;7.2406657999999995;1.9130001068115234;1673444041.9583213;34.44514846801758;28.48048973083496;89.43655395507812
43;1673444042.087473;47.130668299999996;7.2406625;2.121000051498413;1673444042.151971;36.5975227355957;29.833879470825195;88.6837387084961
44;1673444042.2681336;47.1306661;7.240658;2.3330001831054688;1673444042.3306086;34.73752975463867;29.41884994506836;87.75483703613281
45;1673444042.4494462;47.130663399999996;7.2406523;2.5450000762939453;1673444042.5282922;27.25507354736328;26.683032989501953;88.46867370605469
46;1673444042.673978;47.1306604;7.2406462;2.7370002269744873;1673444042.7433321;11.746742248535156;29.955463409423828;112.3923568725586
47;1673444042.8687565;47.130657299999996;7.2406402;2.9280002117156982;1673444042.9341223;-6.616434097290039;26.102201461791992;140.97003173828125
48;1673444043.0567615;47.1306544;7.2406348;3.119000196456909;1673444043.124647;-17.86947250366211;14.532577514648438;173.82847595214844
49;1673444043.270202;47.1306519;7.240630299999999;3.311000108718872;1673444043.3472896;-21.100372314453125;1.1201647520065308;-148.20884704589844
50;1673444043.4831526;47.1306497;7.240627;3.503000259399414;1673444043.560269;-19.921855926513672;-4.822029113769531;-132.2256622314453
51;1673444043.6786397;47.1306478;7.2406248;3.696000099182129;1673444043.7470016;-21.30533790588379;-4.594845294952393;-132.3487091064453
52;1673444043.8730857;47.130646299999995;7.2406236999999996;3.888000249862671;1673444043.9443343;-22.744340896606445;-3.2119178771972656;-132.99461364746094
53;1673444044.0725172;47.130645;7.240623299999999;4.080000400543213;1673444044.1836195;-24.135412216186523;-1.6301969289779663;-133.17529296875
54;1673444044.2946615;47.130644;7.2406234;4.27400016784668;1673444044.3590858;-25.809436798095703;0.018812008202075958;-133.30026245117188
55;1673444044.496046;47.130643299999996;7.2406238;4.469000339508057;1673444044.5643747;-27.197519302368164;1.5535556077957153;-133.546630859375
56;1673444044.6994429;47.1306428;7.2406241;4.6610002517700195;1673444044.764831;-27.829879760742188;2.7756564617156982;-134.00839233398438
57;1673444044.8948843;47.130642599999995;7.2406242999999995;4.849000453948975;1673444044.9564235;-28.653011322021484;2.682316541671753;-134.0741729736328
58;1673444045.09222;47.130642599999995;7.2406242999999995;5.0410003662109375;1673444045.1587481;-29.216461181640625;1.6588612794876099;-133.90065002441406
59;1673444045.2965374;47.130642599999995;7.2406241;5.236000061035156;1673444045.3638847;-29.270122528076172;2.141057252883911;-134.34304809570312
60;1673444045.4851084;47.1306428;7.240623599999999;5.439000129699707;1673444045.5593665;-28.870689392089844;1.740616798400879;-134.52377319335938
61;1673444045.689423;47.130643;7.240622999999999;5.641000270843506;1673444045.7597063;-28.82570457458496;-0.696333110332489;-133.96871948242188
62;1673444045.8830597;47.1306431;7.2406223999999995;5.841000080108643;1673444045.9601886;-28.33846092224121;-0.35662123560905457;-134.36973571777344
63;1673444046.0842607;47.1306431;7.240621699999999;6.0410003662109375;1673444046.1516044;-27.738792419433594;0.7975240349769592;-134.95233154296875
64;1673444046.2854574;47.130643199999994;7.240621099999999;6.24500036239624;1673444046.348901;-27.431537628173828;-1.846811294555664;-134.2707061767578
65;1673444046.5305507;47.130643199999994;7.2406207;6.448000431060791;1673444046.599414;-27.461063385009766;-1.8344087600708008;-134.2991180419922
66;1673444046.7190852;47.130643199999994;7.2406204;6.651000499725342;1673444046.7840586;-27.20339012145996;0.6463925838470459;-135.09693908691406
67;1673444046.9144104;47.1306431;7.2406203;6.850000381469727;1673444046.9853096;-27.150936126708984;-0.49154922366142273;-134.655517578125
68;1673444047.106901;47.1306431;7.2406201999999995;7.047000408172607;1673444047.179677;-27.279560089111328;-2.1480448246002197;-133.98171997070312
69;1673444047.3149557;47.1306431;7.2406201999999995;7.24500036239624;1673444047.3848023;-27.158281326293945;1.3569371700286865;-135.07423400878906
70;1673444047.509975;47.1306431;7.2406201999999995;7.446000576019287;1673444047.578334;-27.40715980529785;0.18940897285938263;-134.75836181640625
71;1673444047.7039292;47.1306431;7.2406201;7.647000312805176;1673444047.771415;-27.660791397094727;-1.6309962272644043;-134.19183349609375
72;1673444047.8966014;47.1306431;7.2406201999999995;7.845000267028809;1673444047.964923;-27.858304977416992;0.6722767353057861;-134.81910705566406
73;1673444048.0929692;47.130643;7.2406203;8.041000366210938;1673444048.184536;-27.642484664916992;1.1666299104690552;-134.8944549560547
74;1673444048.2990258;47.130643;7.2406203;8.24000072479248;1673444048.3663836;-27.763647079467773;-1.5109272003173828;-134.03065490722656
75;1673444048.4955864;47.130643;7.2406204;8.439000129699707;1673444048.5648897;-27.641088485717773;0.40421217679977417;-134.59300231933594
76;1673444048.6763258;47.130643;7.2406203;8.63800048828125;1673444048.7437925;-27.854228973388672;1.463154673576355;-135.14251708984375
77;1673444048.887336;47.130643;7.2406203;8.833000183105469;1673444048.9478476;-27.76240348815918;-1.4479756355285645;-134.20321655273438
78;1673444049.0695717;47.1306429;7.2406203;9.026000022888184;1673444049.1442916;-27.66636848449707;-0.2687036097049713;-134.39166259765625
79;1673444049.2720647;47.1306428;7.2406203;9.222000122070312;1673444049.336091;-27.55752182006836;2.096796751022339;-135.2147979736328
80;1673444049.4664998;47.1306428;7.2406204;9.420000076293945;1673444049.5334024;-27.720317840576172;-0.8791574835777283;-134.21168518066406
81;1673444049.6569867;47.130642699999996;7.2406203;9.616000175476074;1673444049.7258651;-27.6479434967041;-0.7678283452987671;-134.19992065429688
82;1673444049.8513174;47.130642699999996;7.2406203;9.813000679016113;1673444049.9231205;-27.566030502319336;1.3947221040725708;-135.0890655517578
83;1673444050.1429281;47.130642699999996;7.2406201999999995;10.009000778198242;1673444050.1982093;-27.823240280151367;-0.6911183595657349;-134.33575439453125
84;1673444050.3178184;47.130642599999995;7.2406201999999995;10.222000122070312;1673444050.3897588;-26.878610610961914;-0.6153866052627563;-134.21116638183594
85;1673444050.505271;47.1306424;7.2406201;10.522000312805176;1673444050.5785685;-31.17203140258789;1.307786226272583;-134.71310424804688
86;1673444050.7079213;47.130641999999995;7.2406196;10.891000747680664;1673444050.7752757;-29.414676666259766;-0.3198903799057007;-134.13218688964844
87;1673444050.8996408;47.130641499999996;7.240618899999999;11.27400016784668;1673444050.962105;-27.05535316467285;-0.5836076140403748;-134.24131774902344
88;1673444051.1135645;47.130641;7.2406182;11.665000915527344;1673444051.180451;-25.366806030273438;1.080790400505066;-134.69195556640625
89;1673444051.3098238;47.1306406;7.2406175;12.0600004196167;1673444051.3790197;-24.035154342651367;0.14909014105796814;-134.54092407226562
90;1673444051.5107079;47.130640299999996;7.2406171;12.455000877380371;1673444051.5873892;-23.607776641845703;-0.768105685710907;-134.1608123779297
91;1673444051.699983;47.1306401;7.240616999999999;12.847001075744629;1673444051.767414;-24.03852081298828;0.6465833187103271;-134.55662536621094
92;1673444051.8919516;47.1306401;7.2406171;13.236001014709473;1673444051.9584517;-24.10797691345215;1.402411937713623;-134.828125
93;1673444052.1001887;47.130640299999996;7.2406174;13.61500072479248;1673444052.17184;-25.07804298400879;-0.35416704416275024;-134.35348510742188
94;1673444052.293304;47.1306406;7.2406178;13.987000465393066;1673444052.3636281;-26.25037956237793;0.0608418732881546;-134.45347595214844
95;1673444052.5085454;47.130640899999996;7.2406182;14.351000785827637;1673444052.5720189;-26.821542739868164;1.3826674222946167;-134.9265594482422
96;1673444052.7047732;47.1306413;7.2406185999999995;14.711000442504883;1673444052.771383;-27.469058990478516;-0.7308493852615356;-134.40908813476562
97;1673444052.9142776;47.130641499999996;7.240618899999999;15.076001167297363;1673444052.9787045;-27.749034881591797;-0.8750619292259216;-134.21185302734375
98;1673444053.104958;47.1306416;7.240619199999999;15.442000389099121;1673444053.180247;-27.805957794189453;1.48274564743042;-134.94827270507812
99;1673444053.3129828;47.1306417;7.2406193;15.814001083374023;1673444053.3795161;-27.60843849182129;0.8137285709381104;-134.7903594970703
100;1673444053.5126684;47.1306418;7.2406194;16.190000534057617;1673444053.5871823;-27.628293991088867;-0.9619825482368469;-134.22418212890625
101;1673444053.720566;47.1306418;7.2406194;16.56100082397461;1673444053.7906547;-27.435522079467773;1.041830062866211;-134.7681427001953
102;1673444053.9044702;47.1306418;7.2406193;16.935001373291016;1673444053.9747891;-26.907697677612305;0.7419325709342957;-134.78834533691406
103;1673444054.1036832;47.1306418;7.240619199999999;17.310001373291016;1673444054.1759734;-26.93815803527832;-1.2346270084381104;-134.173095703125
104;1673444054.3079164;47.1306418;7.2406191;17.689001083374023;1673444054.3804991;-26.834449768066406;0.45362353324890137;-134.67581176757812
105;1673444054.511598;47.1306417;7.2406191;18.06800079345703;1673444054.5853536;-26.54598617553711;1.2110974788665771;-134.92120361328125
106;1673444054.733397;47.1306417;7.240619;18.446001052856445;1673444054.8040745;-26.457956314086914;-0.8173672556877136;-134.2064666748047
107;1673444054.945264;47.1306417;7.240618899999999;18.826000213623047;1673444055.0004609;-26.634851455688477;-0.6052917838096619;-134.3421630859375
108;1673444055.1279554;47.1306417;7.240618899999999;19.202001571655273;1673444055.195974;-26.505971908569336;1.4172190427780151;-135.07785034179688
109;1673444055.3206365;47.1306418;7.240618899999999;19.582000732421875;1673444055.3852024;-26.500028610229492;-0.6841996908187866;-134.42881774902344
110;1673444055.5136802;47.1306418;7.240619;19.96200180053711;1673444055.5771868;-26.65728759765625;-0.7474544644355774;-134.2016143798828
111;1673444055.7046545;47.1306417;7.2406191;20.343000411987305;1673444055.7663574;-26.831144332885742;1.3230677843093872;-134.8312530517578
112;1673444055.8931644;47.1306417;7.240619199999999;20.725000381469727;1673444055.9644413;-26.655113220214844;0.29188072681427;-134.60447692871094
113;1673444056.1139433;47.1306417;7.240619199999999;21.110000610351562;1673444056.1813233;-27.038345336914062;-1.0110903978347778;-134.06517028808594
114;1673444056.3134167;47.1306418;7.2406193;21.490001678466797;1673444056.3871458;-26.83039093017578;1.2014541625976562;-134.82135009765625
115;1673444056.5038912;47.1306418;7.2406193;21.873001098632812;1673444056.5683067;-26.755638122558594;0.8154190182685852;-134.80503845214844
116;1673444056.698164;47.1306418;7.2406194;22.256000518798828;1673444056.7631319;-26.78106117248535;-0.9621570706367493;-134.2183837890625
117;1673444056.909269;47.1306418;7.240619499999999;22.643001556396484;1673444056.9876835;-27.147701263427734;0.22352391481399536;-134.4708709716797
118;1673444057.1248693;47.1306418;7.2406196;23.029001235961914;1673444057.1958072;-26.97178077697754;1.5385762453079224;-134.93295288085938
119;1673444057.3201587;47.1306418;7.2406197;23.41400146484375;1673444057.386534;-27.053239822387695;-0.4870882034301758;-134.31285095214844
120;1673444057.5256712;47.1306418;7.2406197;23.802001953125;1673444057.5904438;-27.142696380615234;-0.17092227935791016;-134.31980895996094
121;1673444057.7113037;47.1306419;7.2406197;24.187000274658203;1673444057.7778263;-26.847801208496094;1.5266202688217163;-135.06472778320312
122;1673444057.9087899;47.1306419;7.2406196;24.578001022338867;1673444057.978192;-26.97787857055664;-0.26947879791259766;-134.45425415039062
123;1673444058.1063535;47.1306419;7.2406196;24.96900177001953;1673444058.1968775;-26.92742919921875;-0.8277109861373901;-134.09893798828125
124;1673444058.3359516;47.1306418;7.2406196;25.36100196838379;1673444058.399034;-26.85976219177246;1.4421334266662598;-134.7484588623047
125;1673444058.5484378;47.1306418;7.2406197;25.755001068115234;1673444058.6080909;-26.57001495361328;0.541579008102417;-134.59376525878906
126;1673444058.7294984;47.1306418;7.2406197;26.149002075195312;1673444058.8120294;-26.79656410217285;-1.0177874565124512;-134.07012939453125
127;1673444058.932102;47.1306418;7.2406197;26.540000915527344;1673444058.9977884;-26.49798011779785;1.0386593341827393;-134.762939453125
128;1673444059.1324637;47.1306418;7.2406196;26.93600082397461;1673444059.2120152;-26.7293643951416;1.0968782901763916;-134.8900909423828
129;1673444059.3564172;47.1306418;7.2406196;27.33100128173828;1673444059.4388688;-26.703779220581055;-0.7723088264465332;-134.23960876464844
130;1673444059.5767498;47.1306418;7.2406197;27.731000900268555;1673444059.6409369;-26.995365142822266;0.4622880518436432;-134.52963256835938
131;1673444059.8066614;47.1306419;7.240619799999999;28.132001876831055;1673444059.8613946;-26.858057022094727;1.6654677391052246;-134.94541931152344
132;1673444059.9836357;47.1306419;7.240619799999999;28.532001495361328;1673444060.044687;-26.81318473815918;-0.42032235860824585;-134.3216552734375
133;1673444060.1627014;47.1306419;7.240619799999999;28.939001083374023;1673444060.2238145;-26.839908599853516;-0.0018553398549556732;-134.42404174804688
134;1673444060.3487499;47.130641999999995;7.240619799999999;29.341001510620117;1673444060.4153006;-26.88627815246582;1.4126423597335815;-134.9707794189453
135;1673444060.5448248;47.130642099999996;7.240619799999999;29.74100112915039;1673444060.605918;-26.8710994720459;-0.46445512771606445;-134.3341522216797
136;1673444060.724132;47.130642099999996;7.240619799999999;30.141000747680664;1673444060.7956622;-27.161224365234375;-0.42110735177993774;-134.2603302001953
137;1673444060.9190588;47.130642099999996;7.2406198999999996;30.53700065612793;1673444060.9865458;-27.160980224609375;1.6808968782424927;-134.9122314453125
138;1673444061.1163738;47.130642099999996;7.2406198999999996;30.935001373291016;1673444061.1896405;-26.80215072631836;-0.04862547665834427;-134.4664764404297
139;1673444061.3285875;47.130642099999996;7.2406198999999996;31.33500099182129;1673444061.3956819;-27.095706939697266;-0.7627094388008118;-134.19082641601562
140;1673444061.5458853;47.130642099999996;7.2406198999999996;31.731000900268555;1673444061.611524;-26.905359268188477;1.3044548034667969;-134.91366577148438
141;1673444061.7315264;47.1306422;7.2406198999999996;32.13100051879883;1673444061.8079073;-27.078943252563477;0.2803824245929718;-134.6168670654297
142;1673444061.933452;47.1306422;7.2406198999999996;32.53200149536133;1673444061.9984312;-27.177827835083008;-0.7758925557136536;-134.1016387939453
143;1673444062.169718;47.130642099999996;7.24062;32.93300247192383;1673444062.2379758;-27.22622299194336;1.2280261516571045;-134.84091186523438
144;1673444062.3513787;47.130642099999996;7.24062;33.33500289916992;1673444062.415371;-26.81166648864746;1.0886231660842896;-134.83139038085938
145;1673444062.537146;47.130642099999996;7.24062;33.7390022277832;1673444062.6011941;-27.131982803344727;-0.7154213190078735;-134.16741943359375
146;1673444062.7218685;47.130642099999996;7.24062;34.1410026550293;1673444062.7914314;-27.067617416381836;0.48227977752685547;-134.56874084472656
147;1673444062.9193504;47.130642099999996;7.24062;34.538002014160156;1673444062.991314;-27.094459533691406;1.2147361040115356;-134.90428161621094
148;1673444063.117795;47.1306422;7.24062;34.935001373291016;1673444063.188182;-27.04796600341797;-0.9546033143997192;-134.2198028564453
149;1673444063.326052;47.130642099999996;7.24062;35.3380012512207;1673444063.4027612;-27.084293365478516;0.06996563822031021;-134.46348571777344
150;1673444063.528473;47.130642099999996;7.24062;35.74400329589844;1673444063.5969205;-26.714977264404297;1.7890132665634155;-135.1024932861328
151;1673444063.7158754;47.130642099999996;7.24062;36.150001525878906;1673444063.7883265;-26.821378707885742;-0.45793479681015015;-134.4644317626953
152;1673444063.9240386;47.130642099999996;7.24062;36.553001403808594;1673444064.00001;-27.04849624633789;-0.5458021759986877;-134.27125549316406
153;1673444064.13821;47.130642099999996;7.24062;36.948001861572266;1673444064.2070715;-26.917390823364258;1.294816017150879;-134.9019317626953
154;1673444064.3327062;47.130642099999996;7.24062;37.349002838134766;1673444064.4017189;-26.976024627685547;-0.2018384039402008;-134.4386444091797
155;1673444064.5355968;47.130642099999996;7.24062;37.75100326538086;1673444064.5980887;-26.996417999267578;-0.6698017120361328;-134.1737518310547
156;1673444064.7388892;47.130642099999996;7.2406201;38.1510009765625;1673444064.8126543;-26.98349952697754;1.4735534191131592;-134.90414428710938
157;1673444064.9419682;47.130642099999996;7.2406201;38.55600357055664;1673444065.0117729;-26.832881927490234;0.7905699610710144;-134.74545288085938
158;1673444065.1235936;47.130641999999995;7.2406201;38.95900344848633;1673444065.1923478;-27.179275512695312;-0.8936838507652283;-134.0729217529297
159;1673444065.3226385;47.130641999999995;7.2406201999999995;39.35900115966797;1673444065.3976638;-27.176342010498047;0.877723217010498;-134.6580810546875
160;1673444065.5650864;47.130641999999995;7.2406201999999995;39.75300216674805;1673444065.634607;-27.007186889648438;0.9898914694786072;-134.80343627929688
161;1673444065.7618184;47.130641999999995;7.2406201999999995;40.150001525878906;1673444065.8317113;-27.099288940429688;-0.8453333973884583;-134.16110229492188
162;1673444065.964178;47.130641999999995;7.2406201999999995;40.54800033569336;1673444066.032141;-27.238615036010742;0.6044440269470215;-134.52310180664062
163;1673444066.1617646;47.1306419;7.2406201999999995;40.94900131225586;1673444066.2277348;-26.764019012451172;1.6058905124664307;-134.99252319335938
164;1673444066.351303;47.1306419;7.2406201999999995;41.35100173950195;1673444066.4192443;-26.944690704345703;-0.4782395660877228;-134.3075408935547
165;1673444066.5475097;47.1306419;7.2406201999999995;41.75600051879883;1673444066.6155615;-27.106916427612305;-0.04584047943353653;-134.28529357910156
166;1673444066.7456717;47.130641999999995;7.2406201;42.15300369262695;1673444066.816492;-26.9624080657959;1.5517609119415283;-134.85926818847656
167;1673444066.9418502;47.130641999999995;7.2406201;42.55400085449219;1673444067.0108707;-26.87118911743164;-0.6132357120513916;-134.43629455566406
168;1673444067.1450262;47.130641999999995;7.2406201;42.95800018310547;1673444067.2120676;-27.01583480834961;-0.8155831694602966;-134.3517608642578
169;1673444067.3452215;47.130641999999995;7.2406201;43.3650016784668;1673444067.408361;-26.910289764404297;1.3882399797439575;-134.95101928710938
170;1673444067.5292068;47.130641999999995;7.2406201999999995;43.77100372314453;1673444067.5946696;-26.998188018798828;0.560910701751709;-134.65061950683594
171;1673444067.7267957;47.130641999999995;7.2406201999999995;44.17500305175781;1673444067.8084693;-27.394433975219727;-0.9423714876174927;-134.0832061767578
172;1673444067.933945;47.130642099999996;7.2406203;44.57600021362305;1673444068.03326;-27.198261260986328;1.2258946895599365;-134.76268005371094
173;1673444068.196731;47.130642099999996;7.2406203;44.970001220703125;1673444068.3105507;-27.000028610229492;0.9262487292289734;-134.7602996826172
174;1673444068.416337;47.130642099999996;7.2406203;45.367000579833984;1673444068.4758794;-27.014131546020508;-1.0615026950836182;-134.18124389648438
175;1673444068.6426125;47.130642099999996;7.2406203;45.76900100708008;1673444068.694465;-27.27627944946289;0.565846860408783;-134.56028747558594
176;1673444068.850174;47.130642099999996;7.2406203;46.172000885009766;1673444068.894246;-26.98896598815918;1.579378604888916;-134.9630584716797
177;1673444069.0609293;47.130642099999996;7.2406203;46.573001861572266;1673444069.1671326;-27.1368465423584;-0.5415326356887817;-134.272216796875
178;1673444069.2925084;47.130642099999996;7.2406204;46.970001220703125;1673444069.345021;-27.297325134277344;0.10972913354635239;-134.42539978027344
179;1673444069.431446;47.130642099999996;7.2406203;47.36300277709961;1673444069.48318;-27.143905639648438;1.5185410976409912;-134.98095703125
180;1673444069.5901027;47.1306422;7.2406203;47.76400375366211;1673444069.6507444;-27.171762466430664;-0.4953569769859314;-134.4364776611328
181;1673444069.7620804;47.1306422;7.2406203;48.15300369262695;1673444069.8272023;-27.805950164794922;-0.164460226893425;-134.25772094726562
182;1673444069.948828;47.1306423;7.2406204;48.49100112915039;1673444070.0197313;-27.56165313720703;0.6855220794677734;-134.66758728027344
183;1673444070.152139;47.1306424;7.2406206;48.777000427246094;1673444070.2268636;-27.965322494506836;-0.2384020835161209;-134.37498474121094
184;1673444070.3518527;47.130642599999995;7.2406209;49.0150032043457;1673444070.4177892;-28.680803298950195;0.19667816162109375;-134.43299865722656
185;1673444070.5630467;47.130642699999996;7.2406212;49.2140007019043;1673444070.6295104;-28.929141998291016;0.8565978407859802;-134.67764282226562
186;1673444070.7405672;47.1306429;7.240621399999999;49.37600326538086;1673444070.8143604;-35.801429748535156;6.291346073150635;-133.56253051757812
187;1673444070.9388764;47.1306431;7.2406213;49.4890022277832;1673444071.012254;-30.262441635131836;-4.5185112953186035;-123.45793151855469
188;1673444071.1380754;47.130643299999996;7.240621;49.52000045776367;1673444071.2070725;-28.01902961730957;-12.74083423614502;-113.77685546875
189;1673444071.362985;47.1306434;7.2406209;49.54500198364258;1673444071.428046;-39.353763580322266;-16.47025489807129;-103.32071685791016
190;1673444071.5809088;47.130643199999994;7.2406198999999996;49.58700180053711;1673444071.647938;-27.881696701049805;-19.067249298095703;-95.81706237792969
191;1673444071.763791;47.130642699999996;7.2406182999999995;49.6400032043457;1673444071.8301382;-19.70542335510254;-22.471446990966797;-85.276611328125
192;1673444071.9559548;47.130642099999996;7.2406169;49.68300247192383;1673444072.025869;-17.925785064697266;-25.21322250366211;-75.78901672363281
193;1673444072.1500545;47.130641499999996;7.240615399999999;49.72500228881836;1673444072.212041;-10.232806205749512;-26.056720733642578;-66.82331085205078
194;1673444072.336075;47.130640799999995;7.240614;49.76400375366211;1673444072.406997;-4.959871292114258;-27.946062088012695;-56.5191764831543
195;1673444072.5318928;47.1306401;7.2406128999999995;49.802001953125;1673444072.6230006;0.40015241503715515;-28.34081268310547;-47.08188247680664
196;1673444072.7530005;47.1306395;7.2406121;49.833003997802734;1673444072.8232756;4.604014873504639;-27.34855079650879;-38.50493240356445
197;1673444072.9570615;47.130638999999995;7.240611599999999;49.855003356933594;1673444073.0280404;6.020190715789795;-26.57118034362793;-37.60062789916992
198;1673444073.169615;47.1306386;7.2406114;49.87300109863281;1673444073.2349756;3.517653703689575;-27.13128662109375;-41.436702728271484
199;1673444073.368571;47.1306381;7.2406114;49.88100051879883;1673444073.4447908;0.9700219035148621;-26.436609268188477;-43.44815444946289
200;1673444073.5679104;47.1306377;7.2406117;49.893001556396484;1673444073.6338553;-0.40769654512405396;-28.43976402282715;-44.2553596496582
201;1673444073.7693827;47.1306374;7.240611899999999;49.90900421142578;1673444073.8397732;-0.8511906862258911;-30.423734664916992;-44.84437561035156
202;1673444073.9614654;47.130637199999995;7.2406121;49.927001953125;1673444074.040278;-1.6909160614013672;-31.203588485717773;-44.93346405029297
203;1673444074.1742902;47.130637;7.240612199999999;49.94300079345703;1673444074.2451077;-2.3107526302337646;-30.92043113708496;-45.029640197753906
204;1673444074.3652568;47.1306368;7.2406121;49.957000732421875;1673444074.4342737;-2.789818048477173;-29.41650390625;-45.04594802856445
205;1673444074.5540965;47.1306367;7.240611899999999;49.95900344848633;1673444074.6372218;-2.7822749614715576;-27.544879913330078;-45.020751953125
206;1673444074.7605562;47.1306367;7.240611599999999;49.9640007019043;1673444074.832387;-1.8539966344833374;-27.696537017822266;-45.053829193115234
207;1673444074.9645324;47.1306368;7.240611299999999;49.97200393676758;1673444075.0236714;-0.49516159296035767;-29.394804000854492;-44.98302459716797
208;1673444075.1516905;47.130637;7.2406109;49.983001708984375;1673444075.2298021;0.45274460315704346;-30.701465606689453;-45.09249496459961
209;1673444075.3554358;47.1306371;7.240610599999999;49.993003845214844;1673444075.418444;0.685756266117096;-31.13650894165039;-45.0609016418457
210;1673444075.5874186;47.130637;7.240610299999999;50.000003814697266;1673444075.6712062;0.4595510959625244;-30.202552795410156;-44.93975830078125
211;1673444075.794717;47.130637;7.240609999999999;50.00300216674805;1673444075.862155;-3.438977003097534;-27.740079879760742;-45.25591278076172
212;1673444075.9893944;47.1306369;7.2406096;49.99700164794922;1673444076.0517106;-27.870670318603516;-23.851953506469727;-45.4742546081543
213;1673444076.207209;47.1306376;7.2406082;50.00800323486328;1673444076.270946;-46.1298828125;-17.085742950439453;-47.14299011230469
214;1673444076.3823826;47.130640299999996;7.2406048;50.025001525878906;1673444076.4450412;-55.670654296875;-14.124311447143555;-47.70075607299805
215;1673444076.574272;47.1306455;7.240598599999999;50.02900314331055;1673444076.6487808;-55.85466003417969;-13.151126861572266;-48.25346755981445
216;1673444076.7852564;47.1306533;7.240589699999999;50.0160026550293;1673444076.8542175;-54.24767303466797;-12.712970733642578;-50.29438018798828
217;1673444077.012342;47.130663299999995;7.2405785;50.00100326538086;1673444077.0750408;-54.5946159362793;-12.80977725982666;-52.188480377197266
218;1673444077.1949818;47.130675;7.2405650999999995;49.97800064086914;1673444077.2612565;-53.22321701049805;-13.327676773071289;-52.156044006347656
219;1673444077.3940818;47.130688199999994;7.2405498999999995;49.94900131225586;1673444077.4731493;-52.659488677978516;-14.47728157043457;-51.147560119628906
220;1673444077.6051497;47.1307025;7.2405333;49.910003662109375;1673444077.675733;-50.53008270263672;-13.451396942138672;-50.64249801635742
221;1673444077.8216693;47.1307177;7.2405155;49.871002197265625;1673444077.8756998;-49.27583694458008;-14.752899169921875;-49.70828628540039
222;1673444077.995393;47.1307336;7.2404968;49.827003479003906;1673444078.0844517;-46.417903900146484;-13.875632286071777;-50.167816162109375
223;1673444078.1992264;47.1307499;7.240477599999999;49.7910041809082;1673444078.2683496;-45.15500259399414;-15.448725700378418;-49.7849235534668
224;1673444078.4039776;47.1307666;7.240457999999999;49.76700210571289;1673444078.4702077;-45.25691604614258;-16.522066116333008;-50.05241775512695
225;1673444078.5889478;47.130783199999996;7.2404382;49.755001068115234;1673444078.6555114;-45.5521125793457;-19.41913604736328;-50.06855392456055
226;1673444078.7713056;47.1307998;7.2404177;49.75100326538086;1673444078.835315;-47.05277633666992;-23.521888732910156;-53.61046600341797
227;1673444078.9652493;47.1308161;7.240396499999999;49.7400016784668;1673444079.0402977;-44.039100646972656;-15.118523597717285;-57.85695266723633
228;1673444079.1779664;47.1308321;7.2403749;49.7140007019043;1673444079.2518766;-39.04997253417969;-17.72622299194336;-53.34965896606445
229;1673444079.3763092;47.1308479;7.2403534;49.708003997802734;1673444079.4393883;-44.35616683959961;-20.866924285888672;-52.82322311401367
230;1673444079.5610611;47.1308632;7.2403318;49.720001220703125;1673444079.651878;-47.10103988647461;-24.00236701965332;-53.79679870605469
231;1673444079.7714984;47.1308781;7.2403096;49.733001708984375;1673444079.841908;-45.9754753112793;-26.64774513244629;-54.557186126708984
232;1673444079.9725702;47.1308924;7.240286599999999;49.73200225830078;1673444080.0499113;-39.23688507080078;-31.87040138244629;-54.719669342041016
233;1673444080.1802094;47.1309057;7.2402634;49.72100067138672;1673444080.2499387;-15.403860092163086;-41.687034606933594;-58.282798767089844
234;1673444080.377041;47.1309174;7.2402413;49.67900085449219;1673444080.4461343;11.45102310180664;-24.514719009399414;-65.16898345947266
235;1673444080.5890958;47.1309274;7.2402222;49.56800079345703;1673444080.6660829;12.946598052978516;-8.350848197937012;-53.77004623413086
236;1673444080.7772746;47.130936299999995;7.2402077;49.4630012512207;1673444080.8500853;22.950834274291992;-10.442699432373047;-45.71435546875
237;1673444080.980059;47.1309441;7.2401982;49.43700408935547;1673444081.0599146;36.415733337402344;-15.389653205871582;-46.32867431640625
238;1673444081.2048688;47.1309499;7.2401936;49.45900344848633;1673444081.2897847;39.57032775878906;-17.753374099731445;-45.89596939086914
239;1673444081.436498;47.130953899999994;7.240193199999999;49.49400329589844;1673444081.491751;42.09247589111328;-21.88867950439453;-45.537532806396484
240;1673444081.6016817;47.1309556;7.2401965;49.5410041809082;1673444081.6622365;44.88744354248047;-27.704132080078125;-45.796207427978516
241;1673444081.7921584;47.1309549;7.240202699999999;49.59800338745117;1673444081.8526638;46.1523323059082;-33.3537483215332;-45.06767272949219
242;1673444081.9718592;47.1309514;7.2402109;49.66400146484375;1673444082.0434587;39.3503532409668;-39.80048370361328;-44.03837585449219
243;1673444082.212318;47.130945499999996;7.2402199;49.73100280761719;1673444082.2753298;26.546506881713867;-45.50630187988281;-45.91819381713867
244;1673444082.391867;47.130938;7.2402280999999995;49.781002044677734;1673444082.4783103;11.471457481384277;-44.40206527709961;-47.2777214050293
245;1673444082.6151204;47.130929699999996;7.2402352;49.81200408935547;1673444082.7078109;0.9817391037940979;-38.587730407714844;-50.204402923583984
246;1673444082.8932672;47.1309213;7.2402413;49.829002380371094;1673444082.9615881;4.0949811935424805;-36.146339416503906;-52.67871856689453
247;1673444083.0587564;47.1309131;7.2402465;49.8380012512207;1673444083.1129787;8.874576568603516;-36.94635772705078;-52.0700798034668
248;1673444083.215296;47.130905;7.2402513;49.840003967285156;1673444083.2763731;12.070959091186523;-36.621482849121094;-51.658626556396484
249;1673444083.3920903;47.130896899999996;7.240255899999999;49.842002868652344;1673444083.4624634;17.835203170776367;-33.40951919555664;-51.413658142089844
250;1673444083.5857227;47.1308887;7.240260699999999;49.8390007019043;1673444083.6475282;19.703832626342773;-29.1535587310791;-50.8629150390625
251;1673444083.770276;47.1308806;7.2402662;49.833003997802734;1673444083.8465545;16.56188201904297;-21.38762092590332;-50.244590759277344
252;1673444083.968651;47.1308728;7.2402722;49.66200256347656;1673444084.034324;5.35321569442749;6.347827434539795;-50.0640869140625
253;1673444084.1534812;47.130865199999995;7.2402783;49.12200164794922;1673444084.223407;-9.308802604675293;50.876258850097656;-58.56449890136719
254;1673444084.349067;47.1308578;7.2402845;48.18800354003906;1673444084.4191456;-14.321415901184082;101.16886901855469;-75.89043426513672
255;1673444084.5693135;47.1308503;7.2402906;46.88500213623047;1673444084.6370804;-9.081795692443848;134.3944854736328;-87.79634094238281
256;1673444084.7779453;47.1308429;7.2402969;45.22100067138672;1673444084.8493018;-6.396390438079834;142.53048706054688;-92.44273376464844
257;1673444084.9850068;47.1308359;7.2403033;43.18100357055664;1673444085.0546432;-11.090578079223633;124.25431823730469;-92.50691986083984
258;1673444085.181812;47.1308291;7.2403097999999995;40.7920036315918;1673444085.2552106;-18.14776039123535;76.42877197265625;-80.23210906982422
259;1673444085.3831336;47.1308223;7.240316399999999;38.053001403808594;1673444085.4534047;-5.918240547180176;11.466439247131348;-61.21208953857422
260;1673444085.5785162;47.130815399999996;7.240323;34.913002014160156;1673444085.6459932;16.62400245666504;-38.21925354003906;-59.331024169921875
261;1673444085.8125648;47.130809;7.2403298;31.39000129699707;1673444085.8792088;29.290924072265625;-56.03078842163086;-61.813079833984375
262;1673444086.0236363;47.1308029;7.2403368;27.53900146484375;1673444086.0817716;27.83939552307129;-30.83685874938965;-49.271976470947266
263;1673444086.2525938;47.130797199999996;7.2403439;23.352001190185547;1673444086.3043723;-0.18388308584690094;21.055511474609375;-39.927574157714844
264;1673444086.4859374;47.1307919;7.2403509999999995;18.756000518798828;1673444086.5318897;-29.363496780395508;73.44185638427734;-59.35111618041992
265;1673444086.6394088;47.1307863;7.240357899999999;13.805000305175781;1673444086.7107291;-41.34864807128906;94.35260772705078;-76.89884948730469
266;1673444086.8371813;47.130780699999995;7.240364899999999;8.551000595092773;1673444086.9061627;-45.98286056518555;47.33686065673828;-50.72962951660156
267;1673444087.0278497;47.1307749;7.2403717;2.9800002574920654;1673444087.097488;-9.37562370300293;-11.562247276306152;-25.099519729614258
268;1673444087.2494113;47.1307745;7.240374;0.3150000274181366;1673444087.3025863;2.234055757522583;4.885408401489258;-30.27858543395996
269;1673444087.4056034;47.130778899999996;7.2403694;0.37800002098083496;1673444087.499005;2.2057394981384277;6.165874004364014;-34.4245491027832
270;1673444087.6371007;47.130783099999995;7.240363599999999;0.37800002098083496;1673444087.7337558;2.0442819595336914;6.935809135437012;-33.88203811645508
271;1673444087.839371;47.130787;7.2403588;0.37300002574920654;1673444087.8971992;2.0993669033050537;7.177189826965332;-33.4592170715332
272;1673444088.0158827;47.130790399999995;7.2403553;0.36000001430511475;1673444088.0827816;2.1502068042755127;7.124613285064697;-33.16840362548828
273;1673444088.246738;47.1307933;7.2403531;0.3440000116825104;1673444088.3110363;2.2883834838867188;6.822700500488281;-32.848182678222656
274;1673444088.4245143;47.1307955;7.240352;0.32600000500679016;1673444088.4827082;2.474005699157715;6.585265159606934;-32.56576156616211
275;1673444088.6064823;47.130797;7.2403521;0.30900001525878906;1673444088.6719623;2.6695265769958496;6.420746803283691;-32.33074951171875
276;1673444088.793312;47.130797799999996;7.2403528999999995;0.29600000381469727;1673444088.868614;2.8703739643096924;6.347522735595703;-32.12998580932617
277;1673444088.9765623;47.1307993;7.240353799999999;0.2840000092983246;1673444089.0395427;3.037745237350464;6.226934909820557;-31.97174072265625
278;1673444089.163552;47.130793999999995;7.240354399999999;0.30100002884864807;1673444089.2388427;3.8791208267211914;5.784355640411377;-32.3828010559082
279;1673444089.3783638;47.130787399999996;7.2403558;0.3230000138282776;1673444089.4390614;4.194146156311035;5.837888717651367;-32.38695526123047
280;1673444089.5635784;47.1307822;7.240357599999999;0.33500000834465027;1673444089.6537588;4.299217224121094;5.875765323638916;-32.311912536621094
281;1673444089.7810714;47.1307784;7.2403594;0.33900001645088196;1673444089.8474567;4.36112642288208;5.807415008544922;-32.27077865600586
282;1673444089.9770267;47.130775899999996;7.240361;0.33500000834465027;1673444090.0400271;4.429684162139893;5.749751567840576;-32.195152282714844
283;1673444090.1763952;47.1307745;7.2403628;0.32600000500679016;1673444090.2484744;4.4346232414245605;5.7557902336120605;-32.13127899169922
284;1673444090.3879237;47.1307735;7.2403641;0.3110000193119049;1673444090.4504247;4.398904323577881;5.643472671508789;-32.094058990478516
285;1673444090.5769308;47.130772799999995;7.2403651;0.2939999997615814;1673444090.6483922;4.3026909828186035;5.518518924713135;-32.07133483886719
286;1673444090.8042922;47.1307723;7.240365799999999;0.2760000228881836;1673444090.8695314;4.272996425628662;5.428037166595459;-32.03319549560547
287;1673444090.994254;47.1307719;7.2403666;0.25600001215934753;1673444091.0676382;4.159547328948975;5.315117835998535;-32.00103759765625
288;1673444091.2049901;47.130771599999996;7.2403673;0.23500001430511475;1673444091.278232;4.115800857543945;5.180225849151611;-31.95325469970703
289;1673444091.4091713;47.1307713;7.240367999999999;0.2160000056028366;1673444091.4755874;4.014364242553711;5.019279479980469;-31.941879272460938
290;1673444091.6361318;47.130770999999996;7.240369599999999;0.1940000057220459;1673444091.706945;3.9582650661468506;4.933927536010742;-31.881486892700195
291;1673444091.8284502;47.1307708;7.2403707;0.17400000989437103;1673444091.8988874;3.88923978805542;4.76331901550293;-31.8444881439209
292;1673444092.0041845;47.1307706;7.240371499999999;0.1550000011920929;1673444092.0754778;3.740283966064453;4.542654991149902;-31.815732955932617
293;1673444092.2072399;47.1307705;7.240372;0.1340000033378601;1673444092.2717018;3.6204769611358643;4.378884315490723;-31.7887020111084
294;1673444092.399489;47.1307705;7.240372499999999;0.11500000208616257;1673444092.463075;3.5051944255828857;4.177988052368164;-31.742332458496094
295;1673444092.5912166;47.130770399999996;7.2403729;0.09700000286102295;1673444092.653694;3.334575891494751;4.014319896697998;-31.719331741333008
296;1673444092.7849648;47.1307701;7.2403743;0.07700000703334808;1673444092.8543994;3.3414077758789062;3.9139676094055176;-31.685775756835938
297;1673444092.9914207;47.130769799999996;7.2403752;0.06300000101327896;1673444093.056192;3.196704626083374;3.71384859085083;-31.654550552368164
298;1673444093.1762166;47.130769799999996;7.240375599999999;0.05400000140070915;1673444093.2445796;3.0072500705718994;3.5501673221588135;-31.607585906982422
299;1673444093.3658955;47.130769699999995;7.2403758;0.04700000211596489;1673444093.431882;2.832385540008545;3.422502279281616;-31.588823318481445
300;1673444093.5632772;47.130769699999995;7.2403759;0.0430000014603138;1673444093.6397822;2.7212085723876953;3.278831958770752;-31.57576560974121
301;1673444093.7576036;47.130769699999995;7.2403759999999995;0.03700000047683716;1673444093.8285723;2.563796281814575;2.9123849868774414;-31.586143493652344
302;1673444093.9541461;47.130769699999995;7.2403759999999995;0.03100000135600567;1673444094.0173173;2.388474464416504;2.1167612075805664;-31.6013126373291
303;1673444094.1488938;47.1307694;7.240376899999999;0.02800000086426735;1673444094.2249444;2.395275115966797;1.708702564239502;-31.575979232788086
304;1673444094.3580093;47.1307693;7.2403774;0.017000000923871994;1673444094.4186945;2.2990283966064453;1.4221549034118652;-31.58050537109375
305;1673444094.5421648;47.130769199999996;7.2403775999999995;0.009000000543892384;1673444094.6079872;2.1783456802368164;1.1261913776397705;-31.543048858642578
306;1673444094.7421427;47.130769199999996;7.2403775999999995;0.0;1673444094.8148239;2.0020885467529297;0.8702024221420288;-31.518648147583008
307;1673444094.9458966;47.130769199999996;7.240377499999999;-0.00800000037997961;;;;
