;pos_time;latitude;longitude;altitude;alt_time;pitch;roll;yaw
0;1673305841.6158872;47.1306425;7.2406198999999996;-0.00800000037997961;1673305841.6354077;0.03702070564031601;0.26937684416770935;90.44477844238281
1;1673305841.803405;47.1306425;7.2406198999999996;-0.00800000037997961;1673305841.8248768;-0.05567387863993645;0.3267708420753479;90.6124267578125
2;1673305841.999743;47.1306425;7.2406198999999996;-0.01100000087171793;1673305842.0221896;-0.13342046737670898;-0.1128448024392128;90.4585952758789
3;1673305842.2109916;47.1306424;7.2406198999999996;-0.012000000104308128;1673305842.234421;-0.1237509474158287;-0.23155009746551514;90.563232421875
4;1673305842.424842;47.1306424;7.2406198999999996;-0.01100000087171793;1673305842.4504933;-0.02320817857980728;0.11431832611560822;90.48238372802734
5;1673305842.6373014;47.1306424;7.240619799999999;-0.015000000596046448;1673305842.6597617;0.12722039222717285;-0.11267106235027313;90.42864990234375
6;1673305842.8384311;47.1306424;7.240619799999999;-0.021000001579523087;1673305842.8618536;0.18332742154598236;-0.1688583642244339;90.64417266845703
7;1673305843.0269122;47.1306424;7.2406197;-0.024000000208616257;1673305843.0474453;-0.06261738389730453;-0.06894389539957047;90.4896469116211
8;1673305843.2300456;47.1306424;7.2406197;-0.023000001907348633;1673305843.252597;-0.017026713117957115;-0.2365899533033371;90.64481353759766
9;1673305843.4204483;47.1306424;7.240619799999999;-0.02200000174343586;1673305843.4400826;-0.23581992089748383;-0.12404340505599976;90.49462890625
10;1673305843.6009922;47.1306424;7.2406198999999996;-0.021000001579523087;1673305843.629295;-0.12159732729196548;0.011817567050457;90.3515625
11;1673305843.8302526;47.1306424;7.2406198999999996;-0.020000001415610313;1673305843.8536766;0.018367959186434746;-0.21000121533870697;90.47592163085938
12;1673305844.034587;47.1306424;7.2406198999999996;-0.021000001579523087;1673305844.0540903;0.25484323501586914;-0.05904419347643852;90.6156997680664
13;1673305844.2213924;47.1306424;7.2406198999999996;-0.02200000174343586;1673305844.243967;-0.01493967417627573;-0.02506726048886776;90.40621185302734
14;1673305844.4046073;47.1306425;7.240619799999999;-0.0010000000474974513;1673305844.4261196;-0.08085537701845169;-0.8878045082092285;90.4499740600586
15;1673305844.5987532;47.1306425;7.240619799999999;-0.004000000189989805;1673305844.621255;0.1290198713541031;-0.6664443016052246;90.33114624023438
16;1673305844.8088067;47.130642599999995;7.2406198999999996;-0.0010000000474974513;1673305844.8332064;0.09789098054170609;-0.8310529589653015;90.30486297607422
17;1673305845.0246725;47.130642599999995;7.2406198999999996;0.0010000000474974513;1673305845.0471535;0.147923082113266;-0.7451229095458984;90.63455963134766
18;1673305845.2352624;47.130642599999995;7.24062;0.004000000189989805;1673305845.2603292;-0.2631770372390747;-0.7685974836349487;90.4898681640625
19;1673305845.4533534;47.130642599999995;7.24062;0.004000000189989805;1673305845.4752297;0.08441086858510971;-0.6632336974143982;90.30072021484375
20;1673305845.647462;47.130642599999995;7.24062;0.004000000189989805;1673305845.6703134;0.16705304384231567;-1.1619027853012085;90.58112335205078
21;1673305845.8345044;47.130642599999995;7.24062;0.004000000189989805;1673305845.8575025;0.062110308557748795;-0.8374872207641602;90.24554443359375
22;1673305846.029331;47.1306425;7.24062;0.0020000000949949026;1673305846.0502708;0.034779299050569534;-0.9183810949325562;90.39573669433594
23;1673305846.2197516;47.130642599999995;7.24062;0.0;1673305846.243267;0.12511281669139862;-1.1261190176010132;90.0710220336914
24;1673305846.4373968;47.130642599999995;7.24062;0.0010000000474974513;1673305846.45656;0.1157773807644844;-1.0363106727600098;89.99150848388672
25;1673305846.6251457;47.130642599999995;7.24062;0.003000000026077032;1673305846.64847;0.331822007894516;-0.4508911669254303;90.2021484375
26;1673305846.8208094;47.130642599999995;7.2406198999999996;0.0020000000949949026;1673305846.843019;0.32978320121765137;-0.702411949634552;90.1485366821289
27;1673305847.0241299;47.130642699999996;7.2406198999999996;0.0020000000949949026;1673305847.045371;0.37698617577552795;-0.5404988527297974;89.21226501464844
28;1673305847.2573452;47.130642699999996;7.2406198999999996;0.009000000543892384;1673305847.283066;0.8547872304916382;-0.7673916816711426;88.61117553710938
29;1673305847.4691525;47.130642699999996;7.2406198999999996;0.014000000432133675;1673305847.4910593;1.5337860584259033;-0.6934049725532532;88.13359069824219
30;1673305847.6473134;47.1306428;7.240619799999999;0.017000000923871994;1673305847.6700644;1.2275185585021973;-0.38267916440963745;85.71443176269531
31;1673305847.831102;47.130643199999994;7.2406193;0.013000000268220901;1673305847.8522675;-0.22777612507343292;0.9318267703056335;77.14047241210938
32;1673305848.0350726;47.1306437;7.2406185;0.01600000075995922;1673305848.0601633;-1.1023306846618652;3.9296350479125977;80.49237823486328
33;1673305848.2410583;47.1306444;7.240617299999999;0.03100000135600567;1673305848.2613487;-5.203219413757324;6.3130717277526855;85.70092010498047
34;1673305848.44234;47.130645099999995;7.240615999999999;0.05100000277161598;1673305848.46424;-9.890595436096191;10.273927688598633;87.14727020263672
35;1673305848.6263983;47.130646;7.240614399999999;0.07900000363588333;1673305848.6466007;-12.161287307739258;13.180543899536133;87.34339904785156
36;1673305848.8242593;47.1306467;7.2406128;0.11900000274181366;1673305848.8460681;-13.106905937194824;14.693682670593262;87.48818969726562
37;1673305849.0151994;47.1306474;7.2406114;0.1730000078678131;1673305849.0365312;-14.586915016174316;14.688163757324219;87.87406921386719
38;1673305849.2105744;47.130648;7.2406102;0.2410000115633011;1673305849.2335608;-16.68876838684082;14.51623821258545;88.2326431274414
39;1673305849.4165676;47.1306484;7.2406095;0.3160000145435333;1673305849.4380858;-17.880096435546875;17.08934211730957;88.20100402832031
40;1673305849.6163492;47.1306485;7.2406090999999995;0.406000018119812;1673305849.6373992;-18.78421974182129;19.1973934173584;88.18746185302734
41;1673305849.8202386;47.1306484;7.240609399999999;0.5060000419616699;1673305849.845613;-20.9134464263916;17.259614944458008;88.68598175048828
42;1673305850.0156188;47.1306479;7.240610299999999;0.6140000224113464;1673305850.037122;-19.97423553466797;15.688699722290039;89.2352294921875
43;1673305850.2244887;47.1306471;7.240611599999999;0.734000027179718;1673305850.252792;-17.55858039855957;18.12973976135254;88.88616943359375
44;1673305850.44896;47.1306462;7.240613199999999;0.862000048160553;1673305850.4772956;-15.383522987365723;13.488211631774902;89.72769927978516
45;1673305850.6394937;47.1306453;7.2406147999999995;0.9940000176429749;1673305850.66296;-13.817298889160156;10.498188018798828;90.42481994628906
46;1673305850.8262732;47.1306444;7.2406163;1.1400001049041748;1673305850.8506954;-11.99047565460205;13.371695518493652;89.5128173828125
47;1673305851.0362065;47.1306438;7.240617599999999;1.2980000972747803;1673305851.0558624;-10.513249397277832;11.889484405517578;89.58539581298828
48;1673305851.2388859;47.1306435;7.2406185;1.4620000123977661;1673305851.2663622;-10.589301109313965;8.50031852722168;90.2513198852539
49;1673305851.4513144;47.130643199999994;7.2406191;1.6410000324249268;1673305851.4727933;-10.869161605834961;13.170333862304688;84.97879028320312
50;1673305851.6485755;47.130643;7.2406194;1.8330000638961792;1673305851.670201;-10.50622844696045;12.983111381530762;85.5832290649414
51;1673305851.8497307;47.1306429;7.2406194;2.0350000858306885;1673305851.8712175;-11.773611068725586;10.270084381103516;86.65930938720703
52;1673305852.0576782;47.1306429;7.240619199999999;2.2330000400543213;1673305852.0852664;-12.45101547241211;12.758249282836914;86.37982940673828
53;1673305852.2734153;47.1306429;7.240619;2.436000108718872;1673305852.295861;-13.154908180236816;15.653799057006836;85.77946472167969
54;1673305852.4823399;47.1306431;7.2406188;2.640000104904175;1673305852.5087945;-13.581903457641602;11.914041519165039;86.57537841796875
55;1673305852.665151;47.1306431;7.2406185999999995;2.8410000801086426;1673305852.689554;-14.03328800201416;12.982433319091797;86.48196411132812
56;1673305852.838166;47.1306431;7.2406185999999995;3.0340001583099365;1673305852.859639;-13.818422317504883;16.298133850097656;85.9974365234375
57;1673305853.0570052;47.130643;7.2406187;3.2260000705718994;1673305853.0814466;-14.172724723815918;13.061237335205078;86.58387756347656
58;1673305853.24942;47.1306429;7.2406188;3.4170000553131104;1673305853.270902;-14.163601875305176;11.702320098876953;86.92938995361328
59;1673305853.4301872;47.1306428;7.240619;3.6100001335144043;1673305853.4516735;-13.756534576416016;15.63145923614502;86.05876159667969
60;1673305853.6405613;47.130642699999996;7.240619199999999;3.807000160217285;1673305853.667169;-13.087516784667969;13.740453720092773;86.28453063964844
61;1673305853.857269;47.1306428;7.240619499999999;4.006999969482422;1673305853.874827;-13.09637451171875;11.32241439819336;86.89594268798828
62;1673305854.0305843;47.1306428;7.2406198999999996;4.209000110626221;1673305854.0530286;-12.452664375305176;15.371254920959473;86.30460357666016
63;1673305854.2459133;47.130642699999996;7.2406201;4.410000324249268;1673305854.267384;-12.134246826171875;15.166951179504395;86.24812316894531
64;1673305854.466865;47.130642699999996;7.2406203;4.611000061035156;1673305854.4913847;-12.229048728942871;11.42387866973877;86.69945526123047
65;1673305854.665786;47.130642699999996;7.2406203;4.809000015258789;1673305854.6863801;-12.476499557495117;13.47066879272461;86.47247314453125
66;1673305854.872646;47.130642699999996;7.2406203;5.010000228881836;1673305854.8950891;-12.421160697937012;15.998754501342773;85.93854522705078
67;1673305855.0488307;47.1306428;7.2406201999999995;5.212000370025635;1673305855.0722542;-12.706809043884277;12.175190925598145;86.62007141113281
68;1673305855.3032372;47.1306429;7.2406201999999995;5.410000324249268;1673305855.3259697;-12.886300086975098;12.71863842010498;86.63723754882812
69;1673305855.5217814;47.1306429;7.2406201999999995;5.6060004234313965;1673305855.5330837;-12.70002269744873;16.564178466796875;85.88591003417969
70;1673305855.7106571;47.1306428;7.2406201;5.800000190734863;1673305855.73089;-12.862491607666016;13.317852973937988;86.56387329101562
71;1673305855.8824205;47.130642699999996;7.2406201;5.993000507354736;1673305855.9019399;-13.349766731262207;11.519128799438477;86.99401092529297
72;1673305856.066245;47.1306425;7.2406201;6.188000202178955;1673305856.0828302;-13.030898094177246;15.078753471374512;86.01537322998047
73;1673305856.255122;47.130642599999995;7.2406201;6.386000156402588;1673305856.2766254;-12.73001766204834;14.310009956359863;86.00238037109375
74;1673305856.4621794;47.130642699999996;7.2406201;6.581000328063965;1673305856.4846268;-13.165274620056152;11.605877876281738;86.86139678955078
75;1673305856.6594682;47.130642699999996;7.2406201999999995;6.773000240325928;1673305856.6780431;-12.982254981994629;14.992219924926758;86.36923217773438
76;1673305856.8572013;47.130642599999995;7.2406201999999995;6.962000370025635;1673305856.8786728;-12.549395561218262;14.912930488586426;86.19257354736328
77;1673305857.0518742;47.130642699999996;7.2406201999999995;7.156000137329102;1673305857.071392;-12.99367904663086;11.902262687683105;86.73799896240234
78;1673305857.2442067;47.130642699999996;7.2406201999999995;7.3510003089904785;1673305857.2657259;-12.93097972869873;13.556523323059082;86.38617706298828
79;1673305857.4426546;47.130642699999996;7.2406203;7.548000335693359;1673305857.4651306;-12.700393676757812;16.075685501098633;85.96485900878906
80;1673305857.6278849;47.130642699999996;7.2406203;7.748000144958496;1673305857.6469615;-12.742134094238281;11.69050407409668;86.84185791015625
81;1673305857.8375537;47.1306428;7.2406203;7.950000286102295;1673305857.8658426;-12.960763931274414;13.482818603515625;86.6023941040039
82;1673305858.0691066;47.1306428;7.2406203;8.146000862121582;1673305858.090577;-12.653376579284668;16.368392944335938;86.01478576660156
83;1673305858.2579753;47.1306428;7.2406203;8.3410005569458;1673305858.281431;-12.708247184753418;12.888309478759766;86.63935852050781
84;1673305858.4722648;47.130642699999996;7.2406203;8.53700065612793;1673305858.4928339;-13.158960342407227;11.762289047241211;86.7183609008789
85;1673305858.6639447;47.130642699999996;7.2406201999999995;8.734000205993652;1673305858.6834626;-12.840335845947266;16.13511085510254;85.87682342529297
86;1673305858.8525834;47.1306428;7.2406201999999995;8.932000160217285;1673305858.8732376;-12.731282234191895;13.682533264160156;86.54682922363281
87;1673305859.041989;47.1306429;7.2406203;9.12700080871582;1673305859.0674949;-13.151944160461426;11.975591659545898;86.91571044921875
88;1673305859.2454102;47.1306429;7.2406203;9.320000648498535;1673305859.2698293;-12.738898277282715;16.11353874206543;86.20252990722656
89;1673305859.44986;47.1306429;7.2406204;9.510000228881836;1673305859.4732823;-12.494277000427246;14.834002494812012;86.23896789550781
90;1673305859.6565485;47.1306429;7.2406204;9.705000877380371;1673305859.6780193;-12.742972373962402;11.823538780212402;86.84322357177734
91;1673305859.87937;47.1306428;7.2406204;9.898000717163086;1673305859.9027991;-12.879888534545898;14.599786758422852;86.2264633178711
92;1673305860.0622876;47.1306428;7.2406204;10.093000411987305;1673305860.0810182;-12.446176528930664;15.925867080688477;86.03270721435547
93;1673305860.2382658;47.1306429;7.2406204999999995;10.332000732421875;1673305860.259727;-12.311972618103027;11.33450984954834;86.7827377319336
94;1673305860.4491854;47.1306428;7.2406207;10.671000480651855;1673305860.482664;-14.52395248413086;15.551960945129395;86.76557922363281
95;1673305860.7595084;47.1306425;7.240621099999999;11.038000106811523;1673305860.7721872;-13.106620788574219;17.404098510742188;86.27225494384766
96;1673305860.951213;47.130641999999995;7.2406215;11.422000885009766;1673305860.9639142;-12.073945999145508;13.080183029174805;86.26943969726562
97;1673305861.1241267;47.1306416;7.2406219;11.812000274658203;1673305861.1407907;-11.782953262329102;10.453237533569336;86.77822875976562
98;1673305861.274045;47.1306413;7.2406222;12.210000991821289;1673305861.2925904;-10.868057250976562;12.725689888000488;86.16090393066406
99;1673305861.4526825;47.1306412;7.2406223999999995;12.61400032043457;1673305861.4702516;-10.535478591918945;12.587821006774902;86.11334991455078
100;1673305861.6353655;47.1306413;7.2406223999999995;13.021000862121582;1673305861.6568384;-10.889700889587402;9.293365478515625;86.85823059082031
101;1673305861.8315387;47.130641399999995;7.2406223;13.428000450134277;1673305861.8526013;-11.263774871826172;13.108586311340332;86.36001586914062
102;1673305862.0383563;47.1306416;7.2406220999999995;13.832000732421875;1673305862.0647123;-11.286116600036621;14.850000381469727;85.88278198242188
103;1673305862.2493517;47.1306417;7.2406217999999996;14.237000465393066;1673305862.2708275;-12.091388702392578;11.931097984313965;86.53617858886719
104;1673305862.4388967;47.1306419;7.2406215;14.637001037597656;1673305862.4593916;-12.541007041931152;12.890527725219727;86.60630798339844
105;1673305862.6361217;47.130641999999995;7.2406212;15.043001174926758;1673305862.658638;-12.58261775970459;16.008808135986328;86.10208129882812
106;1673305862.8340178;47.1306422;7.240621099999999;15.453001022338867;1673305862.860071;-12.610994338989258;13.802931785583496;86.5387191772461
107;1673305863.0397172;47.1306423;7.240621;15.862000465393066;1673305863.0670366;-12.887809753417969;12.213788986206055;86.75818634033203
108;1673305863.2559078;47.1306423;7.2406209;16.269001007080078;1673305863.2823448;-12.463894844055176;16.28019142150879;86.0942611694336
109;1673305863.4567318;47.1306423;7.2406209;16.672000885009766;1673305863.482108;-12.616634368896484;13.84009075164795;86.45663452148438
110;1673305863.6527417;47.1306422;7.2406209;17.071001052856445;1673305863.6742015;-12.595698356628418;11.545247077941895;86.99128723144531
111;1673305863.8475695;47.130642099999996;7.2406209;17.470001220703125;1673305863.870015;-12.34869384765625;14.127842903137207;86.31970977783203
112;1673305864.0336964;47.130642099999996;7.240621;17.867000579833984;1673305864.0587943;-11.912116050720215;14.781320571899414;86.1968765258789
113;1673305864.2436738;47.1306422;7.240621;18.268001556396484;1673305864.2661674;-12.35562515258789;10.82829475402832;86.87724304199219
114;1673305864.4481547;47.1306423;7.240621;18.668001174926758;1673305864.4678428;-12.05184555053711;13.763118743896484;86.39856719970703
115;1673305864.6560051;47.1306423;7.2406209;19.06800079345703;1673305864.6755564;-11.806876182556152;15.672676086425781;85.88170623779297
116;1673305864.845787;47.1306423;7.2406209;19.466001510620117;1673305864.8756511;-12.110533714294434;12.281181335449219;86.48489379882812
117;1673305865.0547671;47.1306423;7.240620799999999;19.85500144958496;1673305865.0753102;-12.335543632507324;12.590727806091309;86.68526458740234
118;1673305865.2532606;47.1306423;7.2406207;20.249000549316406;1673305865.2757201;-11.994098663330078;15.714584350585938;86.08901977539062
119;1673305865.442063;47.1306424;7.2406206;20.647001266479492;1673305865.4645476;-12.36117172241211;13.816730499267578;86.45039367675781
120;1673305865.640166;47.1306425;7.2406204999999995;21.04400062561035;1673305865.6612158;-12.560235023498535;11.652030944824219;86.81172943115234
121;1673305865.834522;47.130642599999995;7.2406204;21.43800163269043;1673305865.857631;-12.41933536529541;15.981398582458496;86.15377807617188
122;1673305866.041745;47.1306425;7.2406204;21.82900047302246;1673305866.0637443;-12.185101509094238;14.279550552368164;86.22230529785156
123;1673305866.2351668;47.1306425;7.2406203;22.214000701904297;1673305866.257182;-12.648051261901855;11.849543571472168;86.6978759765625
124;1673305866.4466856;47.1306424;7.2406203;22.60300064086914;1673305866.46914;-12.366767883300781;14.467772483825684;86.36015319824219
125;1673305866.6395454;47.1306424;7.2406203;22.999000549316406;1673305866.6615818;-12.148942947387695;15.539777755737305;86.04939270019531
126;1673305866.8564935;47.1306425;7.2406203;23.398000717163086;1673305866.8801973;-12.439846992492676;11.455429077148438;86.86305236816406
127;1673305867.0922701;47.1306425;7.2406203;23.796001434326172;1673305867.1139123;-12.291263580322266;13.64844799041748;86.54003143310547
128;1673305867.2761135;47.1306425;7.2406201999999995;24.19300079345703;1673305867.296852;-12.116939544677734;16.31983757019043;86.04932403564453
129;1673305867.4696436;47.1306425;7.2406201999999995;24.588001251220703;1673305867.4911134;-12.238548278808594;12.429003715515137;86.73448181152344
130;1673305867.6634657;47.1306425;7.2406201999999995;24.977001190185547;1673305867.6830275;-12.395828247070312;12.276074409484863;86.78435516357422
131;1673305867.866764;47.1306424;7.2406201;25.373001098632812;1673305867.8892107;-12.037795066833496;15.633055686950684;86.01724243164062
132;1673305868.0788076;47.1306425;7.2406201;25.770000457763672;1673305868.0993052;-12.26367473602295;13.6170072555542;86.36138153076172
133;1673305868.269532;47.130642599999995;7.24062;26.170001983642578;1673305868.2909973;-12.44751262664795;12.323088645935059;86.68514251708984
134;1673305868.463925;47.130642599999995;7.24062;26.569002151489258;1673305868.4837742;-12.39217758178711;16.189437866210938;86.16996765136719
135;1673305868.6990428;47.1306425;7.24062;26.96700096130371;1673305868.7156346;-12.204041481018066;14.729272842407227;86.25324249267578
136;1673305868.8548577;47.1306425;7.24062;27.35700035095215;1673305868.8753526;-12.501038551330566;11.603392601013184;86.8901138305664
137;1673305869.046662;47.1306424;7.24062;27.751001358032227;1673305869.0686677;-12.162067413330078;14.031105041503906;86.36196899414062
138;1673305869.2441392;47.1306423;7.24062;28.147001266479492;1673305869.2682588;-12.133796691894531;15.644124031066895;86.04983520507812
139;1673305869.4528782;47.1306424;7.2406198999999996;28.54400062561035;1673305869.4774919;-12.527481079101562;11.531543731689453;86.83345794677734
140;1673305869.6797376;47.1306425;7.2406198999999996;28.939001083374023;1673305869.6998646;-12.427895545959473;13.948600769042969;86.44584655761719
141;1673305869.8615339;47.1306425;7.2406198999999996;29.336000442504883;1673305869.8820283;-12.083011627197266;16.390562057495117;85.95030975341797
142;1673305870.054283;47.1306425;7.2406198999999996;29.733001708984375;1673305870.0777256;-12.233034133911133;12.943699836730957;86.46977233886719
143;1673305870.2575014;47.1306424;7.2406198999999996;30.125001907348633;1673305870.277009;-12.66151237487793;12.109013557434082;86.74089813232422
144;1673305870.4425752;47.1306424;7.2406198999999996;30.524002075195312;1673305870.4665797;-12.18586254119873;15.611923217773438;86.10104370117188
145;1673305870.6561353;47.1306424;7.2406198999999996;30.931001663208008;1673305870.6785502;-12.204113006591797;15.056833267211914;86.2404556274414
146;1673305870.857309;47.1306425;7.2406198999999996;31.33700180053711;1673305870.878793;-12.460440635681152;11.453356742858887;86.88497161865234
147;1673305871.065462;47.1306425;7.2406198999999996;31.742000579833984;1673305871.0908208;-12.45186996459961;15.019227981567383;86.44409942626953
148;1673305871.255095;47.1306425;7.2406198999999996;32.14400100708008;1673305871.2785182;-12.28046989440918;15.927387237548828;86.11510467529297
149;1673305871.4668093;47.1306425;7.2406198999999996;32.540000915527344;1673305871.4913456;-12.413030624389648;12.201884269714355;86.63813018798828
150;1673305871.6698887;47.1306425;7.24062;32.94000244140625;1673305871.6972246;-12.278587341308594;13.499168395996094;86.5234146118164
151;1673305871.8780308;47.1306424;7.24062;33.34400177001953;1673305871.8985252;-12.082919120788574;16.064048767089844;85.927001953125
152;1673305872.0616643;47.1306425;7.2406201;33.75;1673305872.0811903;-12.099920272827148;13.010222434997559;86.44146728515625
153;1673305872.2477922;47.130642599999995;7.2406201999999995;34.15500259399414;1673305872.2688406;-12.378406524658203;11.799397468566895;86.86150360107422
154;1673305872.4383266;47.130642599999995;7.2406201999999995;34.55800247192383;1673305872.4652252;-12.11612319946289;16.471145629882812;86.10054779052734
155;1673305872.6606352;47.130642699999996;7.2406201999999995;34.95900344848633;1673305872.6870303;-12.0792818069458;13.762292861938477;86.43730926513672
156;1673305872.8735244;47.130642599999995;7.2406201;35.35200119018555;1673305872.8969588;-12.373225212097168;12.06869888305664;86.78174591064453
157;1673305873.0659254;47.130642599999995;7.2406201;35.74700164794922;1673305873.0895076;-12.26777458190918;15.52316951751709;86.0868148803711
158;1673305873.272733;47.130642699999996;7.24062;36.147003173828125;1673305873.2951808;-12.06666374206543;15.443221092224121;86.18093872070312
159;1673305873.462223;47.1306428;7.2406201;36.54900360107422;1673305873.484697;-12.520381927490234;11.913731575012207;86.94598388671875
160;1673305873.6597903;47.1306429;7.2406201;36.948001861572266;1673305873.6812615;-12.39639949798584;14.594371795654297;86.47777557373047
161;1673305873.8539698;47.1306429;7.2406201;37.34600067138672;1673305873.8779418;-11.999260902404785;16.44141960144043;86.1618423461914
162;1673305874.085095;47.1306429;7.2406201;37.733001708984375;1673305874.1046154;-12.272066116333008;12.837706565856934;86.77424621582031
163;1673305874.2976582;47.1306428;7.2406201;38.12300109863281;1673305874.3162053;-12.493696212768555;12.335736274719238;86.82343292236328
164;1673305874.4742415;47.130642699999996;7.2406201;38.5160026550293;1673305874.4947329;-11.961028099060059;16.074859619140625;85.99136352539062
165;1673305874.6631591;47.1306428;7.2406201;38.91100311279297;1673305874.684612;-11.973678588867188;13.98242473602295;86.34758758544922
166;1673305874.8538127;47.1306428;7.2406201;39.30800247192383;1673305874.8777657;-12.415560722351074;12.222558975219727;86.72821807861328
167;1673305875.0567808;47.1306429;7.2406201;39.704002380371094;1673305875.0817132;-11.9989595413208;16.430089950561523;86.05986022949219
168;1673305875.254562;47.1306429;7.2406201;40.10000228881836;1673305875.2750905;-12.016843795776367;14.784553527832031;86.21516418457031
169;1673305875.4434042;47.1306428;7.24062;40.48800277709961;1673305875.4635193;-12.400245666503906;12.255584716796875;86.85008239746094
170;1673305875.6389647;47.130642699999996;7.24062;40.88200378417969;1673305875.6601787;-12.414098739624023;13.984784126281738;86.56075286865234
171;1673305875.8567843;47.130642599999995;7.24062;41.277000427246094;1673305875.8813655;-12.094193458557129;15.709158897399902;86.09956359863281
172;1673305876.0642176;47.130642699999996;7.2406198999999996;41.676002502441406;1673305876.0837393;-12.453818321228027;12.247533798217773;86.76676940917969
173;1673305876.2724292;47.1306428;7.2406198999999996;42.07400131225586;1673305876.2948773;-12.346689224243164;13.414704322814941;86.4844970703125
174;1673305876.4751775;47.1306428;7.2406198999999996;42.470001220703125;1673305876.4995778;-11.957454681396484;17.0478458404541;85.8884048461914
175;1673305876.6737454;47.1306428;7.2406198999999996;42.858001708984375;1673305876.6952183;-12.102005004882812;13.157355308532715;86.57994079589844
176;1673305876.8772483;47.1306428;7.2406198999999996;43.24800109863281;1673305876.8998005;-12.613512992858887;13.036602973937988;86.70909118652344
177;1673305877.0765655;47.130642699999996;7.240619799999999;43.6410026550293;1673305877.0999956;-12.037219047546387;16.368167877197266;86.08975219726562
178;1673305877.288898;47.1306428;7.240619799999999;44.038002014160156;1673305877.3084188;-12.138507843017578;15.209240913391113;86.34362030029297
179;1673305877.4842474;47.1306428;7.2406198999999996;44.435001373291016;1673305877.5076706;-12.445138931274414;11.773847579956055;86.88253784179688
180;1673305877.6817505;47.1306428;7.2406198999999996;44.83100128173828;1673305877.7071288;-12.223348617553711;15.796163558959961;86.23889923095703
181;1673305877.8842728;47.1306428;7.2406198999999996;45.224002838134766;1673305877.9057434;-12.03649616241455;15.847311973571777;86.12175750732422
182;1673305878.0839307;47.130642699999996;7.2406198999999996;45.61000061035156;1673305878.1024714;-12.285402297973633;12.24766731262207;86.56656646728516
183;1673305878.2754507;47.130642599999995;7.2406198999999996;46.00100326538086;1673305878.2959466;-12.362217903137207;13.72011661529541;86.48294067382812
184;1673305878.4631793;47.130642599999995;7.240619799999999;46.393001556396484;1673305878.4866424;-11.969311714172363;16.008285522460938;86.05132293701172
185;1673305878.6703026;47.130642599999995;7.240619799999999;46.788002014160156;1673305878.7057176;-12.411395072937012;12.813004493713379;86.68904876708984
186;1673305878.8865983;47.130642599999995;7.240619799999999;47.182003021240234;1673305878.9119895;-12.604867935180664;12.813209533691406;86.73466491699219
187;1673305879.101281;47.130642699999996;7.240619799999999;47.58100128173828;1673305879.1237156;-12.082189559936523;16.88068389892578;86.01715850830078
188;1673305879.2837837;47.130642699999996;7.240619799999999;47.97200393676758;1673305879.3063838;-12.22889518737793;13.55734634399414;86.47380065917969
189;1673305879.48046;47.130642699999996;7.240619799999999;48.33700180053711;1673305879.501887;-12.735061645507812;13.595590591430664;86.83514404296875
190;1673305879.6844697;47.130642699999996;7.2406197;48.65400314331055;1673305879.7078931;-12.272367477416992;15.819055557250977;86.46379089355469
191;1673305879.8936913;47.1306428;7.240619499999999;48.922000885009766;1673305879.9153187;-12.175189971923828;14.717290878295898;86.42923736572266
192;1673305880.0823548;47.130643;7.2406193;49.14800262451172;1673305880.1018755;-12.80556583404541;12.23640251159668;86.86845397949219
193;1673305880.2654376;47.1306431;7.2406191;49.33700180053711;1673305880.2884278;-7.613592624664307;19.96063232421875;86.06890106201172
194;1673305880.466352;47.130643199999994;7.2406185;49.46800231933594;1673305880.490787;-1.1467807292938232;25.880788803100586;82.79332733154297
195;1673305880.6724632;47.1306429;7.2406172;49.512001037597656;1673305880.6950483;-1.1619246006011963;24.546676635742188;70.43692779541016
196;1673305880.8644538;47.130642099999996;7.240615699999999;49.560001373291016;1673305880.8851376;-6.398719310760498;18.136199951171875;58.94316482543945
197;1673305881.0605512;47.130641399999995;7.240614399999999;49.60300064086914;1673305881.083035;3.751819372177124;20.168472290039062;50.27414321899414
198;1673305881.265217;47.1306405;7.240613;49.643001556396484;1673305881.2891145;4.120030403137207;20.276411056518555;40.635013580322266
199;1673305881.4541447;47.130639699999996;7.2406117;49.68300247192383;1673305881.4770656;6.745942115783691;21.880939483642578;31.56735610961914
200;1673305881.6568763;47.1306389;7.2406104;49.720001220703125;1673305881.6762984;8.394858360290527;20.955078125;22.510141372680664
201;1673305881.8512108;47.1306381;7.2406093;49.74400329589844;1673305881.8752832;9.886281967163086;19.234228134155273;13.596488952636719
202;1673305882.0590522;47.1306375;7.2406085;49.76700210571289;1673305882.080238;12.250818252563477;15.640637397766113;4.575262546539307
203;1673305882.2583396;47.130637;7.2406079;49.78700256347656;1673305882.284194;15.148822784423828;12.812585830688477;-4.266015529632568
204;1673305882.4674935;47.1306367;7.2406076;49.80500411987305;1673305882.4889882;17.766618728637695;10.042183876037598;-12.891589164733887
205;1673305882.6831858;47.130636599999995;7.240607499999999;49.82100296020508;1673305882.7111607;19.09677505493164;9.196792602539062;-21.42241668701172
206;1673305882.8910124;47.130636599999995;7.2406076;49.836002349853516;1673305882.9141793;17.3990421295166;8.283337593078613;-29.685739517211914
207;1673305883.0851376;47.1306367;7.2406077;49.85300064086914;1673305883.1051776;17.27060317993164;2.334583282470703;-38.542564392089844
208;1673305883.2850451;47.1306368;7.2406077;49.862003326416016;1673305883.3070614;18.375925064086914;-3.4467179775238037;-46.71704864501953
209;1673305883.4690454;47.130637;7.240607499999999;49.87200164794922;1673305883.4910018;19.66354751586914;-5.637493133544922;-51.438865661621094
210;1673305883.6706986;47.130637199999995;7.2406071999999995;49.88300323486328;1673305883.6931453;20.19330406188965;-3.282883644104004;-49.39525604248047
211;1673305883.872083;47.1306373;7.2406067;49.893001556396484;1673305883.8956254;20.451641082763672;0.37666210532188416;-46.26527786254883
212;1673305884.067616;47.130637199999995;7.240606199999999;49.900001525878906;1673305884.0910385;20.707319259643555;1.4387545585632324;-45.36705017089844
213;1673305884.264963;47.130637;7.2406057;49.90300369262695;1673305884.287413;21.409042358398438;1.0177444219589233;-45.769264221191406
214;1673305884.4693034;47.130636599999995;7.2406054;49.89800262451172;1673305884.4907746;22.3256893157959;-0.1018836572766304;-46.082855224609375
215;1673305884.6688313;47.1306365;7.2406052999999995;49.89600372314453;1673305884.6912882;22.815631866455078;-1.5030908584594727;-46.102970123291016
216;1673305884.8673735;47.1306364;7.2406052999999995;49.89900207519531;1673305884.8910205;21.476951599121094;-1.9357508420944214;-46.00455093383789
217;1673305885.0673683;47.1306363;7.2406054;49.90500259399414;1673305885.086893;19.84589385986328;-2.262709379196167;-45.86155700683594
218;1673305885.2656546;47.1306363;7.240605599999999;49.910003662109375;1673305885.2871273;19.182849884033203;-0.8721105456352234;-45.487857818603516
219;1673305885.495588;47.1306362;7.2406058;49.91400146484375;1673305885.5180671;6.905366897583008;1.6819815635681152;-46.191810607910156
220;1673305885.689241;47.1306365;7.2406052999999995;49.91100311279297;1673305885.7107496;-26.278242111206055;3.8253278732299805;-47.48430252075195
221;1673305885.894557;47.1306383;7.2406023;49.8650016784668;1673305885.914079;-38.9223518371582;3.066263437271118;-48.3386116027832
222;1673305886.0691993;47.130642099999996;7.2405962;49.798004150390625;1673305886.0896842;-34.0359992980957;0.37217360734939575;-47.01508712768555
223;1673305886.2671347;47.130647599999996;7.240587199999999;49.7400016784668;1673305886.2860134;-34.43732833862305;-1.7202699184417725;-46.59418869018555
224;1673305886.453894;47.1306546;7.240575499999999;49.69200134277344;1673305886.478282;-33.47140121459961;-2.451099395751953;-46.79334259033203
225;1673305886.6695254;47.1306629;7.2405614;49.64900207519531;1673305886.6971393;-32.05083084106445;-1.8478116989135742;-47.256622314453125
226;1673305886.8906283;47.1306723;7.2405456;49.6150016784668;1673305886.9142919;-33.068721771240234;0.8997986316680908;-48.13047790527344
227;1673305887.1183012;47.1306827;7.240528299999999;49.60000228881836;1673305887.1412492;-35.38325881958008;3.4594502449035645;-48.45303726196289
228;1673305887.3104932;47.1306941;7.2405092;49.621002197265625;1673305887.3315306;-40.98945236206055;4.030138969421387;-48.07144546508789
229;1673305887.480399;47.1307068;7.2404882;49.66800308227539;1673305887.5003438;-47.45997619628906;3.3480751514434814;-47.56272506713867
230;1673305887.6703255;47.130721099999995;7.2404649;49.72600173950195;1673305887.6942532;-54.1780891418457;2.0151400566101074;-46.90175247192383
231;1673305887.8722174;47.1307373;7.2404389;49.79500198364258;1673305887.8921926;-60.098175048828125;1.8323904275894165;-46.42955017089844
232;1673305888.0902634;47.1307555;7.24041;49.85600280761719;1673305888.120207;-59.38188552856445;1.618346095085144;-45.54448699951172
233;1673305888.290754;47.1307754;7.2403787;49.897003173828125;1673305888.3141768;-56.49440002441406;-0.30293238162994385;-45.526126861572266
234;1673305888.489324;47.1307964;7.2403458;49.91100311279297;1673305888.5121953;-55.32863235473633;1.1431751251220703;-45.09895706176758
235;1673305888.687139;47.1308185;7.2403115;49.91400146484375;1673305888.7095203;-52.92536926269531;-0.3972974717617035;-44.40399169921875
236;1673305888.8894958;47.1308412;7.240276;49.915000915527344;1673305888.9129193;-46.67766189575195;-0.41273796558380127;-44.81997299194336
237;1673305889.0813503;47.130863999999995;7.240240399999999;49.92400360107422;1673305889.1037993;-8.413642883300781;2.8861536979675293;-46.09817123413086
238;1673305889.263257;47.1308854;7.240207;49.92400360107422;1673305889.288657;36.40504837036133;5.4466447830200195;-43.65238952636719
239;1673305889.4623835;47.1309049;7.2401769;49.73200225830078;1673305889.4832313;22.922988891601562;2.3938148021698;-44.07151412963867
240;1673305889.6582515;47.1309215;7.240151099999999;49.47600173950195;1673305889.6803427;16.059202194213867;0.8337194323539734;-45.33778381347656
241;1673305889.852356;47.130935799999996;7.240129;49.33500289916992;1673305889.8778358;15.205227851867676;0.6367455124855042;-45.927860260009766
242;1673305890.0624027;47.1309477;7.2401107;49.39800262451172;1673305890.0872452;47.95917892456055;1.6543269157409668;-46.13697814941406
243;1673305890.262322;47.1309567;7.2400974;49.51900100708008;1673305890.2831647;53.550872802734375;1.474181056022644;-46.343143463134766
244;1673305890.4682796;47.130962;7.2400902;49.67100143432617;1673305890.4933708;61.03251647949219;1.01645827293396;-46.28275680541992
245;1673305890.6783803;47.130964;7.2400883;49.810001373291016;1673305890.7013595;62.273563385009766;0.05787486582994461;-47.51494598388672
246;1673305890.8911738;47.1309629;7.2400913;49.923004150390625;1673305890.9144118;62.596370697021484;-0.300065815448761;-46.03417205810547
247;1673305891.1093116;47.130959;7.2400983;50.00300216674805;1673305891.1309915;59.387535095214844;0.6802301406860352;-45.947723388671875
248;1673305891.288299;47.130953299999994;7.2401079;50.051002502441406;1673305891.3126047;54.31798553466797;0.1459398716688156;-45.551849365234375
249;1673305891.4891686;47.1309464;7.2401192;50.07200241088867;1673305891.5100834;46.147857666015625;-0.1124769076704979;-45.47755813598633
250;1673305891.6907866;47.1309389;7.2401311999999995;50.06500244140625;1673305891.7151859;33.15962219238281;-0.4745502173900604;-45.699462890625
251;1673305891.8901942;47.130931399999994;7.2401428;50.035003662109375;1673305891.917571;19.572181701660156;-0.20802107453346252;-45.82534408569336
252;1673305892.1003394;47.1309245;7.2401532;49.99100112915039;1673305892.1198916;8.141399383544922;0.06566234678030014;-45.82532501220703
253;1673305892.300488;47.1309189;7.240161499999999;49.948001861572266;1673305892.3183293;1.4498932361602783;0.43400508165359497;-45.60162353515625
254;1673305892.4767063;47.130914499999996;7.240167899999999;49.90500259399414;1673305892.5001366;1.6982299089431763;-2.3628246784210205;-45.792537689208984
255;1673305892.6671922;47.1309113;7.2401724;49.880001068115234;1673305892.6886604;9.628629684448242;0.9072675108909607;-45.0448112487793
256;1673305892.8743296;47.130908999999996;7.2401756;49.87300109863281;1673305892.9027462;6.65252685546875;1.5579113960266113;-45.12565612792969
257;1673305893.0826411;47.1309075;7.2401775;49.88300323486328;1673305893.1089935;6.026554107666016;0.2907094955444336;-45.11250305175781
258;1673305893.2722585;47.130906499999995;7.240178299999999;49.897003173828125;1673305893.2947397;10.527608871459961;-0.14474144577980042;-45.00458908081055
259;1673305893.4960155;47.1309061;7.2401784;49.788002014160156;1673305893.5185437;7.8189005851745605;25.98950958251953;-41.08369827270508
260;1673305893.6749923;47.1309058;7.2401781;49.30500411987305;1673305893.6975706;-3.483288526535034;49.294429779052734;-43.73552322387695
261;1673305893.8712988;47.1309057;7.2401776;48.467002868652344;1673305893.894722;-17.06138801574707;68.6668472290039;-56.77402114868164
262;1673305894.09471;47.1309056;7.2401769;47.26900100708008;1673305894.117157;-26.850378036499023;82.02729034423828;-79.09234619140625
263;1673305894.2790575;47.1309056;7.240176;45.71200180053711;1673305894.3015213;-32.94365310668945;84.44293212890625;-104.87943267822266
264;1673305894.4950047;47.1309055;7.240175;43.79500198364258;1673305894.5161428;-39.14322280883789;70.46318817138672;-125.4466781616211
265;1673305894.6826992;47.130905299999995;7.2401741;41.5150032043457;1673305894.7061217;-44.03007888793945;36.70634841918945;-132.04368591308594
266;1673305894.867138;47.1309051;7.2401735;38.85100173950195;1673305894.887631;-37.18708038330078;-7.676849842071533;-127.2996826171875
267;1673305895.0598195;47.1309052;7.2401731;35.81100082397461;1673305895.0822706;-15.8057279586792;-34.85029602050781;-131.027587890625
268;1673305895.2634985;47.1309057;7.2401724;32.400001525878906;1673305895.2918346;10.250387191772461;-36.20174789428711;-144.84634399414062
269;1673305895.4664874;47.1309064;7.2401713999999995;28.617000579833984;1673305895.4890862;33.228538513183594;-13.606992721557617;-152.89990234375
270;1673305895.668265;47.130907;7.240169799999999;24.459001541137695;1673305895.6928124;41.148677825927734;28.80470848083496;-148.93360900878906
271;1673305895.8788977;47.1309073;7.240168199999999;19.939001083374023;1673305895.9023197;29.744327545166016;53.13490676879883;-158.52154541015625
272;1673305896.1087167;47.1309074;7.240167;15.079000473022461;1673305896.1262898;8.926315307617188;46.914894104003906;178.10618591308594
273;1673305896.3169155;47.1309074;7.2401662;9.861000061035156;1673305896.3393688;-17.966014862060547;17.775379180908203;163.90786743164062
274;1673305896.5587056;47.1309079;7.2401656999999995;4.269999980926514;1673305896.5802088;-26.68566131591797;-22.239675521850586;166.15350341796875
275;1673305896.7528465;47.130907799999996;7.2401697;0.0;1673305896.7729502;-12.251358032226562;0.3679507374763489;161.89244079589844
276;1673305897.0014415;47.130902899999995;7.2401941;-0.2770000100135803;1673305897.0150852;-11.244433403015137;-16.1895809173584;168.79249572753906
277;1673305897.1543343;47.1308982;7.2402201999999996;-0.5180000066757202;1673305897.170492;-10.457796096801758;-15.448039054870605;169.13156127929688
278;1673305897.318496;47.1308934;7.240246399999999;-0.690000057220459;1673305897.3389935;-10.276493072509766;-11.653815269470215;169.36585998535156
279;1673305897.5045235;47.130888;7.2402745;-0.9010000228881836;1673305897.526691;-10.11766529083252;-10.165382385253906;169.63999938964844
280;1673305897.6971304;47.130882299999996;7.240303699999999;-1.0500000715255737;1673305897.7186017;-9.945640563964844;-9.134542465209961;169.85006713867188
281;1673305897.9003778;47.1308763;7.240333799999999;-1.1710000038146973;1673305897.9228241;-9.867485046386719;-8.490710258483887;170.02452087402344
282;1673305898.0945659;47.130869999999994;7.2403647;-1.2650001049041748;1673305898.1121454;-9.706131935119629;-8.089677810668945;170.14523315429688
283;1673305898.2801723;47.130863399999996;7.2403964;-1.3480000495910645;1673305898.3023033;-9.606456756591797;-7.862346649169922;170.22769165039062
284;1673305898.5004766;47.1308566;7.2404288999999995;-1.4240000247955322;1673305898.5221362;-9.549367904663086;-7.880281448364258;170.32789611816406
285;1673305898.696225;47.130849399999995;7.2404623;-1.5040000677108765;1673305898.7140386;-9.496319770812988;-7.880582809448242;170.34910583496094
286;1673305898.8953536;47.1308417;7.2404972;-1.6480001211166382;1673305898.9201813;-9.495302200317383;-7.80503511428833;170.37518310546875
287;1673305899.140597;47.1308339;7.240532399999999;-1.7450001239776611;1673305899.1581173;-9.475198745727539;-7.605591297149658;170.37451171875
288;1673305899.3121395;47.1308259;7.2405683;-1.8220001459121704;1673305899.3341415;-9.403182983398438;-7.485445499420166;170.38739013671875
289;1673305899.5081758;47.130817699999994;7.2406047;-1.8780001401901245;1673305899.5322719;-9.309313774108887;-7.621586322784424;170.39256286621094
290;1673305899.689416;47.130809299999996;7.2406419;-1.9320000410079956;1673305899.7111552;-9.268058776855469;-7.733450412750244;170.43479919433594
291;1673305899.8880455;47.1308006;7.2406799;-1.9830000400543213;1673305899.9123333;-9.185206413269043;-7.820584297180176;170.43077087402344
292;1673305900.085112;47.1307912;7.2407195;-2.0970001220703125;1673305900.1051328;-9.182320594787598;-8.028690338134766;170.4694061279297
293;1673305900.2694063;47.1307818;7.2407593;-2.1670000553131104;1673305900.2950494;-9.103225708007812;-8.129867553710938;170.5067138671875
294;1673305900.4700835;47.1307724;7.2407995;-2.2120001316070557;1673305900.4941516;-9.047785758972168;-8.231366157531738;170.5017547607422
295;1673305900.6711693;47.1307628;7.2408402;-2.241000175476074;1673305900.69423;-9.008136749267578;-8.415729522705078;170.52284240722656
296;1673305900.8712277;47.1307529;7.240881399999999;-2.261000156402588;1673305900.8912613;-9.002325057983398;-8.51125717163086;170.57875061035156
297;1673305901.0553842;47.1307429;7.2409234;-2.2730000019073486;1673305901.0782132;-8.930944442749023;-8.589447975158691;170.5763702392578
298;1673305901.2537932;47.1307325;7.2409662;-2.2829999923706055;1673305901.278104;-8.975919723510742;-8.753448486328125;170.61276245117188
299;1673305901.455978;47.1307213;7.2410111;-2.3540000915527344;1673305901.478066;-8.927382469177246;-8.877054214477539;170.63742065429688
300;1673305901.6941755;47.130710199999996;7.2410559999999995;-2.380000114440918;1673305901.7191224;-8.855350494384766;-9.017427444458008;170.65994262695312
301;1673305901.8979278;47.130699;7.241101199999999;-2.382000207901001;1673305901.9220803;-8.82887077331543;-9.106637954711914;170.66563415527344
302;1673305902.1003149;47.1306885;7.2411435;-2.372000217437744;1673305902.1215131;-8.76536750793457;-9.193477630615234;170.65924072265625
303;1673305904.2437878;47.1309026;7.2401842;-2.1100001335144043;1673305902.313094;-8.734513282775879;-9.317998886108398;170.6855010986328
304;;;;;1673305902.5120115;-8.697376251220703;-9.422088623046875;170.6921844482422
305;;;;;1673305902.7031732;-8.642545700073242;-9.516983985900879;170.73025512695312
306;;;;;1673305902.9010699;-8.6308012008667;-9.600924491882324;170.7187042236328
307;;;;;1673305903.093036;-8.594778060913086;-9.674212455749512;170.74761962890625
308;;;;;1673305903.297909;-8.519515037536621;-9.740385055541992;170.76829528808594
309;;;;;1673305903.4970412;-8.594562530517578;-10.286048889160156;170.82025146484375
310;;;;;1673305903.694145;-8.537787437438965;-10.450699806213379;170.84140014648438
311;;;;;1673305903.899018;-8.488617897033691;-10.619316101074219;170.90957641601562
312;;;;;1673305904.1011007;-8.512550354003906;-10.796013832092285;170.97122192382812
