;pos_time;latitude;longitude;altitude;alt_time;pitch;roll;yaw
0;1673444229.2984421;47.1306424;7.2406198999999996;-0.029000001028180122;1673444229.3121123;0.11191308498382568;0.017570093274116516;90.20272827148438
1;1673444229.509701;47.1306424;7.2406198999999996;-0.030000001192092896;1673444229.523364;0.1038810983300209;-0.19748555123806;90.2197036743164
2;1673444229.7153828;47.1306424;7.24062;-0.030000001192092896;1673444229.7300234;0.05259879678487778;-0.2185598611831665;90.2497329711914
3;1673444229.9189565;47.1306424;7.2406201;-0.03100000135600567;1673444229.93555;-0.0007322776364162564;-0.100056491792202;90.22870635986328
4;1673444230.1168296;47.1306423;7.2406201999999995;-0.029000001028180122;1673444230.131672;-0.15707243978977203;-0.15432848036289215;90.19100952148438
5;1673444230.327811;47.1306424;7.2406203;-0.02800000086426735;1673444230.3434489;-0.13020025193691254;-0.22838611900806427;90.1565170288086
6;1673444230.5356917;47.1306424;7.2406203;-0.026000000536441803;1673444230.547412;-0.14833921194076538;-0.32842180132865906;90.23986053466797
7;1673444230.7128053;47.1306424;7.2406203;-0.029000001028180122;1673444230.727446;-0.23441264033317566;-0.20782329142093658;90.29609680175781
8;1673444230.9060726;47.1306424;7.2406201999999995;-0.03200000151991844;1673444230.9197373;-0.07807108759880066;-0.21257305145263672;90.28404235839844
9;1673444231.1035783;47.1306424;7.2406201;-0.032999999821186066;1673444231.120169;0.02939862757921219;-0.28823286294937134;90.28440856933594
10;1673444231.306812;47.1306424;7.2406201;-0.03200000151991844;1673444231.3194938;-0.23070603609085083;-0.21998639404773712;90.1295166015625
11;1673444231.5108988;47.1306424;7.2406201;-0.036000002175569534;1673444231.5255382;-0.21671205759048462;-0.24670231342315674;90.24627685546875
12;1673444231.7467892;47.1306424;7.24062;-0.03800000250339508;1673444231.7604253;-0.1571965217590332;-0.0337226465344429;90.07121276855469
13;1673444231.9231684;47.1306423;7.24062;-0.03800000250339508;1673444231.9466126;-0.14157237112522125;-0.29492151737213135;90.15947723388672
14;1673444232.12449;47.1306423;7.24062;-0.0010000000474974513;1673444232.1371782;-0.1973901242017746;-1.0370190143585205;90.04727935791016
15;1673444232.3110642;47.1306423;7.24062;0.0;1673444232.3276563;-0.15552672743797302;-1.368026614189148;90.23255920410156
16;1673444232.509537;47.1306422;7.24062;-0.0010000000474974513;1673444232.52613;-0.2965579628944397;-0.919441282749176;90.27362060546875
17;1673444232.7179003;47.1306423;7.24062;0.0010000000474974513;1673444232.731565;-0.2435472458600998;-1.0962581634521484;90.25285339355469
18;1673444232.911651;47.1306423;7.24062;0.003000000026077032;1673444232.929639;-0.1835172176361084;-0.9524460434913635;90.20230865478516
19;1673444233.1115599;47.1306423;7.24062;0.007000000216066837;1673444233.1245341;-0.21787239611148834;-1.2422536611557007;90.16033172607422
20;1673444233.3018708;47.1306424;7.24062;0.00800000037997961;1673444233.3156416;-0.20569418370723724;-1.514989972114563;90.13811492919922
21;1673444233.4988563;47.1306424;7.2406201;0.0;1673444233.5137594;-0.4466862976551056;-1.7995483875274658;90.3328857421875
22;1673444233.7007139;47.1306424;7.2406201999999995;0.003000000026077032;1673444233.7141988;-0.5429487228393555;-0.12815675139427185;90.51463317871094
23;1673444233.9137912;47.1306425;7.2406201999999995;0.003000000026077032;1673444233.9285412;-0.4243869185447693;-0.31952938437461853;90.73493194580078
24;1673444234.136596;47.1306425;7.2406201;-0.003000000026077032;1673444234.1527255;-0.6260718703269958;-0.6887823939323425;90.89750671386719
25;1673444234.325658;47.130642599999995;7.2406201;-0.01100000087171793;1673444234.339669;-0.6274307370185852;-0.5898610353469849;90.92281341552734
26;1673444234.5369852;47.130642599999995;7.2406201;-0.015000000596046448;1673444234.5537229;-0.9849429726600647;-0.8189412355422974;91.18742370605469
27;1673444234.7370698;47.1306428;7.2406201;-0.01900000125169754;1673444234.7518415;-0.9729355573654175;-0.9305573105812073;92.66215515136719
28;1673444234.9396296;47.1306429;7.2406201999999995;-0.017000000923871994;1673444234.9597745;-0.043997783213853836;-0.5454054474830627;96.3226089477539
29;1673444235.124476;47.130643299999996;7.2406206;-0.015000000596046448;1673444235.1387916;-0.7199029922485352;-0.9490903615951538;103.55734252929688
30;1673444235.3685815;47.130644;7.2406213;0.003000000026077032;1673444235.3845131;1.142557144165039;0.4102036654949188;111.49771881103516
31;1673444235.5687726;47.1306452;7.240622999999999;0.01100000087171793;1673444235.5817502;1.5767027139663696;1.2264610528945923;107.74707794189453
32;1673444235.7588592;47.130646999999996;7.2406255999999996;0.027000000700354576;1673444235.7698073;3.678341865539551;3.541712760925293;100.65210723876953
33;1673444235.945593;47.130649299999995;7.2406291;0.046000003814697266;1673444235.9610417;7.81069803237915;10.583361625671387;99.05071258544922
34;1673444236.1550472;47.130652;7.240633099999999;0.0690000057220459;1673444236.1686268;8.923811912536621;12.165594100952148;99.02268981933594
35;1673444236.350878;47.130654899999996;7.2406375999999995;0.10700000822544098;1673444236.362766;9.924101829528809;13.291789054870605;99.0892105102539
36;1673444236.5608873;47.130657899999996;7.2406425;0.16100001335144043;1673444236.572787;10.933204650878906;15.34836483001709;99.29595184326172
37;1673444236.7358546;47.130660899999995;7.2406476;0.2290000170469284;1673444236.7518382;12.103623390197754;16.272247314453125;99.36432647705078
38;1673444236.9335365;47.130663899999995;7.2406527;0.3060000240802765;1673444236.9481766;13.624859809875488;17.431598663330078;99.37637329101562
39;1673444237.1339302;47.1306667;7.2406577;0.4000000059604645;1673444237.1475933;15.040776252746582;19.17825698852539;99.43197631835938
40;1673444237.344001;47.130669399999995;7.240662299999999;0.5080000162124634;1673444237.3557122;16.47520637512207;20.506576538085938;99.39635467529297
41;1673444237.5463185;47.1306717;7.2406666;0.6370000243186951;1673444237.5599751;18.13337516784668;21.737869262695312;99.28164672851562
42;1673444237.7339315;47.130673699999996;7.2406704;0.7830000519752502;1673444237.7483125;19.78556251525879;23.25435447692871;99.17754364013672
43;1673444237.9305093;47.1306753;7.2406735;0.9420000314712524;1673444237.9451764;21.548686981201172;24.59362030029297;98.9778823852539
44;1673444238.1425629;47.1306765;7.240675899999999;1.1150000095367432;1673444238.1582336;23.348873138427734;25.7716064453125;98.69837951660156
45;1673444238.340151;47.1306771;7.2406774;1.3000000715255737;1673444238.3548021;25.25614356994629;27.24489402770996;98.3970947265625
46;1673444238.5500517;47.130677399999996;7.240678;1.4880000352859497;1673444238.562736;27.16307258605957;28.45587921142578;97.96914672851562
47;1673444238.735976;47.130677;7.2406777;1.6850000619888306;1673444238.7525687;30.23784637451172;28.45482063293457;90.64679718017578
48;1673444238.928542;47.130676;7.2406763;1.8840000629425049;1673444238.944181;34.245113372802734;27.812467575073242;90.5398941040039
49;1673444239.1149821;47.1306745;7.2406736;2.0870001316070557;1673444239.1286747;35.72208023071289;29.111026763916016;89.609375
50;1673444239.3237367;47.130672399999995;7.2406695;2.2870001792907715;1673444239.3418431;37.78517150878906;30.766212463378906;88.91226959228516
51;1673444239.5307393;47.1306697;7.240664;2.4850001335144043;1673444239.5444033;37.13658905029297;30.90854835510254;87.85936737060547
52;1673444239.7299614;47.130666399999996;7.240657499999999;2.681000232696533;1673444239.7436256;31.034591674804688;28.43979835510254;87.24713897705078
53;1673444239.9309728;47.130662799999996;7.2406507;2.8550000190734863;1673444239.9475534;14.96947193145752;31.169485092163086;109.89218139648438
54;1673444240.1361542;47.1306592;7.2406438;3.0240001678466797;1673444240.150959;-4.8796586990356445;28.2996768951416;136.4839324951172
55;1673444240.3330731;47.1306558;7.2406374;3.17900013923645;1673444240.3467362;-19.26449966430664;17.432758331298828;166.83580017089844
56;1673444240.514033;47.1306526;7.2406321;3.3510000705718994;1673444240.5306988;-22.744972229003906;4.098803520202637;-155.75
57;1673444240.7269802;47.1306498;7.240628;3.5400002002716064;1673444240.739762;-18.658620834350586;-4.382585048675537;-133.24526977539062
58;1673444240.9144635;47.130647499999995;7.240625199999999;3.7300002574920654;1673444240.9281623;-18.44292640686035;-6.014748573303223;-131.78610229492188
59;1673444241.1202376;47.130645799999996;7.240623599999999;3.9140002727508545;1673444241.134447;-19.549720764160156;-4.557892322540283;-132.98367309570312
60;1673444241.3089027;47.1306444;7.2406232;4.0960001945495605;1673444241.3235455;-20.6758975982666;-1.2223865985870361;-133.2096710205078
61;1673444241.5153518;47.130643299999996;7.2406234;4.284000396728516;1673444241.5290322;-22.372392654418945;-0.475805401802063;-133.10781860351562
62;1673444241.7062542;47.130642599999995;7.2406241;4.4770002365112305;1673444241.7200093;-24.25980567932129;1.3211987018585205;-133.66497802734375
63;1673444241.9054973;47.1306423;7.2406248;4.676000118255615;1673444241.920174;-25.964754104614258;5.368193626403809;-134.87335205078125
64;1673444242.169429;47.1306423;7.240625499999999;4.875;1673444242.1830842;-27.74867057800293;3.425269842147827;-134.3955841064453
65;1673444242.3833175;47.130642599999995;7.2406258;5.076000213623047;1673444242.3970075;-29.391016006469727;1.77537202835083;-134.0645751953125
66;1673444242.6346445;47.1306429;7.2406257;5.27400016784668;1673444242.6424685;-29.2228946685791;3.9192075729370117;-135.17373657226562
67;1673444242.7856205;47.130643299999996;7.2406254;5.4800004959106445;1673444242.7992826;-30.27402687072754;0.9373345375061035;-134.41372680664062
68;1673444242.975413;47.1306437;7.2406248;5.687000274658203;1673444242.9909923;-30.107505798339844;-1.4541168212890625;-133.98439025878906
69;1673444243.1522799;47.130643899999995;7.2406242;5.892000198364258;1673444243.168872;-30.053442001342773;0.8609122633934021;-135.04550170898438
70;1673444243.3449101;47.130644;7.2406235;6.095000267028809;1673444243.359534;-29.19942283630371;-0.47258657217025757;-134.8643341064453
71;1673444243.5472136;47.130643899999995;7.2406228;6.299000263214111;1673444243.5657563;-28.96114158630371;-2.5164506435394287;-134.08287048339844
72;1673444243.75349;47.1306438;7.2406220999999995;6.498000144958496;1673444243.7671955;-28.046527862548828;-0.26234567165374756;-135.0152587890625
73;1673444243.926848;47.1306436;7.2406216;6.690000534057617;1673444243.9391315;-27.607378005981445;0.21083194017410278;-135.11917114257812
74;1673444244.1254385;47.1306434;7.240621099999999;6.884000301361084;1673444244.1397727;-27.293689727783203;-1.9568774700164795;-134.23934936523438
75;1673444244.314861;47.1306431;7.2406207;7.077000141143799;1673444244.3304775;-27.227418899536133;0.018665548413991928;-134.8512420654297
76;1673444244.5214727;47.1306429;7.2406206;7.267000198364258;1673444244.5361607;-26.669816970825195;1.8408502340316772;-135.56581115722656
77;1673444244.7188401;47.130642699999996;7.2406206;7.457000255584717;1673444244.7335153;-26.984785079956055;-0.9111263751983643;-134.56617736816406
78;1673444244.9108055;47.130642599999995;7.2406206;7.652000427246094;1673444244.9264028;-27.094745635986328;0.27464669942855835;-134.79246520996094
79;1673444245.143649;47.130642599999995;7.2406204999999995;7.848000526428223;1673444245.1572955;-27.408668518066406;2.1231181621551514;-135.42628479003906
80;1673444245.3205934;47.1306425;7.2406204999999995;8.046000480651855;1673444245.333318;-27.512598037719727;-0.47960394620895386;-134.5445098876953
81;1673444245.5077858;47.1306425;7.2406204999999995;8.23900032043457;1673444245.5234234;-27.567419052124023;-0.15101249516010284;-134.61570739746094
82;1673444245.7199302;47.1306425;7.2406204999999995;8.434000015258789;1673444245.737075;-27.54690933227539;2.405608892440796;-135.48329162597656
83;1673444245.9290154;47.1306425;7.2406204999999995;8.629000663757324;1673444245.9433107;-27.911043167114258;0.16499075293540955;-134.87364196777344
84;1673444246.1148353;47.1306425;7.2406204;8.825000762939453;1673444246.1333816;-27.962987899780273;-0.9470201730728149;-134.42613220214844
85;1673444246.3267307;47.1306425;7.2406204;9.019000053405762;1673444246.3448358;-27.814167022705078;1.3996891975402832;-135.1534423828125
86;1673444246.5277991;47.1306425;7.2406203;9.217000007629395;1673444246.5449076;-27.867931365966797;0.3667583763599396;-135.0098419189453
87;1673444246.7270956;47.1306425;7.2406203;9.416000366210938;1673444246.73934;-27.73579978942871;-1.304967999458313;-134.3712158203125
88;1673444246.9184856;47.1306424;7.2406203;9.611000061035156;1673444246.934166;-27.820579528808594;1.2923039197921753;-135.20396423339844
89;1673444247.1178014;47.1306423;7.2406203;9.806000709533691;1673444247.132451;-27.605915069580078;1.2648240327835083;-135.23593139648438
90;1673444247.3242078;47.1306422;7.2406203;9.996000289916992;1673444247.3398848;-27.783212661743164;-1.1464110612869263;-134.3136444091797
91;1673444247.5350251;47.1306422;7.2406201999999995;10.200000762939453;1673444247.5475943;-26.665977478027344;1.2801249027252197;-134.90780639648438
92;1673444247.739893;47.130642099999996;7.2406198999999996;10.486000061035156;1673444247.7574725;-29.902990341186523;1.1579575538635254;-135.13645935058594
93;1673444247.9340255;47.1306417;7.2406193;10.850000381469727;1673444247.951146;-31.648902893066406;-1.0471441745758057;-134.60777282714844
94;1673444248.123985;47.1306411;7.2406185;11.237000465393066;1673444248.1397605;-27.413227081298828;0.46886226534843445;-134.7412109375
95;1673444248.3153949;47.1306405;7.2406177;11.62700080871582;1673444248.3300378;-25.473445892333984;1.33211350440979;-135.00701904296875
96;1673444248.5217955;47.13064;7.2406171;12.021000862121582;1673444248.5399046;-23.76402473449707;-0.3022443950176239;-134.4775848388672
97;1673444248.747771;47.130639699999996;7.2406166;12.415000915527344;1673444248.7633877;-23.098230361938477;0.32501789927482605;-134.71417236328125
98;1673444248.9404478;47.130639699999996;7.2406165;12.809000968933105;1673444248.9550867;-23.155563354492188;1.972704529762268;-135.38670349121094
99;1673444249.1284204;47.1306398;7.2406166999999995;13.207000732421875;1673444249.1436062;-23.589000701904297;-0.12896893918514252;-134.73782348632812
100;1673444249.3315356;47.13064;7.2406169;13.612000465393066;1673444249.3447547;-24.620256423950195;-0.6451563835144043;-134.50973510742188
101;1673444249.5390189;47.130640299999996;7.2406174;14.01300048828125;1673444249.556633;-25.547330856323242;1.7612336874008179;-135.2603759765625
102;1673444249.748975;47.1306405;7.240617899999999;14.419000625610352;1673444249.7685256;-26.198740005493164;0.8088189363479614;-135.06170654296875
103;1673444249.9500163;47.130640799999995;7.2406182999999995;14.828001022338867;1673444249.962707;-27.29965591430664;-0.7900879979133606;-134.41929626464844
104;1673444250.1365757;47.130641;7.2406187;15.235000610351562;1673444250.152252;-27.40964698791504;1.598809838294983;-135.10081481933594
105;1673444250.3362057;47.1306412;7.240619;15.63800048828125;1673444250.3518667;-27.650978088378906;1.2333652973175049;-135.09451293945312
106;1673444250.5498228;47.1306413;7.240619199999999;16.04800033569336;1673444250.5644622;-27.48716163635254;-0.6564084887504578;-134.3958282470703
107;1673444250.748291;47.130641399999995;7.2406193;16.46000099182129;1673444250.7629442;-27.880857467651367;1.184475302696228;-134.94569396972656
108;1673444250.9436057;47.130641399999995;7.2406193;16.867000579833984;1673444250.9562922;-27.238542556762695;1.4132932424545288;-135.15194702148438
109;1673444251.111051;47.1306413;7.240619199999999;17.275001525878906;1673444251.123735;-27.150304794311523;-0.5577335357666016;-134.484375
110;1673444251.312361;47.1306413;7.2406191;17.687000274658203;1673444251.3260422;-26.776609420776367;0.5173283219337463;-134.86338806152344
111;1673444251.5422492;47.1306413;7.240618899999999;18.09400177001953;1673444251.5609818;-26.475727081298828;1.4521164894104004;-135.2645721435547
112;1673444251.7399645;47.1306413;7.2406188;18.506999969482422;1673444251.7541556;-26.39268684387207;-0.25665757060050964;-134.64256286621094
113;1673444251.9323957;47.1306412;7.2406188;18.922000885009766;1673444251.948549;-26.566068649291992;-0.08309797942638397;-134.6050262451172
114;1673444252.120872;47.1306412;7.2406188;19.334001541137695;1673444252.1374674;-26.554105758666992;1.6767703294754028;-135.13955688476562
115;1673444252.3309233;47.1306412;7.2406188;19.75;1673444252.3476744;-26.390975952148438;0.08867592364549637;-134.77572631835938
116;1673444252.5386817;47.1306412;7.2406188;20.16400146484375;1673444252.5558193;-26.638200759887695;-0.4290955662727356;-134.5630340576172
117;1673444252.7406936;47.1306412;7.2406188;20.576000213623047;1673444252.7519672;-26.337608337402344;1.482676386833191;-135.20394897460938
118;1673444252.9156406;47.1306413;7.240618899999999;20.98000144958496;1673444252.931257;-26.614883422851562;0.7765294313430786;-134.99423217773438
119;1673444253.1136856;47.1306413;7.240619;21.39000129699707;1673444253.1273553;-26.721805572509766;-0.41807255148887634;-134.63815307617188
120;1673444253.3177578;47.1306413;7.2406191;21.795001983642578;1673444253.3363054;-27.038963317871094;1.4059038162231445;-135.0695343017578
121;1673444253.5710616;47.1306413;7.240619199999999;22.20600128173828;1673444253.586677;-26.54930877685547;1.3185535669326782;-135.12557983398438
122;1673444253.7399855;47.1306413;7.240619199999999;22.619001388549805;1673444253.7517345;-26.942522048950195;-0.42235127091407776;-134.50570678710938
123;1673444253.9133606;47.130641399999995;7.2406191;23.031002044677734;1673444253.9260516;-26.793914794921875;0.6486498117446899;-134.9089813232422
124;1673444254.12412;47.130641399999995;7.2406191;23.433000564575195;1673444254.139779;-26.74859619140625;1.4139175415039062;-135.21981811523438
125;1673444254.328834;47.130641499999996;7.2406191;23.83500099182129;1673444254.3434892;-26.89080238342285;-0.2799417972564697;-134.59600830078125
126;1673444254.5315084;47.130641499999996;7.240619199999999;24.238000869750977;1673444254.5476665;-27.114580154418945;0.302432656288147;-134.7586212158203
127;1673444254.7239685;47.130641499999996;7.2406193;24.634000778198242;1673444254.738238;-26.795244216918945;1.904828429222107;-135.2821044921875
128;1673444254.9293618;47.130641399999995;7.2406194;25.034000396728516;1673444254.9430184;-26.688678741455078;0.35947856307029724;-134.81069946289062
129;1673444255.131689;47.130641499999996;7.2406194;25.431001663208008;1673444255.1453555;-27.04804229736328;-0.3289588391780853;-134.52105712890625
130;1673444255.3243947;47.130641499999996;7.240619499999999;25.832000732421875;1673444255.3392255;-26.878433227539062;1.7110612392425537;-135.14779663085938
131;1673444255.5255141;47.130641499999996;7.2406196;26.22800064086914;1673444255.5391808;-26.878061294555664;0.8335753083229065;-134.91726684570312
132;1673444255.7329173;47.1306416;7.2406196;26.62900161743164;1673444255.7500622;-26.99628448486328;-0.1585254818201065;-134.53231811523438
133;1673444255.9321856;47.1306416;7.2406196;27.032001495361328;1673444255.9458547;-27.049976348876953;1.525885820388794;-135.11190795898438
134;1673444256.147378;47.1306416;7.2406196;27.439001083374023;1673444256.1656349;-26.600194931030273;1.7505874633789062;-135.23048400878906
135;1673444256.3510082;47.1306416;7.2406196;27.852001190185547;1673444256.3675814;-26.980737686157227;-0.20640625059604645;-134.60330200195312
136;1673444256.555201;47.1306416;7.2406196;28.256000518798828;1673444256.5708168;-26.767488479614258;0.6644136309623718;-134.8630828857422
137;1673444256.7572877;47.1306417;7.2406196;28.6510009765625;1673444256.7739182;-26.875703811645508;1.535231590270996;-135.22828674316406
138;1673444256.9509106;47.1306418;7.2406196;29.05000114440918;1673444256.9645731;-26.938661575317383;0.002716968534514308;-134.70045471191406
139;1673444257.148912;47.1306419;7.2406196;29.450000762939453;1673444257.1632125;-27.12049102783203;-0.18044915795326233;-134.57183837890625
140;1673444257.373165;47.1306418;7.2406196;29.852001190185547;1673444257.3868423;-26.998836517333984;1.7358646392822266;-135.24057006835938
141;1673444257.568384;47.1306418;7.2406197;30.25400161743164;1673444257.5830374;-26.714920043945312;1.117079257965088;-135.14768981933594
142;1673444257.7639678;47.1306418;7.2406197;30.654001235961914;1673444257.780548;-27.164087295532227;-0.4061698317527771;-134.52755737304688
143;1673444257.9501255;47.1306418;7.2406197;31.054000854492188;1673444257.9653099;-26.85199546813965;1.0624688863754272;-135.04049682617188
144;1673444258.1406264;47.1306419;7.2406196;31.448001861572266;1673444258.1557932;-26.99478530883789;1.4947900772094727;-135.15406799316406
145;1673444258.3449984;47.1306419;7.2406196;31.84800148010254;1673444258.359714;-27.056791305541992;-0.25987204909324646;-134.5076141357422
146;1673444258.5437508;47.1306419;7.2406196;32.25400161743164;1673444258.5608866;-27.163742065429688;0.3435591459274292;-134.73826599121094
147;1673444258.7386136;47.1306419;7.2406196;32.659000396728516;1673444258.7552483;-26.82526969909668;1.9196147918701172;-135.3099365234375
148;1673444258.9258053;47.1306419;7.2406196;33.0629997253418;1673444258.9404616;-26.905908584594727;0.45669543743133545;-134.89280700683594
149;1673444259.1319013;47.1306418;7.2406197;33.4630012512207;1673444259.1475239;-27.29059600830078;-0.1376579999923706;-134.55020141601562
150;1673444259.3441923;47.1306419;7.2406197;33.858001708984375;1673444259.3588703;-27.041532516479492;1.6995590925216675;-135.24098205566406
151;1673444259.5319698;47.1306419;7.2406196;34.25600051879883;1673444259.5456438;-26.90753173828125;0.6740782856941223;-134.98876953125
152;1673444259.7319758;47.1306419;7.2406196;34.65800094604492;1673444259.7446733;-26.934667587280273;-0.6289154291152954;-134.557861328125
153;1673444259.9235327;47.1306419;7.2406196;35.060001373291016;1673444259.9381723;-27.01534652709961;1.2032395601272583;-135.15220642089844
154;1673444260.1227763;47.1306418;7.2406196;35.46600341796875;1673444260.1403577;-26.7292537689209;1.4177305698394775;-135.20297241210938
155;1673444260.3514547;47.1306418;7.2406197;35.871002197265625;1673444260.362761;-27.013591766357422;-0.5441067814826965;-134.53883361816406
156;1673444260.5657995;47.1306418;7.2406197;36.27300262451172;1673444260.5804749;-27.073516845703125;0.5700811147689819;-134.80918884277344
157;1673444260.7480342;47.1306419;7.2406197;36.66800308227539;1673444260.7632353;-26.861526489257812;1.8197065591812134;-135.3550262451172
158;1673444260.9405515;47.1306418;7.240619799999999;37.070003509521484;1673444260.9542174;-26.86930274963379;-0.025681935250759125;-134.6981201171875
159;1673444261.1408472;47.1306418;7.240619799999999;37.47300338745117;1673444261.1545792;-27.140087127685547;-0.1252991259098053;-134.53326416015625
160;1673444261.322947;47.1306418;7.2406198999999996;37.87900161743164;1673444261.3414907;-27.045015335083008;2.0297062397003174;-135.2545623779297
161;1673444261.55304;47.1306418;7.24062;38.284000396728516;1673444261.5701659;-27.022090911865234;0.6514582633972168;-134.8341522216797
162;1673444261.7908206;47.1306418;7.24062;38.68600082397461;1673444261.8161955;-27.34844398498535;-0.16599810123443604;-134.45953369140625
163;1673444261.9962037;47.1306418;7.24062;39.08000183105469;1673444262.0088928;-26.91043472290039;1.806397557258606;-135.2378692626953
164;1673444262.1672168;47.1306418;7.24062;39.479000091552734;1673444262.1808825;-26.927770614624023;1.4183305501937866;-135.14471435546875
165;1673444262.3618236;47.1306418;7.24062;39.88300323486328;1673444262.3744936;-26.905521392822266;-0.29919755458831787;-134.56503295898438
166;1673444262.554441;47.1306418;7.2406201;40.28300094604492;1673444262.5706074;-27.23326301574707;0.9477113485336304;-134.9197235107422
167;1673444262.73913;47.1306418;7.2406201;40.68300247192383;1673444262.7567053;-26.886878967285156;1.9668784141540527;-135.3005828857422
168;1673444262.9151652;47.1306417;7.2406201999999995;41.086002349853516;1673444262.9288073;-27.084712982177734;0.10643524676561356;-134.61451721191406
169;1673444263.1154654;47.1306418;7.2406201999999995;41.4900016784668;1673444263.1301048;-27.094776153564453;0.3035990595817566;-134.59280395507812
170;1673444263.3271096;47.1306418;7.2406201;41.88600158691406;1673444263.3437119;-26.902565002441406;1.922021508216858;-135.29627990722656
171;1673444263.5193763;47.1306419;7.2406201;42.28700256347656;1673444263.5349922;-26.996503829956055;0.4027840495109558;-134.9029541015625
172;1673444263.7314508;47.1306419;7.2406201;42.68800354003906;1673444263.7480462;-26.997909545898438;-0.34422680735588074;-134.5927276611328
173;1673444263.9444134;47.130641999999995;7.2406201;43.09000015258789;1673444263.9590561;-27.213794708251953;1.5267935991287231;-135.0904998779297
174;1673444264.16272;47.1306419;7.2406201999999995;43.49500274658203;1673444264.17736;-27.04991340637207;1.18699049949646;-135.05508422851562
175;1673444264.372879;47.1306419;7.2406201999999995;43.89900207519531;1673444264.3875582;-27.281530380249023;-0.3383326828479767;-134.54075622558594
176;1673444264.5626895;47.130641999999995;7.2406201999999995;44.294002532958984;1673444264.5753736;-27.133155822753906;1.2509655952453613;-135.00497436523438
177;1673444264.7434683;47.130641999999995;7.2406201999999995;44.694000244140625;1673444264.7561436;-26.943601608276367;1.6431522369384766;-135.2665557861328
178;1673444264.9473023;47.1306419;7.2406201999999995;45.092002868652344;1673444264.9644752;-27.206104278564453;-0.030215313658118248;-134.6737060546875
179;1673444265.143033;47.130641999999995;7.2406201999999995;45.492000579833984;1673444265.1586585;-27.36900520324707;0.43491169810295105;-134.7316131591797
180;1673444265.3498483;47.1306419;7.2406203;45.89200210571289;1673444265.3640523;-27.2003231048584;1.9833952188491821;-135.18150329589844
181;1673444265.541441;47.1306419;7.2406203;46.294002532958984;1673444265.5590155;-27.090272903442383;0.32598423957824707;-134.69871520996094
182;1673444265.7402663;47.130641999999995;7.2406203;46.69700241088867;1673444265.7558918;-27.337799072265625;-0.0015060693258419633;-134.58255004882812
183;1673444265.940092;47.130641999999995;7.2406201999999995;47.09300231933594;1673444265.9586396;-27.075958251953125;1.831631064414978;-135.22964477539062
184;1673444266.1572006;47.130642099999996;7.2406201;47.493003845214844;1673444266.1753173;-26.998811721801758;0.7774738669395447;-134.95269775390625
185;1673444266.3449998;47.130642099999996;7.2406201;47.89200210571289;1673444266.3597002;-27.3416690826416;-0.6380534172058105;-134.50192260742188
186;1673444266.5356917;47.1306422;7.2406201999999995;48.262001037597656;1673444266.5513558;-27.77630615234375;1.5530340671539307;-135.214111328125
187;1673444266.7353776;47.1306423;7.2406204;48.57600402832031;1673444266.7510028;-27.791231155395508;0.5500672459602356;-134.85723876953125
188;1673444266.9281018;47.1306424;7.2406206;48.84300231933594;1673444266.942897;-28.269298553466797;-8.045951835811138e-05;-134.63551330566406
189;1673444267.1309862;47.130642599999995;7.240621;49.05800247192383;1673444267.148555;-28.7761173248291;1.1018648147583008;-134.947509765625
190;1673444267.3303368;47.1306428;7.2406213;49.24100112915039;1673444267.3420491;-29.25419807434082;0.957748293876648;-134.89820861816406
191;1673444267.527837;47.130643;7.2406216;49.39200210571289;1673444267.542467;-34.277469635009766;0.13968895375728607;-132.44287109375
192;1673444267.7333188;47.130643;7.2406215;49.50300216674805;1673444267.7479932;-43.94483184814453;-6.223455905914307;-120.28385925292969
193;1673444267.9411051;47.130642599999995;7.2406204999999995;49.56900405883789;1673444267.9580033;-28.459440231323242;-9.93776798248291;-110.40991973876953
194;1673444268.145998;47.130642099999996;7.2406193;49.62200164794922;1673444268.1594193;-29.40418815612793;-16.305156707763672;-99.85598754882812
195;1673444268.3359003;47.1306417;7.2406178;49.66800308227539;1673444268.3512144;-25.57943344116211;-21.939748764038086;-90.60167694091797
196;1673444268.535918;47.130641;7.2406163;49.69700241088867;1673444268.5512536;-19.993135452270508;-25.081377029418945;-81.3603515625
197;1673444268.7370842;47.1306404;7.2406147;49.72300338745117;1673444268.748995;-14.07553482055664;-27.640975952148438;-71.99005889892578
198;1673444268.9331772;47.1306398;7.2406134;49.75800323486328;1673444268.9481125;-8.344884872436523;-27.18797492980957;-62.52082824707031
199;1673444269.1361995;47.1306392;7.240612199999999;49.78700256347656;1673444269.1511338;-3.325927495956421;-24.41556739807129;-53.18635559082031
200;1673444269.3458793;47.1306387;7.2406115;49.814002990722656;1673444269.3602374;1.2581535577774048;-24.252748489379883;-43.65031433105469
201;1673444269.5432165;47.1306383;7.2406111;49.840003967285156;1673444269.55703;4.96671199798584;-25.4186954498291;-36.82950210571289
202;1673444269.7301261;47.130638;7.2406109999999995;49.85000228881836;1673444269.7454839;4.947842597961426;-27.775676727294922;-39.22821044921875
203;1673444269.9470234;47.1306377;7.2406112;49.86300277709961;1673444269.961157;2.536947011947632;-30.062191009521484;-42.68379592895508
204;1673444270.1459002;47.1306374;7.2406115;49.87700271606445;1673444270.1615958;0.4369015395641327;-30.439464569091797;-44.05736541748047
205;1673444270.3964741;47.1306371;7.2406118;49.88800048828125;1673444270.4082003;-1.4474880695343018;-29.696598052978516;-44.51108932495117
206;1673444270.5840187;47.1306369;7.240612;49.90400314331055;1673444270.603585;-2.6028785705566406;-28.128488540649414;-44.669471740722656
207;1673444270.7834349;47.1306367;7.2406121;49.919002532958984;1673444270.814669;-3.1446263790130615;-27.77977180480957;-44.822628021240234
208;1673444270.986898;47.1306367;7.2406121;49.939002990722656;1673444271.0005846;-2.630187749862671;-28.952890396118164;-44.976009368896484
209;1673444271.161925;47.130636599999995;7.240611899999999;49.94300079345703;1673444271.1756;-1.8998125791549683;-29.989046096801758;-45.06390380859375
210;1673444271.355526;47.1306365;7.240611599999999;49.95100402832031;1673444271.3711412;-1.669195294380188;-30.97027587890625;-45.129051208496094
211;1673444271.5449932;47.130636599999995;7.2406112;49.96000289916992;1673444271.559654;-1.2447905540466309;-30.574264526367188;-45.14828872680664
212;1673444271.7538285;47.130636599999995;7.2406108;49.967002868652344;1673444271.765622;-1.2225667238235474;-29.016340255737305;-45.01162338256836
213;1673444271.9471564;47.1306367;7.2406104;49.970001220703125;1673444271.9637475;-1.0232934951782227;-27.155311584472656;-45.00919723510742
214;1673444272.15626;47.1306367;7.240609999999999;49.97200393676758;1673444272.17091;-0.4784577190876007;-27.036121368408203;-44.840885162353516
215;1673444272.350591;47.130636599999995;7.240609699999999;49.96200180053711;1673444272.3671942;-0.07546250522136688;-28.204795837402344;-44.9017448425293
216;1673444272.57181;47.130636599999995;7.240609399999999;49.96000289916992;1673444272.5874286;-8.858959197998047;-29.24614715576172;-45.42460632324219
217;1673444272.7671192;47.1306371;7.2406086;49.974002838134766;1673444272.7827353;-35.64579772949219;-24.94036865234375;-45.55281066894531
218;1673444272.9638464;47.1306389;7.240606;49.99700164794922;1673444272.978734;-51.136287689208984;-18.215410232543945;-47.25062942504883
219;1673444273.1445742;47.1306431;7.2406007;50.012001037597656;1673444273.1575806;-57.98800277709961;-13.147454261779785;-48.17621994018555
220;1673444273.3357718;47.130649999999996;7.2405927;50.00200271606445;1673444273.3498626;-53.14810562133789;-10.954578399658203;-48.72102355957031
221;1673444273.5488005;47.1306592;7.2405821999999995;49.98400115966797;1673444273.5627964;-53.80413055419922;-11.622747421264648;-51.127559661865234
222;1673444273.7267852;47.1306704;7.240569499999999;49.9630012512207;1673444273.7398195;-55.24599838256836;-12.878631591796875;-51.958614349365234
223;1673444273.9287486;47.1306831;7.2405548;49.93700408935547;1673444273.9439597;-52.746482849121094;-13.445589065551758;-51.76205062866211
224;1673444274.145751;47.1306971;7.2405387;49.900001525878906;1673444274.1618624;-51.20306396484375;-13.68042278289795;-50.874473571777344
225;1673444274.3447716;47.130711999999995;7.2405212;49.867000579833984;1673444274.359739;-50.57789993286133;-13.794574737548828;-50.20821762084961
226;1673444274.5559037;47.1307276;7.2405029;49.83000183105469;1673444274.5694034;-47.995113372802734;-14.845697402954102;-49.6096076965332
227;1673444274.7518096;47.1307438;7.2404836999999995;49.79300308227539;1673444274.768451;-47.3828010559082;-15.610050201416016;-49.57548904418945
228;1673444274.9502163;47.130760099999996;7.2404642;49.762001037597656;1673444274.9665537;-45.884151458740234;-16.060653686523438;-49.717960357666016
229;1673444275.1518893;47.1307768;7.2404442;49.73500061035156;1673444275.1706486;-44.580745697021484;-17.172893524169922;-49.860145568847656
230;1673444275.3488204;47.1307936;7.2404236;49.724002838134766;1673444275.364579;-45.27808380126953;-19.21139907836914;-50.05259323120117
231;1673444275.5706625;47.1308102;7.2404025999999995;49.72700119018555;1673444275.5911586;-47.13344955444336;-18.185619354248047;-54.09408187866211
232;1673444275.7676172;47.1308266;7.2403812;49.717002868652344;1673444275.7834668;-44.11234664916992;-17.01457405090332;-53.80602264404297
233;1673444275.953723;47.130842699999995;7.2403596;49.717002868652344;1673444275.9687927;-43.76242446899414;-20.625431060791016;-52.230224609375
234;1673444276.1447785;47.130858499999995;7.240337599999999;49.73200225830078;1673444276.1615326;-45.1678581237793;-24.60513687133789;-52.7133903503418
235;1673444276.346265;47.1308736;7.2403153;49.74500274658203;1673444276.363427;-45.538360595703125;-24.501544952392578;-54.22107696533203
236;1673444276.5474448;47.1308881;7.240292299999999;49.74800109863281;1673444276.567521;-42.560340881347656;-27.07002830505371;-53.788482666015625
237;1673444276.744521;47.1309019;7.240269;49.74500274658203;1673444276.7593396;-34.44643020629883;-36.97591018676758;-53.30058288574219
238;1673444276.932279;47.1309143;7.240246;49.72100067138672;1673444276.947624;-4.817904949188232;-41.556854248046875;-62.51319885253906
239;1673444277.1323059;47.1309247;7.240225199999999;49.63500213623047;1673444277.1484046;10.68053150177002;-18.004249572753906;-62.18891525268555
240;1673444277.3404887;47.130933899999995;7.240208399999999;49.53000259399414;1673444277.3593218;13.718966484069824;-10.756622314453125;-48.41474914550781
241;1673444277.5691156;47.1309415;7.2401968;49.5150032043457;1673444277.5874066;31.9055118560791;-16.407276153564453;-45.01506423950195
242;1673444277.780534;47.1309472;7.2401898;49.540000915527344;1673444277.795355;39.214229583740234;-19.002527236938477;-44.59079360961914
243;1673444277.9644637;47.1309508;7.240187;49.56800079345703;1673444277.9753797;39.65116882324219;-20.48931121826172;-43.613468170166016
244;1673444278.1432843;47.130952199999996;7.2401879;49.61000061035156;1673444278.1595502;42.73228454589844;-25.62419891357422;-43.8547477722168
245;1673444278.3570023;47.1309512;7.2401917;49.6660041809082;1673444278.37265;44.84813690185547;-31.918241500854492;-43.86183547973633
246;1673444278.5996943;47.1309474;7.2401975;49.72100067138672;1673444278.615468;39.706756591796875;-38.93635177612305;-43.0294075012207
247;1673444278.8071678;47.1309414;7.240203999999999;49.775001525878906;1673444278.8218236;25.888090133666992;-45.59325408935547;-44.765480041503906
248;1673444279.0243356;47.130933999999996;7.2402098;49.814002990722656;1673444279.0351079;9.090263366699219;-44.84128952026367;-46.40189743041992
249;1673444279.223464;47.130925999999995;7.2402146;49.84300231933594;1673444279.235223;-6.832327365875244;-37.93777847290039;-48.73401641845703
250;1673444279.395562;47.1309185;7.240218199999999;49.85200119018555;1673444279.4072683;-15.324471473693848;-30.666017532348633;-51.41670608520508
251;1673444279.573144;47.1309119;7.2402204999999995;49.85400390625;1673444279.5848563;-12.41318416595459;-29.400028228759766;-52.52589797973633
252;1673444279.7592385;47.1309062;7.2402219;49.85700225830078;1673444279.7699776;7.352554798126221;-31.939821243286133;-52.96291732788086
253;1673444279.9439368;47.1309006;7.240223599999999;49.85400390625;1673444279.9585917;17.9432373046875;-31.04827880859375;-51.14945983886719
254;1673444280.1285863;47.1308948;7.2402261;49.85300064086914;1673444280.1451797;21.592283248901367;-32.1258430480957;-50.05585479736328
255;1673444280.3356388;47.1308886;7.2402295;49.85100173950195;1673444280.35321;21.755184173583984;-33.634803771972656;-49.43648910522461
256;1673444280.5339527;47.1308821;7.2402336;49.76700210571289;1673444280.5495684;22.736406326293945;-22.924999237060547;-48.07352066040039
257;1673444280.734932;47.1308758;7.2402378999999994;49.35200119018555;1673444280.7534754;17.782001495361328;7.133972644805908;-45.541648864746094
258;1673444280.9584777;47.1308697;7.2402424;48.55400085449219;1673444280.971168;6.914301872253418;50.8669319152832;-49.81071090698242
259;1673444281.177695;47.1308637;7.2402467999999995;47.35900115966797;1673444281.1874547;0.1925809532403946;96.18707275390625;-63.8240966796875
260;1673444281.3688314;47.1308577;7.2402511;45.79900360107422;1673444281.3840175;3.9340124130249023;125.87367248535156;-78.43464660644531
261;1673444281.556577;47.130851899999996;7.240255599999999;43.868003845214844;1673444281.572211;8.468215942382812;129.63050842285156;-89.60953521728516
262;1673444281.7615514;47.130846299999995;7.2402603;41.599002838134766;1673444281.7762468;8.729043960571289;106.34693908691406;-98.90283203125
263;1673444281.9498377;47.130840899999995;7.2402652;38.987003326416016;1673444281.9674263;4.948930263519287;56.82194137573242;-101.30292510986328
264;1673444282.149355;47.1308353;7.2402703;35.99800109863281;1673444282.163035;6.782625198364258;-5.552201271057129;-96.39779663085938
265;1673444282.347746;47.130829999999996;7.2402755;32.605003356933594;1673444282.363488;15.879162788391113;-51.24735641479492;-96.5172119140625
266;1673444282.5437877;47.130824999999994;7.2402808;28.860000610351562;1673444282.559432;22.737489700317383;-60.62910842895508;-100.44562530517578
267;1673444282.7407541;47.1308205;7.2402862;24.7710018157959;1673444282.7553804;25.398279190063477;-27.277870178222656;-100.08064270019531
268;1673444282.9365256;47.1308164;7.240291399999999;20.319000244140625;1673444282.9511652;20.52442169189453;35.32789993286133;-98.54537963867188
269;1673444283.1446686;47.1308121;7.2402964999999995;15.47900104522705;1673444283.1602933;12.761006355285645;80.6323013305664;-105.38567352294922
270;1673444283.3421733;47.1308076;7.240301799999999;10.324000358581543;1673444283.3568275;7.499316692352295;79.39979553222656;-114.53279876708984
271;1673444283.5443013;47.1308031;7.240307499999999;4.860000133514404;1673444283.5618694;1.8217048645019531;30.73583221435547;-116.69366455078125
272;1673444283.7589343;47.1308004;7.240312299999999;0.20800000429153442;1673444283.7745569;3.424571990966797;21.72550392150879;-118.01006317138672
273;1673444283.9545398;47.1308052;7.2403138;0.4610000252723694;1673444283.971317;4.808786392211914;11.022581100463867;-121.11244201660156
274;1673444284.1444836;47.1308083;7.2403167999999996;0.6610000133514404;1673444284.1582377;4.554917812347412;15.847681999206543;-120.66213989257812
275;1673444284.369836;47.1308115;7.240319599999999;0.784000039100647;1673444284.3840988;4.464711666107178;18.042036056518555;-120.35255432128906
276;1673444284.5642688;47.130815299999995;7.240321799999999;0.8510000109672546;1673444284.5804412;4.36182975769043;18.02261734008789;-120.0995101928711
277;1673444284.7604156;47.130819599999995;7.2403232;0.8820000290870667;1673444284.7750628;4.204780101776123;18.084043502807617;-119.91716003417969
278;1673444284.943563;47.1308243;7.240323699999999;0.8950000405311584;1673444284.9601548;4.057076454162598;18.323612213134766;-119.82463836669922
279;1673444285.1439085;47.1308289;7.2403233;0.8950000405311584;1673444285.1614757;3.8541321754455566;18.369821548461914;-119.7565689086914
280;1673444285.34996;47.130834899999996;7.2403229;0.9140000343322754;1673444285.3636417;3.7519431114196777;18.493520736694336;-119.6505355834961
281;1673444285.543477;47.130839599999995;7.2403214;0.921000063419342;1673444285.5639672;3.509516954421997;18.401029586791992;-119.65347290039062
282;1673444285.761412;47.1308432;7.2403189;0.9230000376701355;1673444285.7750843;3.2865774631500244;18.155893325805664;-119.71524810791016
283;1673444285.9599514;47.130846;7.2403159;0.921000063419342;1673444285.971665;3.053731918334961;17.804935455322266;-119.78170013427734
284;1673444286.1484768;47.130848199999996;7.240312599999999;0.9190000295639038;1673444286.1631298;2.827164649963379;17.3700008392334;-119.83402252197266
285;1673444286.354803;47.1308499;7.2403092;0.9170000553131104;1673444286.3674908;2.6579957008361816;16.803550720214844;-119.90414428710938
286;1673444286.5465145;47.130851199999995;7.2403058;0.9170000553131104;1673444286.5591917;2.4888017177581787;16.31026840209961;-119.98666381835938
287;1673444286.735383;47.1308562;7.2403023;0.9150000214576721;1673444286.751002;2.458026647567749;16.05905532836914;-119.93070983886719
288;1673444286.9302087;47.1308641;7.2402986;0.8940000534057617;1673444286.9468331;2.430716037750244;15.825227737426758;-119.89791107177734
289;1673444287.1473048;47.1308739;7.2402945999999995;0.8610000610351562;1673444287.1639316;2.4294517040252686;15.614511489868164;-119.89866638183594
290;1673444287.3477402;47.130885;7.2402903;0.8160000443458557;1673444287.3643303;2.3833751678466797;15.320793151855469;-119.89965057373047
291;1673444287.5549366;47.130897;7.2402856;0.76500004529953;1673444287.5706422;2.395813226699829;15.105731010437012;-119.98934173583984
292;1673444287.7593741;47.1309098;7.240280599999999;0.7150000333786011;1673444287.7750237;2.3821377754211426;15.079598426818848;-120.07190704345703
293;1673444287.9550798;47.1309232;7.240275199999999;0.659000039100647;1673444287.9687505;2.3647661209106445;14.904202461242676;-120.13033294677734
294;1673444288.1303556;47.1309373;7.240269499999999;0.6030000448226929;1673444288.1434743;2.397115468978882;14.589098930358887;-120.16242218017578
295;1673444288.336757;47.1309519;7.2402634;0.5480000376701355;1673444288.352657;2.3680102825164795;14.261524200439453;-120.21855926513672
296;1673444288.5543199;47.130967;7.240256899999999;0.4930000305175781;1673444288.5714352;2.3384339809417725;13.96529483795166;-120.25054168701172
297;1673444288.747068;47.1309827;7.24025;0.43800002336502075;1673444288.7636435;2.3503341674804688;13.640488624572754;-120.28387451171875
298;1673444288.947182;47.130998899999994;7.240242899999999;0.38700002431869507;1673444288.9626346;2.3306257724761963;13.314179420471191;-120.3412094116211
299;1673444289.1551642;47.1310155;7.240235299999999;0.3400000035762787;1673444289.1735427;2.3405141830444336;13.060226440429688;-120.35636901855469
300;1673444289.3404462;47.1310329;7.240227399999999;0.2720000147819519;1673444289.3553944;2.371347665786743;12.769963264465332;-120.37734985351562
301;1673444289.5625134;47.131050599999995;7.2402191;0.21700000762939453;1673444289.5814314;2.3019189834594727;12.483957290649414;-120.40762329101562
302;1673444289.7636964;47.1310688;7.2402105;0.16900001466274261;1673444289.7785292;2.2868640422821045;12.234273910522461;-120.4548568725586
303;1673444289.9645307;47.1310874;7.2402014999999995;0.1290000081062317;1673444289.9802985;2.3040575981140137;11.9573392868042;-120.47114562988281
304;1673444290.1705284;47.1311065;7.2401922;0.08700000494718552;1673444290.1863203;2.177947521209717;11.748814582824707;-120.49293518066406
305;1673444290.3994007;47.131125999999995;7.2401826;0.05000000074505806;1673444290.4141517;2.2047293186187744;11.505060195922852;-120.5489273071289
306;1673444290.5755718;47.1311464;7.240172599999999;-0.014000000432133675;1673444290.5867536;2.109050750732422;10.898027420043945;-120.60234832763672
307;1673444290.7483675;47.1311671;7.2401623;-0.023000001907348633;1673444290.7645512;2.091484546661377;10.617708206176758;-120.63961791992188
308;1673444290.964547;47.1311885;7.2401516;-0.05700000375509262;1673444290.9793677;2.0929737091064453;10.338213920593262;-120.68807983398438
