CUSTOM.date [local], CUSTOM.updateTime [local], OSD.flyTime, OSD.flyTime [s], OSD.latitude, OSD.longitude, OSD.height [ft], OSD.heightMax [ft], OSD.vpsHeight [ft], OSD.altitude [ft], OSD.hSpeed [MPH], OSD.hSpeedMax [MPH], OSD.xSpeed [MPH], OSD.xSpeedMax [MPH], OSD.ySpeed [MPH], OSD.ySpeedMax [MPH], OSD.zSpeed [MPH], OSD.zSpeedMax [MPH], OSD.pitch, OSD.roll, OSD.yaw, OSD.yaw [360], OSD.flycState, OSD.flycCommand, OSD.flightAction, OSD.gpsNum, OSD.gpsLevel, OSD.isGPSUsed, OSD.nonGPSCause, OSD.droneType, OSD.isSwaveWork, OSD.waveError, OSD.goHomeStatus, OSD.batteryType, OSD.ctrlDevice, OSD.isOnGround, OSD.isMotorOn, OSD.isMotorBlocked, OSD.motorStartFailedCause, OSD.motorFailReason, OSD.isImuPreheated, OSD.imuInitFailReason, OSD.isAcceletorOverRange, OSD.isBarometerDeadInAir, OSD.isCompassError, OSD.isGoHomeHeightModified, OSD.canIOCWork, OSD.isNotEnoughForce, OSD.isOutOfLimit, OSD.isPropellerCatapult, OSD.isVibrating, OSD.isVisionUsed, OSD.voltageWarning, GIMBAL.mode, GIMBAL.pitch, GIMBAL.roll, GIMBAL.yaw, GIMBAL.yaw [360], GIMBAL.isPitchAtLimit, GIMBAL.isRollAtLimit, GIMBAL.isYawAtLimit, GIMBAL.isStuck, CAMERA.isPhoto, CAMERA.isVideo, CAMERA.filename, CAMERA.sdCardIsInserted, CAMERA.sdCardState, RC.downlinkSignal, RC.uplinkSignal, RC.aileron, RC.elevator, RC.throttle, RC.rudder, RC.mode, RC.goHomeDepressed, RC.recordDepressed, RC.shutterDepressed, RC.playbackDepressed, RC.wheelDepressed, RC.wheelOffset, RC.custom1Depressed, RC.custom2Depressed, RC.custom3Depressed, RC.custom4Depressed, BATTERY.chargeLevel, BATTERY.currentPV [V], BATTERY.currentCapacity [mAh], BATTERY.fullCapacity [mAh], BATTERY.voltage [V], BATTERY.isCellVoltageEstimated, BATTERY.cellVoltage1 [V], BATTERY.cellVoltage2 [V], BATTERY.cellVoltage3 [V], BATTERY.cellVoltage4 [V], BATTERY.cellVoltage5 [V], BATTERY.cellVoltage6 [V], BATTERY.maxCellVoltageDeviation, BATTERY.isCellVoltageDeviationHigh, BATTERY.isVoltageLow, BATTERY.current [A], BATTERY.temperature [F], BATTERY.minTemperature [F], BATTERY.maxTemperature [F], BATTERY.usefulTime [s], BATTERY.goHomeTime [s], BATTERY.landTime [s], BATTERY.goHomeBattery, BATTERY.landBattery, BATTERY.safeFlyRadius, BATTERY.volumeConsume, BATTERY.status, BATTERY.goHomeStatus, BATTERY.goHomeCountdown, BATTERY.lowWarning, BATTERY.lowWarningGoHome, BATTERY.seriousLowWarning, BATTERY.seriousLowWarningLanding, BATTERY.timesCharged, MC.failSafeAction, HOME.latitude, HOME.longitude, HOME.distance [ft], HOME.height [ft], HOME.heightLimit [ft], HOME.isHomeRecord, HOME.goHomeMode, HOME.aircraftHeadDirection, HOME.isDynamicHomePointEnabled, HOME.isReachedLimitDistance, HOME.isReachedLimitHeight, HOME.isCompassCeleing, HOME.compassCeleStatus, HOME.isMultipleFlightModeEnabled, HOME.isBeginnerMode, HOME.isIOCEnabled, HOME.iocMode, HOME.goHomeHeight [ft], HOME.courseLockAngle, HOME.forceLandingHeight [ft], HOME.wind, HOME.dataRecorderFileIndex, RECOVER.appType, RECOVER.appVersion, RECOVER.aircraftName, RECOVER.aircraftSerial, RECOVER.cameraSerial, RECOVER.rcSerial, RECOVER.batterySerial, DETAILS.totalTime [s], DETAILS.totalDistance [ft], DETAILS.maxHeight [ft], DETAILS.maxHorizontalSpeed [MPH], DETAILS.maxVerticalSpeed [MPH], DETAILS.photoNum, DETAILS.videoTime [s], DETAILS.aircraftName, DETAILS.aircraftSerial, DETAILS.cameraSerial, DETAILS.rcSerial, DETAILS.batterySerial, DETAILS.appName, DETAILS.appType, DETAILS.appVersion, APPGPS.latitude, APPGPS.longitude, APPGPS.accuracy, APP.message, APP.tip, APP.warning
8/25/2022,8:42:05.04 AM,0m 0.0s,0.0,46.97552778,7.18034526,0,0,0.7,1429,0,0,0,0,0,0,0,0,-1.6,0.1,-36.2,323.8,Starting Motors,Other,Waypoint Mission,17,10,True,,Matrice 300 RTK,True,False,,Smart,RC,True,True,False,,,True,,False,False,False,False,False,False,False,False,False,False,0,Free,0,0,0,0,False,False,False,False,False,False,,False,Normal,,100,1024,1024,1024,1024,1,False,False,False,False,False,0,False,False,False,False,58,46.872,6065,10462,46.872,True,,,,,,,,False,False,0.74,102.4,102.4,102.4,,,,,,,,,Idle,,,True,,False,,Go Home,,,,,,False,,,False,False,False,False,0,False,False,False,,,,,Calm,,Android, 4.1.1,M300 RTK,1ZNBJ8700C01MC,,1ZMBHAN003009A,1Z6PHBKDA01Y41,140,1.8,229.7,36.4,7.2,0,0,M300 RTK,1ZNBJ8700C01MC,,1ZMBHAN003009A,1Z6PHBKDA01Y41,DJI Pilot,Android, 4.1.1,46.97543183,7.18039833,485.3,,,
8/25/2022,8:42:05.14 AM,0m 0.1s,0.1,46.97552778,7.18034526,0,0,0.7,1429,0,0,0,0,0,0,0,0,-1.6,0.1,-36.2,323.8,Starting Motors,Other,Waypoint Mission,17,10,True,,Matrice 300 RTK,True,False,,Smart,RC,True,True,False,,,True,,False,False,False,False,False,False,False,False,False,False,0,Free,0,0,0,0,False,False,False,False,False,False,,False,Normal,100,100,1024,1024,1024,1024,1,False,False,False,False,False,0,False,False,False,False,58,46.872,6065,10462,46.872,True,,,,,,,,False,False,0.74,102.4,102.4,102.4,,,,,,,,,Idle,,,True,,False,,Go Home,,,,,,False,,,False,False,False,False,0,False,False,False,,,,,Calm,,Android, 4.1.1,M300 RTK,1ZNBJ8700C01MC,,1ZMBHAN003009A,1Z6PHBKDA01Y41,140,1.8,229.7,36.4,7.2,0,0,M300 RTK,1ZNBJ8700C01MC,,1ZMBHAN003009A,1Z6PHBKDA01Y41,DJI Pilot,Android, 4.1.1,46.97543183,7.18039833,485.3,,Your aircraft is flying in an Altitude Zone (500m). Please fly with caution.,
8/25/2022,8:42:05.24 AM,0m 0.2s,0.2,46.97552777,7.18034526,0,0,0.7,1429,0,0,0,0,0,0,0,0,-1.6,0.1,-36.2,323.8,Starting Motors,Other,Waypoint Mission,17,10,True,,Matrice 300 RTK,True,False,,Smart,RC,True,True,False,,,True,,False,False,False,False,False,False,False,False,False,False,0,Free,0,0,0,0,False,False,False,False,False,False,,False,Normal,100,100,1024,1024,1024,1024,1,False,False,False,False,False,0,False,False,False,False,58,46.872,6065,10462,46.872,True,,,,,,,,False,False,0.74,102.4,102.4,102.4,,,,,,,,,Idle,,,True,,False,,Go Home,,,,,,False,,,False,False,False,False,0,False,False,False,,,,,Calm,,Android, 4.1.1,M300 RTK,1ZNBJ8700C01MC,,1ZMBHAN003009A,1Z6PHBKDA01Y41,140,1.8,229.7,36.4,7.2,0,0,M300 RTK,1ZNBJ8700C01MC,,1ZMBHAN003009A,1Z6PHBKDA01Y41,DJI Pilot,Android, 4.1.1,46.97543183,7.18039833,485.3,,,
8/25/2022,8:42:05.26 AM,0m 0.3s,0.3,46.97552777,7.18034526,0,0,0.7,1429,0,0,0,0,0,0,0,0,-1.6,0.1,-36.2,323.8,Starting Motors,Other,Waypoint Mission,17,10,True,,Matrice 300 RTK,True,False,,Smart,RC,True,True,False,,,True,,False,False,False,False,False,False,False,False,False,False,0,Free,0,0,0,0,False,False,False,False,False,False,,False,Normal,100,100,1024,1024,1024,1024,1,False,False,False,False,False,0,False,False,False,False,58,46.872,6065,10462,46.872,True,,,,,,,,False,False,0.74,102.4,102.4,102.4,,,,,,,,,Idle,,,True,,False,,Go Home,,,,,,False,,,False,False,False,False,0,False,False,False,,,,,Calm,,Android, 4.1.1,M300 RTK,1ZNBJ8700C01MC,,1ZMBHAN003009A,1Z6PHBKDA01Y41,140,1.8,229.7,36.4,7.2,0,0,M300 RTK,1ZNBJ8700C01MC,,1ZMBHAN003009A,1Z6PHBKDA01Y41,DJI Pilot,Android, 4.1.1,46.97543183,7.18039833,485.3,,,
8/25/2022,8:42:05.45 AM,0m 0.4s,0.4,46.97552778,7.18034526,0,0,0.7,1429,0,0,0,0,0,0,0,0,-1.6,0.1,-36.2,323.8,Starting Motors,Other,Waypoint Mission,17,10,True,,Matrice 300 RTK,True,False,,Smart,RC,True,True,False,,,True,,False,False,False,False,False,False,False,False,False,False,0,Free,0,0,0,0,False,False,False,False,False,False,,False,Normal,100,100,1024,1024,1024,1024,1,False,False,False,False,False,0,False,False,False,False,58,46.86,6065,10462,46.86,True,,,,,,,,False,False,0.766,102.4,102.4,102.4,,,,,,,,,Idle,,,True,,False,,Go Home,,,,,,False,,,False,False,False,False,0,False,False,False,,,,,Calm,,Android, 4.1.1,M300 RTK,1ZNBJ8700C01MC,,1ZMBHAN003009A,1Z6PHBKDA01Y41,140,1.8,229.7,36.4,7.2,0,0,M300 RTK,1ZNBJ8700C01MC,,1ZMBHAN003009A,1Z6PHBKDA01Y41,DJI Pilot,Android, 4.1.1,46.97543183,7.18039833,485.3,,,
8/25/2022,8:42:05.55 AM,0m 0.5s,0.5,46.97552778,7.18034526,0,0,0.7,1429,0,0,0,0,0,0,0,0,-1.6,0.1,-36.2,323.8,Starting Motors,Other,Waypoint Mission,17,10,True,,Matrice 300 RTK,True,False,,Smart,RC,True,True,False,,,True,,False,False,False,False,False,False,False,False,False,False,0,Free,0,0,0,0,False,False,False,False,False,False,,False,Normal,100,100,1024,1024,1024,1024,1,False,False,False,False,False,0,False,False,False,False,58,46.86,6065,10462,46.86,True,,,,,,,,False,False,0.766,102.4,102.4,102.4,,,,,,,,,Idle,,,True,,False,,Go Home,,,,,,False,,,False,False,False,False,0,False,False,False,,,,,Calm,,Android, 4.1.1,M300 RTK,1ZNBJ8700C01MC,,1ZMBHAN003009A,1Z6PHBKDA01Y41,140,1.8,229.7,36.4,7.2,0,0,M300 RTK,1ZNBJ8700C01MC,,1ZMBHAN003009A,1Z6PHBKDA01Y41,DJI Pilot,Android, 4.1.1,46.97543183,7.18039833,485.3,,,
8/25/2022,8:42:05.65 AM,0m 0.6s,0.6,46.97552778,7.18034526,0,0,0.7,1429,0,0,0,0,0,0,0,0,-1.6,0.1,-36.2,323.8,Starting Motors,Other,Waypoint Mission,17,10,True,,Matrice 300 RTK,True,False,,Smart,RC,True,True,False,,,True,,False,False,False,False,False,False,False,False,False,False,0,Free,0,0,0,0,False,False,False,False,False,False,,False,Normal,100,100,1024,1024,1024,1024,1,False,False,False,False,False,0,False,False,False,False,58,46.86,6065,10462,46.86,True,,,,,,,,False,False,0.766,102.4,102.4,102.4,,,,,,,,,Idle,,,True,,False,,Go Home,,,,,,False,,,False,False,False,False,0,False,False,False,,,,,Calm,,Android, 4.1.1,M300 RTK,1ZNBJ8700C01MC,,1ZMBHAN003009A,1Z6PHBKDA01Y41,140,1.8,229.7,36.4,7.2,0,0,M300 RTK,1ZNBJ8700C01MC,,1ZMBHAN003009A,1Z6PHBKDA01Y41,DJI Pilot,Android, 4.1.1,46.97543183,7.18039833,485.3,,,
8/25/2022,8:42:05.75 AM,0m 0.7s,0.7,46.97552777,7.18034526,0,0,0.7,1429,0,0,0,0,0,0,0,0,-1.6,0.2,-36.3,323.7,Starting Motors,Other,Waypoint Mission,17,10,True,,Matrice 300 RTK,True,False,,Smart,RC,True,True,False,,,True,,False,False,False,False,False,False,False,False,False,False,0,Free,0,0,0,0,False,False,False,False,False,False,,False,Normal,100,100,1024,1024,1024,1024,1,False,False,False,False,False,0,False,False,False,False,58,46.86,6065,10462,46.782,True,,,,,,,,False,False,0.766,102.4,102.4,102.4,0,53,0,10,5,5584.1,744.55,,Idle,0,30,False,10,True,,Go Home,46.97552778,7.18034525,0.0,1222.2,262.5,True,1,1,False,False,False,False,0,False,False,False,Course Lock,262.5,,23.0,Calm,22,Android, 4.1.1,M300 RTK,1ZNBJ8700C01MC,,1ZMBHAN003009A,1Z6PHBKDA01Y41,140,1.8,229.7,36.4,7.2,0,0,M300 RTK,1ZNBJ8700C01MC,,1ZMBHAN003009A,1Z6PHBKDA01Y41,DJI Pilot,Android, 4.1.1,46.97543183,7.18039833,485.3,Data Recorder File Index is 22.,,
8/25/2022,8:42:05.86 AM,0m 0.8s,0.8,46.97552777,7.18034526,0,0,0.7,1429,0,0,0,0,0,0,0,0,-1.6,0.1,-36.2,323.8,Starting Motors,Other,Waypoint Mission,17,10,True,,Matrice 300 RTK,True,False,,Smart,RC,True,True,False,,,True,,False,False,False,False,False,False,False,False,False,False,0,Free,0,0,0,0,False,False,False,False,False,False,,False,Normal,100,100,1024,1024,1024,1024,1,False,False,False,False,False,0,False,False,False,False,58,46.86,6065,10462,46.782,True,,,,,,,,False,False,0.766,102.4,102.4,102.4,0,53,0,10,5,5584.1,744.55,,Idle,0,30,False,10,True,,Go Home,46.97552778,7.18034525,0.0,1222.2,262.5,True,1,1,False,False,False,False,0,False,False,False,Course Lock,262.5,,23.0,Calm,22,Android, 4.1.1,M300 RTK,1ZNBJ8700C01MC,,1ZMBHAN003009A,1Z6PHBKDA01Y41,140,1.8,229.7,36.4,7.2,0,0,M300 RTK,1ZNBJ8700C01MC,,1ZMBHAN003009A,1Z6PHBKDA01Y41,DJI Pilot,Android, 4.1.1,46.97543183,7.18039833,485.3,,,
8/25/2022,8:42:05.96 AM,0m 0.9s,0.9,46.97552776,7.18034528,0,0,0.7,1429,0,0,0,0,0,0,0,0,-1.6,0.1,-36,324,Starting Motors,Other,Waypoint Mission,17,10,True,,Matrice 300 RTK,True,False,,Smart,RC,True,True,False,,,True,,False,False,False,False,False,False,False,False,False,False,0,Free,0,0,0,0,False,False,False,False,False,False,,False,Normal,100,100,1024,1024,1024,1024,1,False,False,False,False,False,0,False,False,False,False,58,46.86,6065,10462,46.782,True,,,,,,,,False,False,0.766,102.4,102.4,102.4,0,53,0,10,5,5584.1,744.55,,Idle,0,30,False,10,True,,Go Home,46.97552778,7.18034525,0.0,1222.2,262.5,True,1,1,False,False,False,False,0,False,False,False,Course Lock,262.5,,23.0,Calm,22,Android, 4.1.1,M300 RTK,1ZNBJ8700C01MC,,1ZMBHAN003009A,1Z6PHBKDA01Y41,140,1.8,229.7,36.4,7.2,0,0,M300 RTK,1ZNBJ8700C01MC,,1ZMBHAN003009A,1Z6PHBKDA01Y41,DJI Pilot,Android, 4.1.1,46.97543183,7.18039833,485.3,,,
8/25/2022,8:42:06.06 AM,0m 1.0s,1.0,46.97552776,7.1803453,0,0,0.7,1429,0,0,0,0,0,0,0,0,-1.6,0.1,-36.1,323.9,Starting Motors,Other,Waypoint Mission,17,10,True,,Matrice 300 RTK,True,False,,Smart,RC,True,True,False,,,True,,False,False,False,False,False,False,False,False,False,False,0,Free,0,0,0,0,False,False,False,False,False,False,,False,Normal,100,100,1024,1024,1024,1024,1,False,False,False,False,False,0,False,False,False,False,58,46.86,6065,10462,46.782,True,,,,,,,,False,False,0.766,102.4,102.4,102.4,0,53,0,10,5,5584.1,744.55,,Idle,0,30,False,10,True,,Go Home,46.97552778,7.18034525,0.0,1222.2,262.5,True,1,1,False,False,False,False,0,False,False,False,Course Lock,262.5,,23.0,Calm,22,Android, 4.1.1,M300 RTK,1ZNBJ8700C01MC,,1ZMBHAN003009A,1Z6PHBKDA01Y41,140,1.8,229.7,36.4,7.2,0,0,M300 RTK,1ZNBJ8700C01MC,,1ZMBHAN003009A,1Z6PHBKDA01Y41,DJI Pilot,Android, 4.1.1,46.97543183,7.18039833,485.3,,,
8/25/2022,8:42:06.16 AM,0m 1.1s,1.1,46.97552777,7.1803453,0,0,0.7,1429,0,0,0,0,0,0,0,0,-1.6,0.1,-36.2,323.8,Starting Motors,Other,Waypoint Mission,17,10,True,,Matrice 300 RTK,True,False,,Smart,RC,True,True,False,,,True,,False,False,False,False,False,False,False,False,False,False,0,Free,0,0,0,0,False,False,False,False,False,False,,False,Normal,100,100,1024,1024,1024,1024,1,False,False,False,False,False,0,False,False,False,False,58,46.86,6065,10462,46.782,True,,,,,,,,False,False,0.766,102.4,102.4,102.4,0,53,0,10,5,5584.1,744.55,,Idle,0,30,False,10,True,,Go Home,46.97552778,7.18034525,0.0,1222.2,262.5,True,1,1,False,False,False,False,0,False,False,False,Course Lock,262.5,,23.0,Calm,22,Android, 4.1.1,M300 RTK,1ZNBJ8700C01MC,,1ZMBHAN003009A,1Z6PHBKDA01Y41,140,1.8,229.7,36.4,7.2,0,0,M300 RTK,1ZNBJ8700C01MC,,1ZMBHAN003009A,1Z6PHBKDA01Y41,DJI Pilot,Android, 4.1.1,46.97543183,7.18039833,485.3,,,
8/25/2022,8:42:06.26 AM,0m 1.2s,1.2,46.97552778,7.1803453,0,0,0.7,1429,0,0,0,0,0,0,0,0,-1.5,0.1,-36.2,323.8,Starting Motors,Other,Waypoint Mission,17,10,True,,Matrice 300 RTK,True,False,,Smart,RC,True,True,False,,,True,,False,False,False,False,False,False,False,False,False,False,0,Free,0,0,0,0,False,False,False,False,False,False,,False,Normal,100,100,1024,1024,1024,1024,1,False,False,False,False,False,0,False,False,False,False,58,46.86,6065,10462,46.782,True,,,,,,,,False,False,0.766,102.4,102.4,102.4,0,53,0,10,5,5584.1,744.55,,Idle,0,30,False,10,True,,Go Home,46.97552778,7.18034525,0.0,1222.2,262.5,True,1,1,False,False,False,False,0,False,False,False,Course Lock,262.5,,23.0,Calm,22,Android, 4.1.1,M300 RTK,1ZNBJ8700C01MC,,1ZMBHAN003009A,1Z6PHBKDA01Y41,140,1.8,229.7,36.4,7.2,0,0,M300 RTK,1ZNBJ8700C01MC,,1ZMBHAN003009A,1Z6PHBKDA01Y41,DJI Pilot,Android, 4.1.1,46.97543183,7.18039833,485.3,,,
8/25/2022,8:42:06.28 AM,0m 1.3s,1.3,46.97552779,7.18034529,0,0,0.7,1429,0,0,0,0,0,0,0,0,-1.5,0.1,-36.2,323.8,Starting Motors,Other,Waypoint Mission,17,10,True,,Matrice 300 RTK,True,False,,Smart,RC,True,True,False,,,True,,False,False,False,False,False,False,False,False,False,False,0,Free,0,0,0,0,False,False,False,False,False,False,,False,Normal,100,100,1024,1024,1024,1024,1,False,False,False,False,False,0,False,False,False,False,58,46.86,6065,10462,46.782,True,,,,,,,,False,False,0.766,102.4,102.4,102.4,0,53,0,10,5,5584.1,744.55,,Idle,0,30,False,10,True,,Go Home,46.97552778,7.18034525,0.0,1222.2,262.5,True,1,1,False,False,False,False,0,False,False,False,Course Lock,262.5,,23.0,Calm,22,Android, 4.1.1,M300 RTK,1ZNBJ8700C01MC,,1ZMBHAN003009A,1Z6PHBKDA01Y41,140,1.8,229.7,36.4,7.2,0,0,M300 RTK,1ZNBJ8700C01MC,,1ZMBHAN003009A,1Z6PHBKDA01Y41,DJI Pilot,Android, 4.1.1,46.97543183,7.18039833,485.3,,,
8/25/2022,8:42:06.46 AM,0m 1.4s,1.4,46.97552779,7.18034529,0,0,0.7,1429,0,0,0,0,0,0,0,0,-1.5,0.1,-36.3,323.7,Starting Motors,Other,Waypoint Mission,17,10,True,,Matrice 300 RTK,True,False,,Smart,RC,True,True,False,,,True,,False,False,False,False,False,False,False,False,False,False,0,Free,0,0,0,0,False,False,False,False,False,False,,False,Normal,100,100,1024,1024,1024,1024,1,False,False,False,False,False,0,False,False,False,False,58,46.872,6065,10462,46.782,True,,,,,,,,False,False,2.124,102.4,102.4,102.4,0,53,0,10,5,5584.1,744.55,,Idle,0,30,False,10,True,,Go Home,46.97552778,7.18034525,0.0,1222.2,262.5,True,1,1,False,False,False,False,0,False,False,False,Course Lock,262.5,,23.0,Calm,22,Android, 4.1.1,M300 RTK,1ZNBJ8700C01MC,,1ZMBHAN003009A,1Z6PHBKDA01Y41,140,1.8,229.7,36.4,7.2,0,0,M300 RTK,1ZNBJ8700C01MC,,1ZMBHAN003009A,1Z6PHBKDA01Y41,DJI Pilot,Android, 4.1.1,46.97543183,7.18039833,485.3,,,
8/25/2022,8:42:06.56 AM,0m 1.5s,1.5,46.97552778,7.18034529,0,0,0.7,1429,0,0,0,0,0,0,0,0,-1.5,0.1,-36.2,323.8,Starting Motors,Other,Waypoint Mission,17,10,True,,Matrice 300 RTK,True,False,,Smart,RC,True,True,False,,,True,,False,False,False,False,False,False,False,False,False,False,0,Free,0,0,0,0,False,False,False,False,False,False,,False,Normal,100,100,1024,1024,1024,1024,1,False,False,False,False,False,0,False,False,False,False,58,46.872,6065,10462,46.782,True,,,,,,,,False,False,2.124,102.4,102.4,102.4,0,53,0,10,5,5584.1,744.55,,Idle,0,30,False,10,True,,Go Home,46.97552778,7.18034525,0.0,1222.2,262.5,True,1,1,False,False,False,False,0,False,False,False,Course Lock,262.5,,23.0,Calm,22,Android, 4.1.1,M300 RTK,1ZNBJ8700C01MC,,1ZMBHAN003009A,1Z6PHBKDA01Y41,140,1.8,229.7,36.4,7.2,0,0,M300 RTK,1ZNBJ8700C01MC,,1ZMBHAN003009A,1Z6PHBKDA01Y41,DJI Pilot,Android, 4.1.1,46.97543183,7.18039833,485.3,,,
8/25/2022,8:42:06.67 AM,0m 1.6s,1.6,46.97552777,7.18034529,0,0,0.7,1429,0,0,0,0,0,0,0,0,-1.5,0.1,-36.2,323.8,Starting Motors,Other,Waypoint Mission,17,10,True,,Matrice 300 RTK,True,False,,Smart,RC,True,True,False,,,True,,False,False,False,False,False,False,False,False,False,False,0,Free,0,0,0,0,False,False,False,False,False,False,,False,Normal,100,100,1024,1024,1024,1024,1,False,False,False,False,False,0,False,False,False,False,58,46.872,6065,10462,46.782,True,,,,,,,,False,False,2.124,102.4,102.4,102.4,0,53,0,10,5,5584.1,744.55,,Idle,0,30,False,10,True,,Go Home,46.97552778,7.18034525,0.0,1222.2,262.5,True,1,1,False,False,False,False,0,False,False,False,Course Lock,262.5,,23.0,Calm,22,Android, 4.1.1,M300 RTK,1ZNBJ8700C01MC,,1ZMBHAN003009A,1Z6PHBKDA01Y41,140,1.8,229.7,36.4,7.2,0,0,M300 RTK,1ZNBJ8700C01MC,,1ZMBHAN003009A,1Z6PHBKDA01Y41,DJI Pilot,Android, 4.1.1,46.97543183,7.18039833,485.3,,,
8/25/2022,8:42:06.76 AM,0m 1.7s,1.7,46.97552776,7.18034529,0,0,0.7,1429,0,0,0,0,0,0,0,0,-1.5,0.1,-36.2,323.8,Starting Motors,Other,Waypoint Mission,17,10,True,,Matrice 300 RTK,True,False,,Smart,RC,True,True,False,,,True,,False,False,False,False,False,False,False,False,False,False,0,Free,0,0,0,0,False,False,False,False,False,False,,False,Normal,100,100,1024,1024,1024,1024,1,False,False,False,False,False,0,False,False,False,False,58,46.872,6065,10462,46.883,True,,,,,,,,False,False,2.124,102.4,102.4,102.4,0,53,0,10,5,5800.7,773.43,,Idle,0,30,False,10,True,,Go Home,46.97552778,7.18034525,0.0,1222.2,262.5,True,1,1,False,False,False,False,0,False,False,False,Course Lock,262.5,,23.0,Calm,22,Android, 4.1.1,M300 RTK,1ZNBJ8700C01MC,,1ZMBHAN003009A,1Z6PHBKDA01Y41,140,1.8,229.7,36.4,7.2,0,0,M300 RTK,1ZNBJ8700C01MC,,1ZMBHAN003009A,1Z6PHBKDA01Y41,DJI Pilot,Android, 4.1.1,46.97543183,7.18039833,485.3,,,
8/25/2022,8:42:06.78 AM,0m 1.8s,1.8,46.97552776,7.18034529,0,0,0.7,1429,0,0,0,0,0,0,0,0,-1.5,0.1,-36.2,323.8,Starting Motors,Other,Waypoint Mission,17,10,True,,Matrice 300 RTK,True,False,,Smart,RC,True,True,False,,,True,,False,False,False,False,False,False,False,False,False,False,0,Free,0,0,0,0,False,False,False,False,False,False,,False,Normal,100,100,1024,1024,1024,1024,1,False,False,False,False,False,0,False,False,False,False,58,46.872,6065,10462,46.883,True,,,,,,,,False,False,2.124,102.4,102.4,102.4,0,53,0,10,5,5800.7,773.43,,Idle,0,30,False,10,True,,Go Home,46.97552778,7.18034525,0.0,1222.2,262.5,True,1,1,False,False,False,False,0,False,False,False,Course Lock,262.5,,23.0,Calm,22,Android, 4.1.1,M300 RTK,1ZNBJ8700C01MC,,1ZMBHAN003009A,1Z6PHBKDA01Y41,140,1.8,229.7,36.4,7.2,0,0,M300 RTK,1ZNBJ8700C01MC,,1ZMBHAN003009A,1Z6PHBKDA01Y41,DJI Pilot,Android, 4.1.1,46.97543183,7.18039833,485.3,,,
8/25/2022,8:42:06.96 AM,0m 1.9s,1.9,46.97552776,7.18034529,0,0,0.7,1429,0,0,0,0,0,0,0,0,-1.5,0.1,-36.2,323.8,Starting Motors,Other,Waypoint Mission,17,10,True,,Matrice 300 RTK,True,False,,Smart,RC,True,True,False,,,True,,False,False,False,False,False,False,False,False,False,False,0,Free,0,0,0,0,False,False,False,False,False,False,,False,Normal,100,100,1024,1024,1024,1024,1,False,False,False,False,False,0,False,False,False,False,58,46.872,6065,10462,46.883,True,,,,,,,,False,False,2.124,102.4,102.4,102.4,0,53,0,10,5,5800.7,773.43,,Idle,0,30,False,10,True,,Go Home,46.97552778,7.18034525,0.0,1222.2,262.5,True,1,1,False,False,False,False,0,False,False,False,Course Lock,262.5,,23.0,Calm,22,Android, 4.1.1,M300 RTK,1ZNBJ8700C01MC,,1ZMBHAN003009A,1Z6PHBKDA01Y41,140,1.8,229.7,36.4,7.2,0,0,M300 RTK,1ZNBJ8700C01MC,,1ZMBHAN003009A,1Z6PHBKDA01Y41,DJI Pilot,Android, 4.1.1,46.97543183,7.18039833,485.3,,,
8/25/2022,8:42:07.07 AM,0m 2.0s,2.0,46.97552776,7.18034529,0,0,0.7,1429,0,0,0,0,0,0,0,0,-1.5,0.1,-36.2,323.8,Auto Takeoff,Other,Waypoint Mission,17,10,True,,Matrice 300 RTK,True,False,,Smart,RC,True,True,False,,,True,,False,False,False,False,False,False,False,False,False,False,0,Free,0,0,0,0,False,False,False,False,False,False,,False,Normal,100,100,1024,1024,1024,1024,1,False,False,False,False,False,0,False,False,False,False,58,46.872,6065,10462,46.883,True,,,,,,,,False,False,2.124,102.4,102.4,102.4,0,53,0,10,5,5800.7,773.43,,Idle,0,30,False,10,True,,Go Home,46.97552778,7.18034525,0.0,1222.2,262.5,True,1,1,False,False,False,False,0,False,False,False,Course Lock,262.5,,23.0,Calm,22,Android, 4.1.1,M300 RTK,1ZNBJ8700C01MC,,1ZMBHAN003009A,1Z6PHBKDA01Y41,140,1.8,229.7,36.4,7.2,0,0,M300 RTK,1ZNBJ8700C01MC,,1ZMBHAN003009A,1Z6PHBKDA01Y41,DJI Pilot,Android, 4.1.1,46.97543183,7.18039833,485.3,,,
8/25/2022,8:42:07.17 AM,0m 2.1s,2.1,46.97552776,7.1803453,0,0,0.7,1429,0,0,0,0,0,0,0,0,-1.5,0.1,-36.2,323.8,Auto Takeoff,Other,Waypoint Mission,17,10,True,,Matrice 300 RTK,True,False,,Smart,RC,True,True,False,,,True,,False,False,False,False,False,False,False,False,False,False,0,Free,0,0,0,0,False,False,False,False,False,False,,False,Normal,100,100,1024,1024,1024,1024,1,False,False,False,False,False,0,False,False,False,False,58,46.872,6065,10462,46.883,True,,,,,,,,False,False,2.124,102.4,102.4,102.4,0,53,0,10,5,5800.7,773.43,,Idle,0,30,False,10,True,,Go Home,46.97552778,7.18034525,0.0,1222.2,262.5,True,1,1,False,False,False,False,0,False,False,False,Course Lock,262.5,,23.0,Calm,22,Android, 4.1.1,M300 RTK,1ZNBJ8700C01MC,,1ZMBHAN003009A,1Z6PHBKDA01Y41,140,1.8,229.7,36.4,7.2,0,0,M300 RTK,1ZNBJ8700C01MC,,1ZMBHAN003009A,1Z6PHBKDA01Y41,DJI Pilot,Android, 4.1.1,46.97543183,7.18039833,485.3,,,
8/25/2022,8:42:07.27 AM,0m 2.2s,2.2,46.97552777,7.1803453,0,0,0.7,1429,0,0,0,0,0,0,0,0,-1.5,0.1,-36.2,323.8,Auto Takeoff,Other,Waypoint Mission,17,10,True,,Matrice 300 RTK,True,False,,Smart,RC,True,True,False,,,True,,False,False,False,False,False,False,False,False,False,False,0,Free,0,0,0,0,False,False,False,False,False,False,,False,Normal,100,100,1024,1024,1024,1024,1,False,False,False,False,False,0,False,False,False,False,58,46.872,6065,10462,46.883,True,,,,,,,,False,False,2.124,102.4,102.4,102.4,0,53,0,10,5,5800.7,773.43,,Idle,0,30,False,10,True,,Go Home,46.97552778,7.18034525,0.0,1222.2,262.5,True,1,1,False,False,False,False,0,False,False,False,Course Lock,262.5,,23.0,Calm,22,Android, 4.1.1,M300 RTK,1ZNBJ8700C01MC,,1ZMBHAN003009A,1Z6PHBKDA01Y41,140,1.8,229.7,36.4,7.2,0,0,M300 RTK,1ZNBJ8700C01MC,,1ZMBHAN003009A,1Z6PHBKDA01Y41,DJI Pilot,Android, 4.1.1,46.97543183,7.18039833,485.3,,,
8/25/2022,8:42:07.29 AM,0m 2.3s,2.3,46.97552777,7.18034532,0,0,0.7,1429,0,0,0,0,0,0,0,0,-1.5,0.1,-36.2,323.8,Auto Takeoff,Other,Waypoint Mission,17,10,True,,Matrice 300 RTK,True,False,,Smart,RC,True,True,False,,,True,,False,False,False,False,False,False,False,False,False,False,0,Free,0,0,0,0,False,False,False,False,False,False,,False,Normal,100,100,1024,1024,1024,1024,1,False,False,False,False,False,0,False,False,False,False,58,46.872,6065,10462,46.883,True,,,,,,,,False,False,2.124,102.4,102.4,102.4,0,53,0,10,5,5800.7,773.43,,Idle,0,30,False,10,True,,Go Home,46.97552778,7.18034525,0.0,1222.2,262.5,True,1,1,False,False,False,False,0,False,False,False,Course Lock,262.5,,23.0,Calm,22,Android, 4.1.1,M300 RTK,1ZNBJ8700C01MC,,1ZMBHAN003009A,1Z6PHBKDA01Y41,140,1.8,229.7,36.4,7.2,0,0,M300 RTK,1ZNBJ8700C01MC,,1ZMBHAN003009A,1Z6PHBKDA01Y41,DJI Pilot,Android, 4.1.1,46.97543183,7.18039833,485.3,,,
8/25/2022,8:42:07.47 AM,0m 2.4s,2.4,46.97552777,7.18034533,0,0,0.7,1429,0,0,0,0,0,0,0,0,-1.4,0.1,-36.1,323.9,Auto Takeoff,Other,Waypoint Mission,17,10,True,,Matrice 300 RTK,True,False,,Smart,RC,True,True,False,,,True,,False,False,False,False,False,False,False,False,False,False,0,Free,0,0,0,0,False,False,False,False,False,False,,False,Normal,100,100,1024,1024,1024,1024,1,False,False,False,False,False,0,False,False,False,False,58,46.872,6065,10462,46.883,True,,,,,,,,False,False,4.098,102.4,102.4,102.4,0,53,0,10,5,5800.7,773.43,,Idle,0,30,False,10,True,,Go Home,46.97552778,7.18034525,0.0,1222.2,262.5,True,1,1,False,False,False,False,0,False,False,False,Course Lock,262.5,,23.0,Calm,22,Android, 4.1.1,M300 RTK,1ZNBJ8700C01MC,,1ZMBHAN003009A,1Z6PHBKDA01Y41,140,1.8,229.7,36.4,7.2,0,0,M300 RTK,1ZNBJ8700C01MC,,1ZMBHAN003009A,1Z6PHBKDA01Y41,DJI Pilot,Android, 4.1.1,46.97543183,7.18039833,485.3,,,
8/25/2022,8:42:07.57 AM,0m 2.5s,2.5,46.97552777,7.18034534,0,0,0.7,1429,0,0,0,0,0,0,0,0,-1.4,0.1,-36.2,323.8,Auto Takeoff,Other,Waypoint Mission,17,10,True,,Matrice 300 RTK,True,False,,Smart,RC,True,True,False,,,True,,False,False,False,False,False,False,False,False,False,False,0,Free,0,0,0,0,False,False,False,False,False,False,,False,Normal,100,100,1024,1024,1024,1024,1,False,False,False,False,False,0,False,False,False,False,58,46.872,6065,10462,46.883,True,,,,,,,,False,False,4.098,102.4,102.4,102.4,0,53,0,10,5,5800.7,773.43,,Idle,0,30,False,10,True,,Go Home,46.97552778,7.18034525,0.0,1222.2,262.5,True,1,1,False,False,False,False,0,False,False,False,Course Lock,262.5,,23.0,Calm,22,Android, 4.1.1,M300 RTK,1ZNBJ8700C01MC,,1ZMBHAN003009A,1Z6PHBKDA01Y41,140,1.8,229.7,36.4,7.2,0,0,M300 RTK,1ZNBJ8700C01MC,,1ZMBHAN003009A,1Z6PHBKDA01Y41,DJI Pilot,Android, 4.1.1,46.97543183,7.18039833,485.3,,,
8/25/2022,8:42:07.67 AM,0m 2.6s,2.6,46.97552777,7.18034534,0,0,0.7,1429,0,0,0,0,0,0,0,0,-1.4,0.1,-36.2,323.8,Auto Takeoff,Other,Waypoint Mission,17,10,True,,Matrice 300 RTK,True,False,,Smart,RC,True,True,False,,,True,,False,False,False,False,False,False,False,False,False,False,0,Free,0,0,0,0,False,False,False,False,False,False,,False,Normal,100,100,1024,1024,1024,1024,1,False,False,False,False,False,0,False,False,False,False,58,46.872,6065,10462,46.883,True,,,,,,,,False,False,4.098,102.4,102.4,102.4,0,53,0,10,5,5800.7,773.43,,Idle,0,30,False,10,True,,Go Home,46.97552778,7.18034525,0.0,1222.2,262.5,True,1,1,False,False,False,False,0,False,False,False,Course Lock,262.5,,23.0,Calm,22,Android, 4.1.1,M300 RTK,1ZNBJ8700C01MC,,1ZMBHAN003009A,1Z6PHBKDA01Y41,140,1.8,229.7,36.4,7.2,0,0,M300 RTK,1ZNBJ8700C01MC,,1ZMBHAN003009A,1Z6PHBKDA01Y41,DJI Pilot,Android, 4.1.1,46.97543183,7.18039833,485.3,,,
8/25/2022,8:42:07.77 AM,0m 2.7s,2.7,46.97552776,7.18034535,0,0,0.7,1429,0,0,0,0,0,0,0,0,-1,0.1,-36,324,Auto Takeoff,Other,Waypoint Mission,17,10,True,,Matrice 300 RTK,True,False,,Smart,RC,True,True,False,,,True,,False,False,False,False,False,False,False,False,False,False,0,Free,0,0,0,0,False,False,False,False,False,False,,False,Normal,100,100,1024,1024,1024,1024,1,False,False,False,False,False,0,False,False,False,False,58,46.872,6065,10462,46.721,True,,,,,,,,False,False,4.098,102.4,102.4,102.4,0,53,0,10,5,6846.2,912.82,,Idle,0,30,False,10,True,,Go Home,46.97552778,7.18034525,0.0,1222.2,262.5,True,1,1,False,False,False,False,0,False,False,False,Course Lock,262.5,,23.0,Calm,22,Android, 4.1.1,M300 RTK,1ZNBJ8700C01MC,,1ZMBHAN003009A,1Z6PHBKDA01Y41,140,1.8,229.7,36.4,7.2,0,0,M300 RTK,1ZNBJ8700C01MC,,1ZMBHAN003009A,1Z6PHBKDA01Y41,DJI Pilot,Android, 4.1.1,46.97543183,7.18039833,485.3,,,
8/25/2022,8:42:07.79 AM,0m 2.8s,2.8,46.97552774,7.18034539,0,0,0.7,1429,0,0,0,0,0,0,0,0,0,0.1,-35.7,324.3,Auto Takeoff,Other,Waypoint Mission,17,10,True,,Matrice 300 RTK,True,False,,Smart,RC,True,True,False,,,True,,False,False,False,False,False,False,False,False,False,False,0,Free,0,0,0,0,False,False,False,False,False,False,,False,Normal,100,100,1024,1024,1024,1024,1,False,False,False,False,False,0,False,False,False,False,58,46.872,6065,10462,46.721,True,,,,,,,,False,False,4.098,102.4,102.4,102.4,0,53,0,10,5,6846.2,912.82,,Idle,0,30,False,10,True,,Go Home,46.97552778,7.18034525,0.0,1222.2,262.5,True,1,1,False,False,False,False,0,False,False,False,Course Lock,262.5,,23.0,Calm,22,Android, 4.1.1,M300 RTK,1ZNBJ8700C01MC,,1ZMBHAN003009A,1Z6PHBKDA01Y41,140,1.8,229.7,36.4,7.2,0,0,M300 RTK,1ZNBJ8700C01MC,,1ZMBHAN003009A,1Z6PHBKDA01Y41,DJI Pilot,Android, 4.1.1,46.97543183,7.18039833,485.3,,,
8/25/2022,8:42:07.97 AM,0m 2.9s,2.9,46.97552773,7.18034547,0,0,0.7,1429,0,0,0,0,0,0,-0.2,0,0.8,0.4,-35.3,324.7,Auto Takeoff,Other,Waypoint Mission,17,10,True,,Matrice 300 RTK,True,False,,Smart,RC,False,True,False,,,True,,False,False,False,False,False,False,False,False,False,False,0,Free,0,0,0,0,False,False,False,False,False,False,,False,Normal,100,100,1024,1024,1024,1024,1,False,False,False,False,False,0,False,False,False,False,58,46.872,6065,10462,46.721,True,,,,,,,,False,False,4.098,102.4,102.4,102.4,0,53,0,10,5,6846.2,912.82,,Idle,0,30,False,10,True,,Go Home,46.97552778,7.18034525,0.0,1222.2,262.5,True,1,1,False,False,False,False,0,False,False,False,Course Lock,262.5,,23.0,Calm,22,Android, 4.1.1,M300 RTK,1ZNBJ8700C01MC,,1ZMBHAN003009A,1Z6PHBKDA01Y41,140,1.8,229.7,36.4,7.2,0,0,M300 RTK,1ZNBJ8700C01MC,,1ZMBHAN003009A,1Z6PHBKDA01Y41,DJI Pilot,Android, 4.1.1,46.97543183,7.18039833,485.3,,,
8/25/2022,8:42:07.99 AM,0m 3.0s,3.0,46.97552771,7.18034561,0,0,0.7,1429,0,0,0,0,0.2,0.2,-0.7,0,1.1,0,-35,325,Auto Takeoff,Other,Waypoint Mission,17,10,True,,Matrice 300 RTK,True,False,,Smart,RC,False,True,False,,,True,,False,False,False,False,False,False,False,False,False,False,0,Free,0,0,0,0,False,False,False,False,False,False,,False,Normal,100,100,1024,1024,1024,1024,1,False,False,False,False,False,0,False,False,False,False,58,46.872,6065,10462,46.721,True,,,,,,,,False,False,4.098,102.4,102.4,102.4,0,53,0,10,5,6846.2,912.82,,Idle,0,30,False,10,True,,Go Home,46.97552778,7.18034525,0.0,1222.2,262.5,True,1,1,False,False,False,False,0,False,False,False,Course Lock,262.5,,23.0,Calm,22,Android, 4.1.1,M300 RTK,1ZNBJ8700C01MC,,1ZMBHAN003009A,1Z6PHBKDA01Y41,140,1.8,229.7,36.4,7.2,0,0,M300 RTK,1ZNBJ8700C01MC,,1ZMBHAN003009A,1Z6PHBKDA01Y41,DJI Pilot,Android, 4.1.1,46.97543183,7.18039833,485.3,,,
8/25/2022,8:42:08.18 AM,0m 3.1s,3.1,46.97552768,7.18034581,0,0,1.0,1429,0,0,0,0,0.2,0.2,-1.1,0,0.7,-0.8,-34.9,325.1,Auto Takeoff,Other,Waypoint Mission,17,10,True,,Matrice 300 RTK,True,False,,Smart,RC,False,True,False,,,True,,False,False,False,False,False,False,False,False,False,False,0,Free,0,0,0,0,False,False,False,False,False,False,,False,Normal,100,100,1024,1024,1024,1024,1,False,False,False,False,False,0,False,False,False,False,58,46.872,6065,10462,46.721,True,,,,,,,,False,False,4.098,102.4,102.4,102.4,0,53,0,10,5,6846.2,912.82,,Idle,0,30,False,10,True,,Go Home,46.97552778,7.18034525,0.0,1222.2,262.5,True,1,1,False,False,False,False,0,False,False,False,Course Lock,262.5,,23.0,Calm,22,Android, 4.1.1,M300 RTK,1ZNBJ8700C01MC,,1ZMBHAN003009A,1Z6PHBKDA01Y41,140,1.8,229.7,36.4,7.2,0,0,M300 RTK,1ZNBJ8700C01MC,,1ZMBHAN003009A,1Z6PHBKDA01Y41,DJI Pilot,Android, 4.1.1,46.97543183,7.18039833,485.3,,,
8/25/2022,8:42:08.28 AM,0m 3.2s,3.2,46.97552763,7.18034603,0.3,0.3,1.0,1429,0,0,0,0,0.2,0.2,-1.1,0,0.7,-0.6,-34.8,325.2,Auto Takeoff,Other,Waypoint Mission,17,10,True,,Matrice 300 RTK,True,False,,Smart,RC,False,True,False,,,True,,False,False,False,False,False,False,False,False,False,False,0,Free,0,0,0,0,False,False,False,False,False,False,,False,Normal,100,100,1024,1024,1024,1024,1,False,False,False,False,False,0,False,False,False,False,58,46.872,6065,10462,46.721,True,,,,,,,,False,False,4.098,102.4,102.4,102.4,0,53,0,10,5,6846.2,912.82,,Idle,0,30,False,10,True,,Go Home,46.97552778,7.18034525,0.0,1222.2,262.5,True,1,1,False,False,False,False,0,False,False,False,Course Lock,262.5,,23.0,Calm,22,Android, 4.1.1,M300 RTK,1ZNBJ8700C01MC,,1ZMBHAN003009A,1Z6PHBKDA01Y41,140,1.8,229.7,36.4,7.2,0,0,M300 RTK,1ZNBJ8700C01MC,,1ZMBHAN003009A,1Z6PHBKDA01Y41,DJI Pilot,Android, 4.1.1,46.97543183,7.18039833,485.3,,,
8/25/2022,8:42:08.30 AM,0m 3.3s,3.3,46.97552755,7.18034631,0.7,0.7,1.3,1430,0,0,0,0,0.5,0.5,-1.3,0,-0.1,-1.1,-34.8,325.2,Auto Takeoff,Other,Waypoint Mission,17,10,True,,Matrice 300 RTK,True,False,,Smart,RC,False,True,False,,,True,,False,False,False,False,False,False,False,False,False,False,0,Free,0,0,0,0,False,False,False,False,False,False,,False,Normal,100,100,1024,1024,1024,1024,1,False,False,False,False,False,0,False,False,False,False,58,46.872,6065,10462,46.721,True,,,,,,,,False,False,4.098,102.4,102.4,102.4,0,53,0,10,5,6846.2,912.82,,Idle,0,30,False,10,True,,Go Home,46.97552778,7.18034525,0.0,1222.2,262.5,True,1,1,False,False,False,False,0,False,False,False,Course Lock,262.5,,23.0,Calm,22,Android, 4.1.1,M300 RTK,1ZNBJ8700C01MC,,1ZMBHAN003009A,1Z6PHBKDA01Y41,140,1.8,229.7,36.4,7.2,0,0,M300 RTK,1ZNBJ8700C01MC,,1ZMBHAN003009A,1Z6PHBKDA01Y41,DJI Pilot,Android, 4.1.1,46.97543183,7.18039833,485.3,,,
8/25/2022,8:42:08.48 AM,0m 3.4s,3.4,46.97552747,7.18034662,0.7,0.7,1.3,1430,0,0,-0.2,0,0.5,0.5,-1.3,0,-1.4,-1.9,-34.8,325.2,Auto Takeoff,Other,Waypoint Mission,17,10,True,,Matrice 300 RTK,True,False,,Smart,RC,False,True,False,,,True,,False,False,False,False,False,False,False,False,False,False,0,Free,0,0,0,0,False,False,False,False,False,False,,False,Normal,100,100,1024,1024,1024,1024,1,False,False,False,False,False,0,False,False,False,False,58,46.764,6065,10462,46.721,True,,,,,,,,False,False,5.928,102.4,102.4,102.4,0,53,0,10,5,6846.2,912.82,,Idle,0,30,False,10,True,,Go Home,46.97552778,7.18034525,0.3,1222.2,262.5,True,1,1,False,False,False,False,0,False,False,False,Course Lock,262.5,,23.0,Calm,22,Android, 4.1.1,M300 RTK,1ZNBJ8700C01MC,,1ZMBHAN003009A,1Z6PHBKDA01Y41,140,1.8,229.7,36.4,7.2,0,0,M300 RTK,1ZNBJ8700C01MC,,1ZMBHAN003009A,1Z6PHBKDA01Y41,DJI Pilot,Android, 4.1.1,46.97543183,7.18039833,485.3,,,
8/25/2022,8:42:08.58 AM,0m 3.5s,3.5,46.97552737,7.18034689,1.0,1.0,1.6,1430,0,0,-0.2,0,0.5,0.5,-1.3,0,-2.4,-2.1,-34.8,325.2,Auto Takeoff,Other,Waypoint Mission,17,10,True,,Matrice 300 RTK,True,False,,Smart,RC,False,True,False,,,True,,False,False,False,False,False,False,False,False,False,False,0,Free,0,0,0,0,False,False,False,False,False,False,,False,Normal,100,100,1024,1024,1024,1024,1,False,False,False,False,False,0,False,False,False,False,58,46.764,6065,10462,46.721,True,,,,,,,,False,False,5.928,102.4,102.4,102.4,0,53,0,10,5,6846.2,912.82,,Idle,0,30,False,10,True,,Go Home,46.97552778,7.18034525,0.4,1222.2,262.5,True,1,1,False,False,False,False,0,False,False,False,Course Lock,262.5,,23.0,Calm,22,Android, 4.1.1,M300 RTK,1ZNBJ8700C01MC,,1ZMBHAN003009A,1Z6PHBKDA01Y41,140,1.8,229.7,36.4,7.2,0,0,M300 RTK,1ZNBJ8700C01MC,,1ZMBHAN003009A,1Z6PHBKDA01Y41,DJI Pilot,Android, 4.1.1,46.97543183,7.18039833,485.3,,,
8/25/2022,8:42:08.68 AM,0m 3.6s,3.6,46.97552726,7.18034715,1.3,1.3,2.0,1430,0,0,0,0,0.2,0.5,-1.3,0,-3,-2,-34.9,325.1,Auto Takeoff,Other,Waypoint Mission,17,10,True,,Matrice 300 RTK,True,False,,Smart,RC,False,True,False,,,True,,False,False,False,False,False,False,False,False,False,False,0,Free,0,0,0,0,False,False,False,False,False,False,,False,Normal,100,100,1024,1024,1024,1024,1,False,False,False,False,False,0,False,False,False,False,58,46.764,6065,10462,46.721,True,,,,,,,,False,False,5.928,102.4,102.4,102.4,0,53,0,10,5,6846.2,912.82,,Idle,0,30,False,10,True,,Go Home,46.97552778,7.18034525,0.5,1222.2,262.5,True,1,1,False,False,False,False,0,False,False,False,Course Lock,262.5,,23.0,Calm,22,Android, 4.1.1,M300 RTK,1ZNBJ8700C01MC,,1ZMBHAN003009A,1Z6PHBKDA01Y41,140,1.8,229.7,36.4,7.2,0,0,M300 RTK,1ZNBJ8700C01MC,,1ZMBHAN003009A,1Z6PHBKDA01Y41,DJI Pilot,Android, 4.1.1,46.97543183,7.18039833,485.3,,,
8/25/2022,8:42:08.78 AM,0m 3.7s,3.7,46.97552722,7.18034733,1.3,1.3,2.3,1430,0,0,0,0,0.2,0.5,-1.3,0,-3.5,-1.7,-34.9,325.1,Auto Takeoff,Other,Waypoint Mission,17,10,True,,Matrice 300 RTK,True,False,,Smart,RC,False,True,False,,,True,,False,False,False,False,False,False,False,False,False,False,0,Free,0,0,0,0,False,False,False,False,False,False,,False,Normal,100,100,1024,1024,1024,1024,1,False,False,False,False,False,0,False,False,False,False,58,46.764,6065,10462,46.846,True,,,,,,,,False,False,5.928,102.4,102.4,102.4,0,53,0,11,6,9414.0,1255.20,,Idle,0,30,False,10,True,,Go Home,46.97552778,7.18034525,0.5,1222.2,262.5,True,1,1,False,False,False,False,0,False,False,False,Course Lock,262.5,,23.0,Calm,22,Android, 4.1.1,M300 RTK,1ZNBJ8700C01MC,,1ZMBHAN003009A,1Z6PHBKDA01Y41,140,1.8,229.7,36.4,7.2,0,0,M300 RTK,1ZNBJ8700C01MC,,1ZMBHAN003009A,1Z6PHBKDA01Y41,DJI Pilot,Android, 4.1.1,46.97543183,7.18039833,485.3,,,
8/25/2022,8:42:08.80 AM,0m 3.8s,3.8,46.97552717,7.1803475,1.6,1.6,2.3,1431,0,0,0,0,0.2,0.5,-1.3,0,-3.5,-2.1,-34.8,325.2,Auto Takeoff,Other,Waypoint Mission,17,10,True,,Matrice 300 RTK,True,False,,Smart,RC,False,True,False,,,True,,False,False,False,False,False,False,False,False,False,False,0,Free,0,0,0,0,False,False,False,False,False,False,,False,Normal,100,100,1024,1024,1024,1024,1,False,False,False,False,False,0,False,False,False,False,58,46.764,6065,10462,46.846,True,,,,,,,,False,False,5.928,102.4,102.4,102.4,0,53,0,11,6,9414.0,1255.20,,Idle,0,30,False,10,True,,Go Home,46.97552778,7.18034525,0.6,1222.2,262.5,True,1,1,False,False,False,False,0,False,False,False,Course Lock,262.5,,23.0,Calm,22,Android, 4.1.1,M300 RTK,1ZNBJ8700C01MC,,1ZMBHAN003009A,1Z6PHBKDA01Y41,140,1.8,229.7,36.4,7.2,0,0,M300 RTK,1ZNBJ8700C01MC,,1ZMBHAN003009A,1Z6PHBKDA01Y41,DJI Pilot,Android, 4.1.1,46.97543183,7.18039833,485.3,,,
8/25/2022,8:42:08.99 AM,0m 3.9s,3.9,46.97552714,7.18034761,2.0,2.0,2.6,1431,0,0,0,0,0.2,0.5,-1.3,0,-3,-2.4,-34.8,325.2,Auto Takeoff,Other,Waypoint Mission,17,10,True,,Matrice 300 RTK,True,False,,Smart,RC,False,True,False,,,True,,False,False,False,False,False,False,False,False,False,False,0,Free,0,0,0,0,False,False,False,False,False,False,,False,Normal,100,100,1024,1024,1024,1024,1,False,False,False,False,False,0,False,False,False,False,58,46.764,6065,10462,46.846,True,,,,,,,,False,False,5.928,102.4,102.4,102.4,0,53,0,11,6,9414.0,1255.20,,Idle,0,30,False,10,True,,Go Home,46.97552778,7.18034525,0.6,1222.2,262.5,True,1,1,False,False,False,False,0,False,False,False,Course Lock,262.5,,23.0,Calm,22,Android, 4.1.1,M300 RTK,1ZNBJ8700C01MC,,1ZMBHAN003009A,1Z6PHBKDA01Y41,140,1.8,229.7,36.4,7.2,0,0,M300 RTK,1ZNBJ8700C01MC,,1ZMBHAN003009A,1Z6PHBKDA01Y41,DJI Pilot,Android, 4.1.1,46.97543183,7.18039833,485.3,,,
8/25/2022,8:42:09.01 AM,0m 4.0s,4.0,46.9755271,7.18034768,2.0,2.0,3.0,1431,0,0,0,0,0,0.5,-1.1,0,-2.2,-2.3,-34.7,325.3,Auto Takeoff,Other,Waypoint Mission,17,10,True,,Matrice 300 RTK,True,False,,Smart,RC,False,True,False,,,True,,False,False,False,False,False,False,False,False,False,False,0,Free,0,0,0,0,False,False,False,False,False,False,,False,Normal,100,100,1024,1024,1024,1024,1,False,False,False,False,False,0,False,False,False,False,58,46.764,6065,10462,46.846,True,,,,,,,,False,False,5.928,102.4,102.4,102.4,0,53,0,11,6,9414.0,1255.20,,Idle,0,30,False,10,True,,Go Home,46.97552778,7.18034525,0.6,1222.2,262.5,True,1,1,False,False,False,False,0,False,False,False,Course Lock,262.5,,23.0,Calm,22,Android, 4.1.1,M300 RTK,1ZNBJ8700C01MC,,1ZMBHAN003009A,1Z6PHBKDA01Y41,140,1.8,229.7,36.4,7.2,0,0,M300 RTK,1ZNBJ8700C01MC,,1ZMBHAN003009A,1Z6PHBKDA01Y41,DJI Pilot,Android, 4.1.1,46.97543183,7.18039833,485.3,,,
8/25/2022,8:42:09.19 AM,0m 4.1s,4.1,46.97552707,7.18034771,2.3,2.3,3.0,1431,0,0,0,0,0,0.5,-1.1,0,-1.9,-1.5,-34.7,325.3,Auto Takeoff,Other,Waypoint Mission,17,10,True,,Matrice 300 RTK,True,False,,Smart,RC,False,True,False,,,True,,False,False,False,False,False,False,False,False,False,False,0,Free,0,0,0,0,False,False,False,False,False,False,,False,Normal,100,100,1024,1024,1024,1024,1,False,False,False,False,False,0,False,False,False,False,58,46.764,6065,10462,46.846,True,,,,,,,,False,False,5.928,102.4,102.4,102.4,0,53,0,11,6,9414.0,1255.20,,Idle,0,30,False,10,True,,Go Home,46.97552778,7.18034525,0.6,1222.2,262.5,True,1,1,False,False,False,False,0,False,False,False,Course Lock,262.5,,23.0,Calm,22,Android, 4.1.1,M300 RTK,1ZNBJ8700C01MC,,1ZMBHAN003009A,1Z6PHBKDA01Y41,140,1.8,229.7,36.4,7.2,0,0,M300 RTK,1ZNBJ8700C01MC,,1ZMBHAN003009A,1Z6PHBKDA01Y41,DJI Pilot,Android, 4.1.1,46.97543183,7.18039833,485.3,,,
8/25/2022,8:42:09.29 AM,0m 4.2s,4.2,46.97552704,7.18034773,2.3,2.3,3.3,1431,0,0,0,0,0,0.5,-1.1,0,-2.1,-1,-34.7,325.3,Auto Takeoff,Other,Waypoint Mission,17,10,True,,Matrice 300 RTK,True,False,,Smart,RC,False,True,False,,,True,,False,False,False,False,False,False,False,False,False,False,0,Free,0,0,0,0,False,False,False,False,False,False,,False,Normal,100,100,1024,1024,1024,1024,1,False,False,False,False,False,0,False,False,False,False,58,46.764,6065,10462,46.846,True,,,,,,,,False,False,5.928,102.4,102.4,102.4,0,53,0,11,6,9414.0,1255.20,,Idle,0,30,False,10,True,,Go Home,46.97552778,7.18034525,0.6,1222.2,262.5,True,1,1,False,False,False,False,0,False,False,False,Course Lock,262.5,,23.0,Calm,22,Android, 4.1.1,M300 RTK,1ZNBJ8700C01MC,,1ZMBHAN003009A,1Z6PHBKDA01Y41,140,1.8,229.7,36.4,7.2,0,0,M300 RTK,1ZNBJ8700C01MC,,1ZMBHAN003009A,1Z6PHBKDA01Y41,DJI Pilot,Android, 4.1.1,46.97543183,7.18039833,485.3,,,
8/25/2022,8:42:09.31 AM,0m 4.3s,4.3,46.975527,7.18034779,2.6,2.6,3.3,1432,0,0,0,0,0,0.5,-1.1,0,-3,-1.4,-34.8,325.2,Auto Takeoff,Other,Waypoint Mission,17,10,True,,Matrice 300 RTK,True,False,,Smart,RC,False,True,False,,,True,,False,False,False,False,False,False,False,False,False,False,0,Free,0,0,0,0,False,False,False,False,False,False,,False,Normal,100,100,1024,1024,1024,1024,1,False,False,False,False,False,0,False,False,False,False,58,46.764,6065,10462,46.846,True,,,,,,,,False,False,5.928,102.4,102.4,102.4,0,53,0,11,6,9414.0,1255.20,,Idle,0,30,False,10,True,,Go Home,46.97552778,7.18034525,0.6,1222.2,262.5,True,1,1,False,False,False,False,0,False,False,False,Course Lock,262.5,,23.0,Calm,22,Android, 4.1.1,M300 RTK,1ZNBJ8700C01MC,,1ZMBHAN003009A,1Z6PHBKDA01Y41,140,1.8,229.7,36.4,7.2,0,0,M300 RTK,1ZNBJ8700C01MC,,1ZMBHAN003009A,1Z6PHBKDA01Y41,DJI Pilot,Android, 4.1.1,46.97543183,7.18039833,485.3,,,
8/25/2022,8:42:09.50 AM,0m 4.4s,4.4,46.97552697,7.18034786,2.6,2.6,3.6,1432,0,0,0,0,0,0.5,-1.1,0,-3,-1.5,-34.7,325.3,Waypoints,Other,Waypoint Mission,17,10,True,,Matrice 300 RTK,True,False,,Smart,RC,False,True,False,,,True,,False,False,False,False,False,False,False,False,False,False,0,Free,0,0,0,0,False,False,False,False,False,False,,False,Normal,100,100,1024,1024,1024,1024,1,False,False,False,False,False,0,False,False,False,False,58,46.8,6065,10462,46.846,True,,,,,,,,False,False,15.492,102.4,102.4,102.4,0,53,0,11,6,9414.0,1255.20,,Idle,0,30,False,10,True,,Go Home,46.97552778,7.18034525,0.6,1222.2,262.5,True,1,1,False,False,False,False,0,False,False,False,Course Lock,262.5,,23.0,Calm,22,Android, 4.1.1,M300 RTK,1ZNBJ8700C01MC,,1ZMBHAN003009A,1Z6PHBKDA01Y41,140,1.8,229.7,36.4,7.2,0,0,M300 RTK,1ZNBJ8700C01MC,,1ZMBHAN003009A,1Z6PHBKDA01Y41,DJI Pilot,Android, 4.1.1,46.97543183,7.18039833,485.3,,,
8/25/2022,8:42:09.52 AM,0m 4.5s,4.5,46.97552694,7.18034788,3.0,3.0,3.6,1432,0,0,0,0,0,0.5,-0.7,0,0,0.6,-34.3,325.7,Waypoints,Other,Waypoint Mission,17,10,True,,Matrice 300 RTK,True,False,,Smart,RC,False,True,False,,,True,,False,False,False,False,False,False,False,False,False,False,0,Free,0,0,0,0,False,False,False,False,False,False,,False,Normal,100,100,1024,1024,1024,1024,1,False,False,False,False,False,0,False,False,False,False,58,46.8,6065,10462,46.846,True,,,,,,,,False,False,15.492,102.4,102.4,102.4,0,53,0,11,6,9414.0,1255.20,,Idle,0,30,False,10,True,,Go Home,46.97552778,7.18034525,0.6,1222.2,262.5,True,1,1,False,False,False,False,0,False,False,False,Course Lock,262.5,,23.0,Calm,22,Android, 4.1.1,M300 RTK,1ZNBJ8700C01MC,,1ZMBHAN003009A,1Z6PHBKDA01Y41,140,1.8,229.7,36.4,7.2,0,0,M300 RTK,1ZNBJ8700C01MC,,1ZMBHAN003009A,1Z6PHBKDA01Y41,DJI Pilot,Android, 4.1.1,46.97543183,7.18039833,485.3,,,
8/25/2022,8:42:09.70 AM,0m 4.6s,4.6,46.9755269,7.18034795,3.0,3.0,3.9,1432,0,0,0,0,0,0.5,-0.5,0,-0.3,0.3,-34.3,325.7,Waypoints,Other,Waypoint Mission,17,10,True,,Matrice 300 RTK,True,False,,Smart,RC,False,True,False,,,True,,False,False,False,False,False,False,False,False,False,False,0,Free,0,0,0,0,False,False,False,False,False,False,,False,Normal,100,100,1024,1024,1024,1024,1,False,False,False,False,False,0,False,False,False,False,58,46.8,6065,10462,46.846,True,,,,,,,,False,False,15.492,102.4,102.4,102.4,0,53,0,11,6,9414.0,1255.20,,Idle,0,30,False,10,True,,Go Home,46.97552778,7.18034525,0.6,1222.2,262.5,True,1,1,False,False,False,False,0,False,False,False,Course Lock,262.5,,23.0,Calm,22,Android, 4.1.1,M300 RTK,1ZNBJ8700C01MC,,1ZMBHAN003009A,1Z6PHBKDA01Y41,140,1.8,229.7,36.4,7.2,0,0,M300 RTK,1ZNBJ8700C01MC,,1ZMBHAN003009A,1Z6PHBKDA01Y41,DJI Pilot,Android, 4.1.1,46.97543183,7.18039833,485.3,,,
8/25/2022,8:42:09.80 AM,0m 4.7s,4.7,46.97552686,7.18034808,3.0,3.0,3.9,1432,0,0,0,0,0.2,0.5,-0.5,0,-1.4,-0.7,-34.3,325.7,Waypoints,Other,Waypoint Mission,17,10,True,,Matrice 300 RTK,True,False,,Smart,RC,False,True,False,,,True,,False,False,False,False,False,False,False,False,False,False,0,Free,0,0,0,0,False,False,False,False,False,False,,False,Normal,100,100,1024,1024,1024,1024,1,False,False,False,False,False,0,False,False,False,False,58,46.8,6065,10462,46.775,True,,,,,,,,False,False,15.492,102.4,102.4,102.4,0,53,0,11,5,15041.2,2005.50,,Idle,0,30,False,10,True,,Go Home,46.97552778,7.18034525,0.8,1222.2,262.5,True,1,1,False,False,False,False,0,False,False,False,Course Lock,262.5,,23.0,Calm,22,Android, 4.1.1,M300 RTK,1ZNBJ8700C01MC,,1ZMBHAN003009A,1Z6PHBKDA01Y41,140,1.8,229.7,36.4,7.2,0,0,M300 RTK,1ZNBJ8700C01MC,,1ZMBHAN003009A,1Z6PHBKDA01Y41,DJI Pilot,Android, 4.1.1,46.97543183,7.18039833,485.3,,,
8/25/2022,8:42:09.91 AM,0m 4.8s,4.8,46.9755268,7.18034825,3.3,3.3,3.9,1432,0,0,0,0,0.2,0.5,-0.5,0,-1.9,-1.7,-34.3,325.7,Waypoints,Other,Waypoint Mission,17,10,True,,Matrice 300 RTK,True,False,,Smart,RC,False,True,False,,,True,,False,False,False,False,False,False,False,False,False,False,0,Free,0,0,0,0,False,False,False,False,False,False,,False,Normal,100,100,1024,1024,1024,1024,1,False,False,False,False,False,0,False,False,False,False,58,46.8,6065,10462,46.775,True,,,,,,,,False,False,15.492,102.4,102.4,102.4,0,53,0,11,5,15041.2,2005.50,,Idle,0,30,False,10,True,,Go Home,46.97552778,7.18034525,0.8,1222.2,262.5,True,1,1,False,False,False,False,0,False,False,False,Course Lock,262.5,,23.0,Calm,22,Android, 4.1.1,M300 RTK,1ZNBJ8700C01MC,,1ZMBHAN003009A,1Z6PHBKDA01Y41,140,1.8,229.7,36.4,7.2,0,0,M300 RTK,1ZNBJ8700C01MC,,1ZMBHAN003009A,1Z6PHBKDA01Y41,DJI Pilot,Android, 4.1.1,46.97543183,7.18039833,485.3,,,
8/25/2022,8:42:10.01 AM,0m 4.9s,4.9,46.97552676,7.18034837,3.3,3.3,3.9,1432,0,0,0,0,0,0.5,-0.5,0,-2.3,-2.1,-34.2,325.8,Waypoints,Other,Waypoint Mission,17,10,True,,Matrice 300 RTK,True,False,,Smart,RC,False,True,False,,,True,,False,False,False,False,False,False,False,False,False,False,0,Free,0,0,0,0,False,False,False,False,False,False,,False,Normal,100,100,1024,1024,1024,1024,1,False,False,False,False,False,0,False,False,False,False,58,46.8,6065,10462,46.775,True,,,,,,,,False,False,15.492,102.4,102.4,102.4,0,53,0,11,5,15041.2,2005.50,,Idle,0,30,False,10,True,,Go Home,46.97552778,7.18034525,0.8,1222.2,262.5,True,1,1,False,False,False,False,0,False,False,False,Course Lock,262.5,,23.0,Calm,22,Android, 4.1.1,M300 RTK,1ZNBJ8700C01MC,,1ZMBHAN003009A,1Z6PHBKDA01Y41,140,1.8,229.7,36.4,7.2,0,0,M300 RTK,1ZNBJ8700C01MC,,1ZMBHAN003009A,1Z6PHBKDA01Y41,DJI Pilot,Android, 4.1.1,46.97543183,7.18039833,485.3,,,
8/25/2022,8:42:10.03 AM,0m 5.0s,5.0,46.97552671,7.18034847,3.3,3.3,4.3,1432,0,0,0,0,0,0.5,-0.7,0,-2.4,-1.7,-34.2,325.8,Waypoints,Other,Waypoint Mission,17,10,True,,Matrice 300 RTK,True,False,,Smart,RC,False,True,False,,,True,,False,False,False,False,False,False,False,False,False,False,0,Free,0,0,0,0,False,False,False,False,False,False,,False,Normal,100,100,1024,1024,1024,1024,1,False,False,False,False,False,0,False,False,False,False,58,46.8,6065,10462,46.775,True,,,,,,,,False,False,15.492,102.4,102.4,102.4,0,53,0,11,5,15041.2,2005.50,,Idle,0,30,False,10,True,,Go Home,46.97552778,7.18034525,0.9,1222.2,262.5,True,1,1,False,False,False,False,0,False,False,False,Course Lock,262.5,,23.0,Calm,22,Android, 4.1.1,M300 RTK,1ZNBJ8700C01MC,,1ZMBHAN003009A,1Z6PHBKDA01Y41,140,1.8,229.7,36.4,7.2,0,0,M300 RTK,1ZNBJ8700C01MC,,1ZMBHAN003009A,1Z6PHBKDA01Y41,DJI Pilot,Android, 4.1.1,46.97543183,7.18039833,485.3,,,
8/25/2022,8:42:10.12 AM,0m 5.1s,5.1,46.97552669,7.18034849,3.3,3.3,4.3,1432,0,0,0,0,0,0.5,-0.9,0,-2.2,-1.1,-34.2,325.8,Waypoints,Other,Waypoint Mission,17,10,True,,Matrice 300 RTK,True,False,,Smart,RC,False,True,False,,,True,,False,False,False,False,False,False,False,False,False,False,0,Free,0,0,0,0,False,False,False,False,False,False,,False,Normal,100,100,1024,1024,1024,1024,1,False,False,False,False,False,0,False,False,False,False,58,46.8,6065,10462,46.775,True,,,,,,,,False,False,15.492,102.4,102.4,102.4,0,53,0,11,5,15041.2,2005.50,,Idle,0,30,False,10,True,,Go Home,46.97552778,7.18034525,0.8,1222.2,262.5,True,1,1,False,False,False,False,0,False,False,False,Course Lock,262.5,,23.0,Calm,22,Android, 4.1.1,M300 RTK,1ZNBJ8700C01MC,,1ZMBHAN003009A,1Z6PHBKDA01Y41,140,1.8,229.7,36.4,7.2,0,0,M300 RTK,1ZNBJ8700C01MC,,1ZMBHAN003009A,1Z6PHBKDA01Y41,DJI Pilot,Android, 4.1.1,46.97543183,7.18039833,485.3,,,
8/25/2022,8:42:10.32 AM,0m 5.2s,5.2,46.97552665,7.18034854,3.6,3.6,4.3,1433,0,0,0,0,0,0.5,-1.1,0,-2,-0.8,-34.2,325.8,Waypoints,Other,Waypoint Mission,17,10,True,,Matrice 300 RTK,True,False,,Smart,RC,False,True,False,,,True,,False,False,False,False,False,False,False,False,False,False,0,Free,0,0,0,0,False,False,False,False,False,False,,False,Normal,100,100,1024,1024,1024,1024,1,False,False,False,False,False,0,False,False,False,False,58,46.8,6065,10462,46.775,True,,,,,,,,False,False,15.492,102.4,102.4,102.4,0,53,0,11,5,15041.2,2005.50,,Idle,0,30,False,10,True,,Go Home,46.97552778,7.18034525,0.9,1222.2,262.5,True,1,1,False,False,False,False,0,False,False,False,Course Lock,262.5,,23.0,Calm,22,Android, 4.1.1,M300 RTK,1ZNBJ8700C01MC,,1ZMBHAN003009A,1Z6PHBKDA01Y41,140,1.8,229.7,36.4,7.2,0,0,M300 RTK,1ZNBJ8700C01MC,,1ZMBHAN003009A,1Z6PHBKDA01Y41,DJI Pilot,Android, 4.1.1,46.97543183,7.18039833,485.3,,,
8/25/2022,8:42:10.34 AM,0m 5.3s,5.3,46.97552662,7.18034858,3.9,3.9,4.6,1433,0,0,0,0,0,0.5,-1.6,0,-1.8,-0.7,-34.1,325.9,Waypoints,Other,Waypoint Mission,17,10,True,,Matrice 300 RTK,True,False,,Smart,RC,False,True,False,,,True,,False,False,False,False,False,False,False,False,False,False,0,Free,0,0,0,0,False,False,False,False,False,False,,False,Normal,100,100,1024,1024,1024,1024,1,False,False,False,False,False,0,False,False,False,False,58,46.8,6065,10462,46.775,True,,,,,,,,False,False,15.492,102.4,102.4,102.4,0,53,0,11,5,15041.2,2005.50,,Idle,0,30,False,10,True,,Go Home,46.97552778,7.18034525,0.9,1222.2,262.5,True,1,1,False,False,False,False,0,False,False,False,Course Lock,262.5,,23.0,Calm,22,Android, 4.1.1,M300 RTK,1ZNBJ8700C01MC,,1ZMBHAN003009A,1Z6PHBKDA01Y41,140,1.8,229.7,36.4,7.2,0,0,M300 RTK,1ZNBJ8700C01MC,,1ZMBHAN003009A,1Z6PHBKDA01Y41,DJI Pilot,Android, 4.1.1,46.97543183,7.18039833,485.3,,,
8/25/2022,8:42:10.52 AM,0m 5.4s,5.4,46.97552659,7.18034862,3.9,3.9,4.9,1433,0,0,0,0,0,0.5,-2.0,0,-1.6,-0.7,-34.1,325.9,Waypoints,Other,Waypoint Mission,17,10,True,,Matrice 300 RTK,True,False,,Smart,RC,False,True,False,,,True,,False,False,False,False,False,False,False,False,False,False,0,Free,0,0,0,0,False,False,False,False,False,False,,False,Normal,100,100,1024,1024,1024,1024,1,False,False,False,False,False,0,False,False,False,False,58,46.392,6065,10462,46.775,True,,,,,,,,False,False,14.118,102.4,102.4,102.4,0,53,0,11,5,15041.2,2005.50,,Idle,0,30,False,10,True,,Go Home,46.97552778,7.18034525,0.9,1222.2,262.5,True,1,1,False,False,False,False,0,False,False,False,Course Lock,262.5,,23.0,Calm,22,Android, 4.1.1,M300 RTK,1ZNBJ8700C01MC,,1ZMBHAN003009A,1Z6PHBKDA01Y41,140,1.8,229.7,36.4,7.2,0,0,M300 RTK,1ZNBJ8700C01MC,,1ZMBHAN003009A,1Z6PHBKDA01Y41,DJI Pilot,Android, 4.1.1,46.97543183,7.18039833,485.3,,,
8/25/2022,8:42:10.54 AM,0m 5.5s,5.5,46.97552658,7.18034867,4.3,4.3,5.2,1433,0,0,0,0,0,0.5,-2.5,0,-1.6,-0.8,-34.2,325.8,Waypoints,Other,Waypoint Mission,17,10,True,,Matrice 300 RTK,True,False,,Smart,RC,False,True,False,,,True,,False,False,False,False,False,False,False,False,False,False,0,Free,0,0,0,0,False,False,False,False,False,False,,False,Normal,100,100,1024,1024,1024,1024,1,False,False,False,False,False,0,False,False,False,False,58,46.392,6065,10462,46.775,True,,,,,,,,False,False,14.118,102.4,102.4,102.4,0,53,0,11,5,15041.2,2005.50,,Idle,0,30,False,10,True,,Go Home,46.97552778,7.18034525,0.9,1222.2,262.5,True,1,1,False,False,False,False,0,False,False,False,Course Lock,262.5,,23.0,Calm,22,Android, 4.1.1,M300 RTK,1ZNBJ8700C01MC,,1ZMBHAN003009A,1Z6PHBKDA01Y41,140,1.8,229.7,36.4,7.2,0,0,M300 RTK,1ZNBJ8700C01MC,,1ZMBHAN003009A,1Z6PHBKDA01Y41,DJI Pilot,Android, 4.1.1,46.97543183,7.18039833,485.3,,,
8/25/2022,8:42:10.62 AM,0m 5.6s,5.6,46.97552656,7.18034873,4.9,4.9,5.6,1434,0,0,0,0,0,0.5,-3.1,0,-1.8,-0.8,-34.2,325.8,Waypoints,Other,Waypoint Mission,17,10,True,,Matrice 300 RTK,True,False,,Smart,RC,False,True,False,,,True,,False,False,False,False,False,False,False,False,False,False,0,Free,0,0,0,0,False,False,False,False,False,False,,False,Normal,100,100,1024,1024,1024,1024,1,False,False,False,False,False,0,False,False,False,False,58,46.392,6065,10462,46.775,True,,,,,,,,False,False,14.118,102.4,102.4,102.4,0,53,0,11,5,15041.2,2005.50,,Idle,0,30,False,10,True,,Go Home,46.97552778,7.18034525,1.0,1222.2,262.5,True,1,1,False,False,False,False,0,False,False,False,Course Lock,262.5,,23.0,Calm,22,Android, 4.1.1,M300 RTK,1ZNBJ8700C01MC,,1ZMBHAN003009A,1Z6PHBKDA01Y41,140,1.8,229.7,36.4,7.2,0,0,M300 RTK,1ZNBJ8700C01MC,,1ZMBHAN003009A,1Z6PHBKDA01Y41,DJI Pilot,Android, 4.1.1,46.97543183,7.18039833,485.3,,,
8/25/2022,8:42:10.73 AM,0m 5.7s,5.7,46.97552657,7.1803488,5.2,5.2,6.2,1434,0,0,0,0,0,0.5,-3.8,0,-1.9,-0.9,-34.3,325.7,Waypoints,Other,Waypoint Mission,17,10,True,,Matrice 300 RTK,True,False,,Smart,RC,False,True,False,,,True,,False,False,False,False,False,False,False,False,False,False,0,Free,0,0,0,0,False,False,False,False,False,False,,False,Normal,100,100,1024,1024,1024,1024,1,False,False,False,False,False,0,False,False,False,False,58,46.392,6065,10462,46.53,True,,,,,,,,False,False,14.118,102.4,102.4,102.4,0,52,0,11,6,25128.3,3350.45,,Idle,0,30,False,10,True,,Go Home,46.97552778,7.18034525,1.0,1222.2,262.5,True,1,1,False,False,False,False,0,False,False,False,Course Lock,262.5,,23.0,Calm,22,Android, 4.1.1,M300 RTK,1ZNBJ8700C01MC,,1ZMBHAN003009A,1Z6PHBKDA01Y41,140,1.8,229.7,36.4,7.2,0,0,M300 RTK,1ZNBJ8700C01MC,,1ZMBHAN003009A,1Z6PHBKDA01Y41,DJI Pilot,Android, 4.1.1,46.97543183,7.18039833,485.3,,,
8/25/2022,8:42:10.75 AM,0m 5.8s,5.8,46.97552661,7.18034888,5.9,5.9,6.9,1435,0,0,0,0,0,0.5,-4.5,0,-1.8,-1.1,-34.3,325.7,Waypoints,Other,Waypoint Mission,17,10,True,,Matrice 300 RTK,True,False,,Smart,RC,False,True,False,,,True,,False,False,False,False,False,False,False,False,False,False,0,Free,0,0,0,0,False,False,False,False,False,False,,False,Normal,100,100,1024,1024,1024,1024,1,False,False,False,False,False,0,False,False,False,False,58,46.392,6065,10462,46.53,True,,,,,,,,False,False,14.118,102.4,102.4,102.4,0,52,0,11,6,25128.3,3350.45,,Idle,0,30,False,10,True,,Go Home,46.97552778,7.18034525,1.0,1222.2,262.5,True,1,1,False,False,False,False,0,False,False,False,Course Lock,262.5,,23.0,Calm,22,Android, 4.1.1,M300 RTK,1ZNBJ8700C01MC,,1ZMBHAN003009A,1Z6PHBKDA01Y41,140,1.8,229.7,36.4,7.2,0,0,M300 RTK,1ZNBJ8700C01MC,,1ZMBHAN003009A,1Z6PHBKDA01Y41,DJI Pilot,Android, 4.1.1,46.97543183,7.18039833,485.3,,,
8/25/2022,8:42:10.94 AM,0m 5.9s,5.9,46.97552663,7.18034892,6.6,6.6,7.5,1435,0,2.1,0,0,0,0.5,-5.1,0,-1.8,-1.3,-34.3,325.7,Waypoints,Other,Waypoint Mission,17,10,True,,Matrice 300 RTK,True,False,,Smart,RC,False,True,False,,,True,,False,False,False,False,False,False,False,False,False,False,0,Free,0,0,0,0,False,False,False,False,False,False,,False,Normal,100,100,1024,1024,1024,1024,1,False,False,False,False,False,0,False,False,False,False,58,46.392,6065,10462,46.53,True,,,,,,,,False,False,14.118,102.4,102.4,102.4,0,52,0,11,6,25128.3,3350.45,,Idle,0,30,False,10,True,,Go Home,46.97552778,7.18034525,1.0,1222.2,262.5,True,1,1,False,False,False,False,0,False,False,False,Course Lock,262.5,,23.0,Calm,22,Android, 4.1.1,M300 RTK,1ZNBJ8700C01MC,,1ZMBHAN003009A,1Z6PHBKDA01Y41,140,1.8,229.7,36.4,7.2,0,0,M300 RTK,1ZNBJ8700C01MC,,1ZMBHAN003009A,1Z6PHBKDA01Y41,DJI Pilot,Android, 4.1.1,46.97543183,7.18039833,485.3,,,
8/25/2022,8:42:11.04 AM,0m 6.0s,6.0,46.97552664,7.18034894,7.5,7.5,8.5,1436,0,2.1,0,0,0,0.5,-5.8,0,-1.8,-1.2,-34.4,325.6,Waypoints,Other,Waypoint Mission,17,10,True,,Matrice 300 RTK,True,False,,Smart,RC,False,True,False,,,True,,False,False,False,False,False,False,False,False,False,False,0,Free,0,0,0,0,False,False,False,False,False,False,,False,Normal,100,100,1024,1024,1024,1024,1,False,False,False,False,False,0,False,False,False,False,58,46.392,6065,10462,46.53,True,,,,,,,,False,False,14.118,102.4,102.4,102.4,0,52,0,11,6,25128.3,3350.45,,Idle,0,30,False,10,True,,Go Home,46.97552778,7.18034525,1.0,1222.2,262.5,True,1,1,False,False,False,False,0,False,False,False,Course Lock,262.5,,23.0,Calm,22,Android, 4.1.1,M300 RTK,1ZNBJ8700C01MC,,1ZMBHAN003009A,1Z6PHBKDA01Y41,140,1.8,229.7,36.4,7.2,0,0,M300 RTK,1ZNBJ8700C01MC,,1ZMBHAN003009A,1Z6PHBKDA01Y41,DJI Pilot,Android, 4.1.1,46.97543183,7.18039833,485.3,,,
8/25/2022,8:42:11.14 AM,0m 6.1s,6.1,46.97552668,7.18034897,8.5,8.5,9.5,1437,0,2.1,0,0,0,0.5,-6.5,0,-1.7,-1,-34.5,325.5,Waypoints,Other,Waypoint Mission,17,10,True,,Matrice 300 RTK,True,False,,Smart,RC,False,True,False,,,True,,False,False,False,False,False,False,False,False,False,False,0,Free,0,0,0,0,False,False,False,False,False,False,,False,Normal,100,100,1024,1024,1024,1024,1,False,False,False,False,False,0,False,False,False,False,58,46.392,6065,10462,46.53,True,,,,,,,,False,False,14.118,102.4,102.4,102.4,0,52,0,11,6,25128.3,3350.45,,Idle,0,30,False,10,True,,Go Home,46.97552778,7.18034525,1.0,1222.2,262.5,True,1,1,False,False,False,False,0,False,False,False,Course Lock,262.5,,23.0,Calm,22,Android, 4.1.1,M300 RTK,1ZNBJ8700C01MC,,1ZMBHAN003009A,1Z6PHBKDA01Y41,140,1.8,229.7,36.4,7.2,0,0,M300 RTK,1ZNBJ8700C01MC,,1ZMBHAN003009A,1Z6PHBKDA01Y41,DJI Pilot,Android, 4.1.1,46.97543183,7.18039833,485.3,,,
8/25/2022,8:42:11.24 AM,0m 6.2s,6.2,46.97552674,7.180349,9.5,9.5,10.2,1438,0,2.1,0,0,0,0.5,-6.7,0,-1.6,-1.1,-34.6,325.4,Waypoints,Other,Waypoint Mission,17,10,True,,Matrice 300 RTK,True,False,,Smart,RC,False,True,False,,,True,,False,False,False,False,False,False,False,False,False,False,0,Free,0,0,0,0,False,False,False,False,False,False,,False,Normal,100,100,1024,1024,1024,1024,1,False,False,False,False,False,0,False,False,False,False,58,46.392,6065,10462,46.53,True,,,,,,,,False,False,14.118,102.4,102.4,102.4,0,52,0,11,6,25128.3,3350.45,,Idle,0,30,False,10,True,,Go Home,46.97552778,7.18034525,1.0,1222.2,262.5,True,1,1,False,False,False,False,0,False,False,False,Course Lock,262.5,,23.0,Calm,22,Android, 4.1.1,M300 RTK,1ZNBJ8700C01MC,,1ZMBHAN003009A,1Z6PHBKDA01Y41,140,1.8,229.7,36.4,7.2,0,0,M300 RTK,1ZNBJ8700C01MC,,1ZMBHAN003009A,1Z6PHBKDA01Y41,DJI Pilot,Android, 4.1.1,46.97543183,7.18039833,485.3,,,
