;pos_time;latitude;longitude;altitude;alt_time;pitch;roll;yaw
0;1666767343.5356271;46.9755343;7.1803557;-0.04000000283122063;1666767343.7191129;-0.22986184060573578;-0.2817370295524597;90.6453857421875
1;1666767343.7620625;46.9755343;7.1803558;-0.0430000014603138;1666767343.931882;-0.1682414710521698;-0.39411142468452454;90.66876983642578
2;1666767343.9679925;46.9755343;7.1803558;-0.04200000315904617;1666767344.141722;-0.09978771954774857;-0.3015165328979492;90.80973052978516
3;1666767344.1817386;46.9755343;7.1803558;-0.04100000113248825;1666767344.3720574;-0.09979172796010971;-0.3491714894771576;90.73493194580078
4;1666767344.4052436;46.9755343;7.1803558;-0.03700000047683716;1666767344.5867777;-0.1172737255692482;-0.21848104894161224;90.64472961425781
5;1666767344.6248424;46.9755343;7.1803558;-0.03400000184774399;1666767344.7966173;-0.11935153603553772;-0.3024786710739136;90.50735473632812
6;1666767344.8385847;46.9755343;7.1803558;-0.03100000135600567;1666767345.004518;-0.046142399311065674;-0.3622766137123108;90.68378448486328
7;1666767345.0435443;46.9755343;7.1803558;-0.03100000135600567;1666767345.2104402;-0.11874102056026459;-0.4039860963821411;90.7539291381836
8;1666767345.2455785;46.9755343;7.1803558999999995;-0.03400000184774399;1666767345.4427292;-0.06972960382699966;-0.15601514279842377;90.50830078125
9;1666767345.4768877;46.9755343;7.1803558999999995;-0.030000001192092896;1666767345.6633058;-0.16768310964107513;-0.3683062195777893;90.48068237304688
10;1666767345.708203;46.9755343;7.1803558999999995;-0.027000000700354576;1666767345.873148;0.05808471888303757;-0.385847270488739;90.51154327392578
11;1666767345.9209735;46.9755343;7.1803558999999995;-0.024000000208616257;1666767346.179609;-0.12976793944835663;-0.2163694053888321;90.46383666992188
12;1666767346.2176735;46.9755343;7.1803558999999995;-0.024000000208616257;1666767346.394327;0.06478201597929001;-0.4299795925617218;90.46157836914062
13;1666767346.4372737;46.9755343;7.1803558999999995;0.0;1666767346.626615;-0.19896133244037628;-0.15430927276611328;90.47028350830078
14;1666767346.6744409;46.9755343;7.1803558999999995;-0.004000000189989805;1666767346.871594;-0.10079340636730194;-0.27861055731773376;90.46985626220703
15;1666767347.4152257;46.9755343;7.1803558999999995;-0.009000000543892384;1666767347.6201851;-0.061742957681417465;-0.32662951946258545;90.58609008789062
16;1666767347.6504402;46.9755343;7.1803558999999995;-0.015000000596046448;1666767347.8124557;-0.19479171931743622;-0.3648122549057007;90.53926849365234
17;1666767347.8456376;46.9755343;7.1803558999999995;-0.020000001415610313;1666767348.0164382;-0.12018032371997833;-0.40487760305404663;90.52224731445312
18;1666767348.0623107;46.9755342;7.1803558999999995;-0.024000000208616257;1666767348.2477524;0.0414566732943058;-0.28452068567276;90.5920639038086
19;1666767348.2819118;46.9755342;7.180356;-0.02800000086426735;1666767348.4508152;-0.220786452293396;-0.36214587092399597;90.56731414794922
20;1666767348.485952;46.9755342;7.180356;-0.029000001028180122;1666767348.6714404;-0.0907336100935936;-0.30338504910469055;90.57962799072266
21;1666767348.7065756;46.9755342;7.180356;-0.02200000174343586;1666767348.8919275;-0.13755665719509125;-0.1468215435743332;90.43740844726562
22;1666767348.932456;46.9755342;7.180356;0.003000000026077032;1666767349.1120958;-0.030948398634791374;-0.30833497643470764;90.68927001953125
23;1666767349.1599176;46.9755342;7.180356;0.007000000216066837;1666767349.5483654;-0.0946597009897232;-0.26130411028862;90.67021942138672
24;1666767349.5825262;46.9755342;7.180356;0.01100000087171793;1666767349.6898885;-0.04902826249599457;-0.38121798634529114;90.98089599609375
25;1666767349.7220938;46.9755342;7.180356;0.012000000104308128;1666767349.8606868;-0.09824945777654648;-0.43803659081459045;91.00514221191406
26;1666767349.9007006;46.9755342;7.180356;0.013000000268220901;1666767350.0627182;-0.07369820028543472;-0.36787930130958557;91.02313995361328
27;1666767350.1017585;46.9755342;7.180356;0.01600000075995922;1666767350.2481573;0.10155434161424637;-0.2910289168357849;91.14647674560547
28;1666767350.386288;46.9755342;7.180356;0.018000001087784767;1666767350.535806;0.16345013678073883;-0.004976052790880203;91.57975006103516
29;1666767350.5787513;46.9755343;7.180356;0.014000000432133675;1666767350.7496374;0.9383466243743896;-0.11263792216777802;91.6446533203125
30;1666767350.7896535;46.9755342;7.180356;0.021000001579523087;1666767350.957528;0.4054598808288574;-0.1441032439470291;91.55123138427734
31;1666767350.992665;46.9755342;7.1803558999999995;0.04700000211596489;1666767351.159106;0.0070150974206626415;-0.1990959197282791;91.4753189086914
32;1666767351.2069285;46.9755342;7.1803558;0.09600000083446503;1666767351.3792336;-0.12890712916851044;-0.1749645620584488;91.3779296875
33;1666767351.424131;46.9755342;7.1803557;0.1720000058412552;1666767351.6046884;-0.15552182495594025;-0.1393374651670456;91.2751235961914
34;1666767351.6466587;46.9755342;7.1803557;0.29500001668930054;1666767351.8135517;-0.1763731688261032;-0.2573760747909546;91.22190856933594
35;1666767351.8555229;46.9755342;7.1803557;0.4480000138282776;1666767352.02437;-0.14695119857788086;-0.21646983921527863;91.14155578613281
36;1666767352.067317;46.9755342;7.1803557;0.6260000467300415;1666767352.25861;-0.1123475506901741;-0.2834221124649048;91.09789276123047
37;1666767352.3161938;46.9755342;7.1803557;0.8270000219345093;1666767352.4821115;-0.10896532237529755;-0.2832292914390564;91.0030746459961
38;1666767352.5260317;46.9755342;7.1803558;1.0509999990463257;1666767352.6939046;-0.0976480171084404;-0.2980358898639679;90.92920684814453
39;1666767352.7329438;46.9755341;7.1803558;1.2990000247955322;1666767352.910575;-0.12233725935220718;-0.374332070350647;90.87382507324219
40;1666767352.9476655;46.9755341;7.1803558;1.5670000314712524;1666767353.1087031;-0.16790999472141266;-0.40175169706344604;90.90167999267578
41;1666767353.1487193;46.9755341;7.1803558;1.8550001382827759;1666767353.3216279;-0.13879208266735077;-0.4440854489803314;90.8275375366211
42;1666767353.3509054;46.9755341;7.1803558999999995;2.118000030517578;1666767353.5412278;-0.11294616013765335;-0.38568875193595886;90.72490692138672
43;1666767353.5812416;46.9755341;7.1803558999999995;2.4060001373291016;1666767353.7461863;-0.10681203007698059;-0.3846255838871002;90.67710876464844
44;1666767353.8057246;46.9755341;7.1803558999999995;2.677000045776367;1666767353.9774966;0.012806483544409275;-0.41213783621788025;90.63135528564453
45;1666767354.0097075;46.9755341;7.180356;2.9670002460479736;1666767354.1785543;0.04165086895227432;-0.4205321967601776;90.63331604003906
46;1666767354.2058835;46.9755342;7.1803561;3.264000177383423;1666767354.3639936;0.24963900446891785;-0.34590014815330505;90.64593505859375
47;1666767354.4030325;46.9755342;7.180356199999999;3.56000018119812;1666767354.5650496;0.294364869594574;-0.3748760223388672;90.63981628417969
48;1666767354.642155;46.9755342;7.180356199999999;3.871000289916992;1666767354.8041692;0.2388368397951126;-0.45389512181282043;90.63887023925781
49;1666767354.8383293;46.9755342;7.180356199999999;4.154000282287598;1666767355.0013254;0.20522558689117432;-0.49234744906425476;90.6180191040039
50;1666767355.034506;46.9755342;7.180356199999999;4.457000255584717;1666767355.2023838;0.2760888636112213;-0.4369680881500244;90.59204864501953
51;1666767355.2404401;46.9755342;7.1803563;4.763000011444092;1666767355.4063623;0.32651081681251526;-0.3957773447036743;90.58184051513672
52;1666767355.4532094;46.9755343;7.180356199999999;5.068000316619873;1666767355.620106;0.2637978196144104;-0.4057692289352417;90.60135650634766
53;1666767355.6523118;46.9755343;7.180356199999999;5.372000217437744;1666767355.8475142;0.26248401403427124;-0.43383902311325073;90.5864486694336
54;1666767355.8855908;46.9755343;7.180356199999999;5.679000377655029;1666767356.0563786;0.21486754715442657;-0.4234021306037903;90.57038116455078
55;1666767356.094439;46.9755343;7.180356199999999;5.982000350952148;1666767356.2603638;0.2461811602115631;-0.23284150660037994;90.5921401977539
56;1666767356.296473;46.9755344;7.180356199999999;6.2900004386901855;1666767356.4682546;0.29931241273880005;-0.14803747832775116;90.63304901123047
57;1666767356.50436;46.9755344;7.1803561;6.6060004234313965;1666767356.6771119;0.2715245485305786;-0.07626832276582718;90.63775634765625
58;1666767356.7132225;46.9755344;7.1803561;6.918000221252441;1666767356.8830466;0.1895686686038971;-0.18086065351963043;90.61651611328125
59;1666767356.9201372;46.9755344;7.180356;7.24500036239624;1666767357.0919101;0.043839775025844574;-0.14618857204914093;90.62022399902344
60;1666767357.1299741;46.9755344;7.1803558999999995;7.557000160217285;1666767357.2978492;-0.04364074021577835;-0.262626588344574;90.60702514648438
61;1666767357.3368866;46.9755344;7.1803558999999995;7.868000507354736;1666767357.5067112;0.054124318063259125;-0.2064714878797531;90.62983703613281
62;1666767357.5477035;46.9755344;7.1803558999999995;8.171000480651855;1666767357.7175257;0.1205729991197586;-0.14121784269809723;90.639892578125
63;1666767357.7565665;46.9755344;7.1803558999999995;8.487000465393066;1666767357.9205346;0.02834211103618145;-0.050503313541412354;90.63773345947266
64;1666767357.9712892;46.9755344;7.1803558999999995;8.806000709533691;1666767358.1459966;-0.013829488307237625;-0.10453879088163376;90.63818359375
65;1666767358.1899097;46.9755344;7.1803558;9.12600040435791;1666767358.3392377;0.00323796970769763;-0.15626749396324158;90.62232971191406
66;1666767358.3714461;46.9755344;7.1803558;9.447000503540039;1666767358.5266314;-0.03744954988360405;-0.1802445948123932;90.6136245727539
67;1666767358.5715292;46.9755344;7.1803558;9.761000633239746;1666767358.728664;-0.1014179065823555;-0.12484822422266006;90.62718200683594
68;1666767358.7675166;46.9755344;7.1803558;10.071000099182129;1666767358.945333;-0.07848119735717773;-0.15001462399959564;90.6243667602539
69;1666767358.98438;46.9755343;7.1803558;10.390000343322754;1666767359.651969;-0.006871276535093784;-0.14852182567119598;90.62493133544922
70;1666767359.6910105;46.9755343;7.1803558;10.754000663757324;1666767359.8725543;-0.04615585505962372;-0.11353832483291626;90.62738037109375
71;1666767359.9086561;46.9755343;7.1803558;11.193000793457031;1666767360.076527;-0.15017715096473694;-0.17728687822818756;90.62020111083984
72;1666767360.1145933;46.9755343;7.1803558999999995;11.722000122070312;1666767360.2775838;-0.08501480519771576;-0.038496874272823334;90.61064147949219
73;1666767360.3136954;46.9755343;7.1803558999999995;12.294000625610352;1666767360.4887211;-0.009548470377922058;-0.0791826993227005;90.62908935546875
74;1666767360.5228832;46.9755342;7.180356;12.87600040435791;1666767360.6868494;0.05202505365014076;-0.18552617728710175;90.6291732788086
75;1666767360.727844;46.9755342;7.1803561;13.452000617980957;1666767360.8957121;0.12989291548728943;-0.17742469906806946;90.65451049804688
76;1666767361.0323548;46.9755342;7.1803561;14.034000396728516;1666767361.1924188;0.04421357065439224;-0.25219714641571045;90.64590454101562
77;1666767361.2343843;46.9755341;7.180356199999999;14.629000663757324;1666767361.3954234;0.13024573028087616;-0.24987578392028809;90.64900970458984
78;1666767361.431537;46.9755341;7.1803563;15.226000785827637;1666767361.6013625;0.22329355776309967;-0.27962735295295715;90.65105438232422
79;1666767361.642352;46.975533999999996;7.1803563;15.82300090789795;1666767361.8082716;0.12092047184705734;-0.28560516238212585;90.63959503173828
80;1666767361.8541446;46.975533999999996;7.1803564;16.418001174926758;1666767362.0093277;0.13673755526542664;-0.29857149720191956;90.6386489868164
81;1666767362.0737457;46.975533999999996;7.1803564;17.00800132751465;1666767362.228929;0.05190052464604378;-0.25554990768432617;90.6441421508789
82;1666767362.2728481;46.975533999999996;7.1803564;17.602001190185547;1666767362.534417;0.058474138379096985;-0.3660782277584076;90.63253784179688
83;1666767362.5705276;46.975533899999995;7.1803564;18.194000244140625;1666767362.7725592;0.11719111353158951;-0.4481307566165924;90.64138793945312
84;1666767362.7832966;46.975533899999995;7.1803564;18.786001205444336;1666767363.05072;0.04517895355820656;-0.45670318603515625;90.63929748535156
85;1666767363.0907373;46.975533899999995;7.1803564;19.376001358032227;1666767363.247872;0.053087037056684494;-0.5260204076766968;90.66143798828125
86;1666767363.2976482;46.975533899999995;7.1803564;19.964000701904297;1666767363.4606402;-0.0030429691541939974;-0.43292179703712463;90.64512634277344
87;1666767363.495776;46.975533899999995;7.1803563;20.549001693725586;1666767363.6656022;-0.12494369596242905;-0.42770150303840637;90.64143371582031
88;1666767363.7143989;46.975533899999995;7.1803563;21.160001754760742;1666767363.8949604;0.0329597182571888;-0.4735777974128723;90.64787292480469
89;1666767363.930094;46.975533999999996;7.1803564;21.750001907348633;1666767364.0989435;0.02280094474554062;-0.4568348228931427;90.62849426269531
90;1666767364.13603;46.975533999999996;7.1803564;22.33700180053711;1666767364.3126874;0.048889871686697006;-0.3409431278705597;90.6258544921875
91;1666767364.351729;46.975533999999996;7.1803564;22.90300178527832;1666767364.7304158;0.03847329691052437;-0.23826710879802704;90.6250991821289
92;1666767364.7655547;46.9755341;7.180356499999999;23.49100112915039;1666767364.9509892;-0.0016009322134777904;-0.286825954914093;90.64498138427734
93;1666767364.989056;46.9755342;7.180356499999999;24.07200050354004;1666767365.165709;-0.02522001788020134;-0.3371454179286957;90.65294647216797
94;1666767365.2115822;46.9755342;7.1803566;24.677001953125;1666767365.377503;0.120693638920784;-0.37794145941734314;90.65907287597656
95;1666767365.4155684;46.9755342;7.1803566;25.24100112915039;1666767365.5727017;0.14296498894691467;-0.3551573157310486;90.6637954711914
96;1666767365.6205254;46.9755342;7.1803567;25.83100128173828;1666767365.772782;0.19257983565330505;-0.34167155623435974;90.66609954833984
97;1666767365.8157253;46.9755342;7.180356799999999;26.442001342773438;1666767365.9884794;0.33379340171813965;-0.39700618386268616;90.64791870117188
98;1666767366.0294695;46.9755342;7.180356799999999;27.006000518798828;1666767366.2031975;0.24240823090076447;-0.3840712010860443;90.6444091796875
99;1666767366.241263;46.9755342;7.180356799999999;27.597002029418945;1666767366.4286535;0.11967857927083969;-0.3212797939777374;90.65806579589844
100;1666767366.4686725;46.9755343;7.180356799999999;28.19500160217285;1666767366.6541674;0.26082730293273926;-0.2883107662200928;90.65791320800781
101;1666767366.691259;46.9755343;7.1803569;28.817001342773438;1666767366.8640113;0.321184903383255;-0.2063896358013153;90.645263671875
102;1666767366.9059756;46.9755344;7.1803569;29.394001007080078;1666767367.0865378;0.2907269597053528;-0.10206102579832077;90.64543151855469
103;1666767367.1304586;46.9755344;7.1803569;30.0210018157959;1666767367.2963474;0.28974705934524536;-0.0658542737364769;90.6347885131836
104;1666767367.334418;46.975534499999995;7.1803569;30.59800148010254;1666767367.503262;0.2932046353816986;-0.013250619173049927;90.64236450195312
105;1666767367.544251;46.975534499999995;7.1803569;31.196001052856445;1666767367.7257874;0.18866075575351715;-0.13551543653011322;90.6415786743164
106;1666767367.7589743;46.975534499999995;7.180356799999999;31.793001174926758;1666767367.9453864;0.10051769018173218;-0.08812002837657928;90.63521575927734
107;1666767367.9883351;46.975534499999995;7.1803567;32.393001556396484;1666767368.1591306;0.17198702692985535;-0.08187586069107056;90.63450622558594
108;1666767368.2020795;46.975534499999995;7.1803567;33.02000045776367;1666767368.3699467;0.20232369005680084;-0.18849240243434906;90.6248779296875
109;1666767368.4089866;46.9755344;7.1803567;33.599002838134766;1666767368.587594;0.34454336762428284;-0.25541993975639343;90.62686157226562
110;1666767368.6383493;46.9755344;7.1803567;34.20100021362305;1666767368.8110988;0.35880255699157715;-0.17819280922412872;90.64649963378906
111;1666767368.8647783;46.9755344;7.1803567;34.803001403808594;1666767369.0228906;0.17870542407035828;-0.1731996238231659;90.64952087402344
112;1666767369.0629067;46.9755344;7.1803566;35.402000427246094;1666767369.2405384;0.11764593422412872;-0.1502464860677719;90.65384674072266
113;1666767369.2864096;46.9755344;7.1803566;36.00400161743164;1666767369.4572105;0.14628858864307404;-0.06113565340638161;90.66152954101562
114;1666767369.4943001;46.9755344;7.180356499999999;36.60300064086914;1666767369.6514347;0.11659106612205505;-0.11877617985010147;90.65925598144531
115;1666767369.6924279;46.9755344;7.180356499999999;37.20800018310547;1666767369.860298;-0.07806704193353653;-0.1481950581073761;90.65897369384766
116;1666767369.8964102;46.9755344;7.1803564;37.816001892089844;1666767370.0476909;-0.003920174669474363;-0.16898119449615479;90.65326690673828
117;1666767370.1013703;46.9755344;7.1803564;38.419002532958984;1666767370.2643647;0.028964443132281303;-0.2419918328523636;90.64540100097656
118;1666767370.3014514;46.9755344;7.1803563;39.01900100708008;1666767370.4673717;-0.009967546910047531;-0.22709843516349792;90.6676254272461
119;1666767370.506409;46.9755344;7.1803563;39.62300109863281;1666767370.6635466;0.05033527687191963;-0.24996617436408997;90.67456817626953
120;1666767370.7035613;46.9755344;7.1803564;40.230003356933594;1666767370.8636262;0.1329227238893509;-0.22308407723903656;90.66071319580078
121;1666767370.9114497;46.9755344;7.1803564;40.8640022277832;1666767371.0842018;0.1488717496395111;-0.2580817937850952;90.67041015625
122;1666767371.1212904;46.9755344;7.1803564;41.44700241088867;1666767371.2852561;0.10114721953868866;-0.24817992746829987;90.67217254638672
123;1666767371.3281996;46.9755344;7.1803564;42.05000305175781;1666767371.4941206;-0.0084135252982378;-0.3175719380378723;90.67105102539062
124;1666767371.530237;46.9755343;7.1803563;42.64600372314453;1666767371.7176244;0.06807871907949448;-0.30566075444221497;90.64323425292969
125;1666767371.7527611;46.9755344;7.1803563;43.24400329589844;1666767371.9196582;0.11997917294502258;-0.258802205324173;90.6433334350586
126;1666767371.9547925;46.9755344;7.1803563;43.84100341796875;1666767372.117784;0.14133398234844208;-0.13394665718078613;90.66085052490234
127;1666767372.1480417;46.9755344;7.1803563;44.43800354003906;1666767372.3139164;0.152152419090271;-0.10654787719249725;90.66492462158203
128;1666767372.3597867;46.975534499999995;7.1803563;45.035003662109375;1666767372.519849;0.20167437195777893;-0.12058825045824051;90.67290496826172
129;1666767372.5579133;46.975534499999995;7.1803563;45.6400032043457;1666767372.7345715;0.0906224176287651;-0.11802931874990463;90.67925262451172
130;1666767372.7706807;46.975534499999995;7.1803563;46.246002197265625;1666767372.9405057;0.09366581588983536;-0.2591986656188965;90.67922973632812
131;1666767372.9746678;46.975534499999995;7.180356199999999;46.8650016784668;1666767373.1435137;-0.03499520942568779;-0.2430790215730667;90.68839263916016
132;1666767373.1825526;46.975534499999995;7.180356199999999;47.465003967285156;1666767373.5466032;-0.0282124150544405;-0.15348227322101593;90.67774963378906
133;1666767373.5827124;46.975534499999995;7.1803561;48.04300308227539;1666767373.758394;0.0023208167403936386;-0.13234451413154602;90.66395568847656
134;1666767373.7935314;46.975534599999996;7.1803561;48.650001525878906;1666767373.9662807;-0.03505168855190277;-0.12905088067054749;90.65750885009766
135;1666767374.004344;46.975534599999996;7.180356;49.28000259399414;1666767374.1780732;-0.03939805552363396;-0.1053634062409401;90.66509246826172
136;1666767374.2122333;46.975534599999996;7.180356;49.85900115966797;1666767374.3762012;0.03978915885090828;-0.10296943038702011;90.65852355957031
137;1666767374.419144;46.975534599999996;7.180356;50.45600128173828;1666767374.5899434;0.058783333748579025;-0.10479571670293808;90.66471099853516
138;1666767374.627032;46.975534599999996;7.180356;51.05600357055664;1666767374.797834;-0.020419202744960785;-0.005993823055177927;90.65969848632812
139;1666767374.8300402;46.9755347;7.180356;51.660003662109375;1666767374.9910803;-0.046806782484054565;-0.06632529199123383;90.65575408935547
140;1666767375.0311067;46.9755347;7.180356;52.2650032043457;1666767375.2155607;-0.029150621965527534;-0.03805634379386902;90.64936828613281
141;1666767375.2643628;46.9755347;7.180356;52.858001708984375;1666767375.4371119;-0.06347730755805969;0.021504608914256096;90.63941192626953
142;1666767375.4741988;46.9755347;7.180356;53.4010009765625;1666767375.6430488;0.03506319224834442;0.005143331363797188;90.64521026611328
143;1666767375.6820915;46.9755347;7.180356;53.893001556396484;1666767375.8421526;0.00021078869758639485;0.04411036893725395;90.64289093017578
144;1666767375.876312;46.9755347;7.180356;54.353004455566406;1666767376.1417835;0.0007409287500195205;0.1405627280473709;90.66089630126953
145;1666767376.1798475;46.9755347;7.180356;54.77900314331055;1666767376.349671;-0.05871626362204552;0.09223290532827377;90.66944885253906
146;1666767376.3867605;46.9755347;7.180356;55.19700241088867;1666767376.5419433;-0.06142166629433632;0.04090525209903717;90.65872955322266
147;1666767376.581959;46.975534599999996;7.180356;55.55000305175781;1666767376.7439766;0.08409787714481354;0.012389962561428547;90.64553833007812
148;1666767376.779112;46.975534599999996;7.180356;55.88500213623047;1666767376.9469852;0.005113410297781229;-0.062012817710638046;90.65304565429688
149;1666767376.9830945;46.975534599999996;7.180356;56.185001373291016;1666767377.1431599;-0.03925622999668121;-0.06439462304115295;90.65764617919922
150;1666767377.1812232;46.975534499999995;7.180356;56.461002349853516;1666767377.347146;-0.033689163625240326;-0.019646061584353447;90.64968872070312
151;1666767377.3861847;46.975534499999995;7.180356;56.72600173950195;1666767377.5726013;-0.03194962814450264;-0.04975607618689537;90.6505355834961
152;1666767377.6106646;46.975534499999995;7.180356;56.948001861572266;1666767377.9795916;-0.03366301581263542;-0.042845454066991806;90.65074920654297
153;1666767378.0166812;46.975534499999995;7.180356;57.16200256347656;1666767378.1835835;-0.13267989456653595;-0.02573387324810028;90.65451049804688
154;1666767378.2284799;46.975534499999995;7.180356;57.362003326416016;1666767378.3836646;-0.15419913828372955;0.02657436951994896;90.64408874511719
155;1666767378.4236786;46.975534499999995;7.180356;57.53300094604492;1666767378.595982;-0.1459072083234787;-0.06771765649318695;90.66050720214844
156;1666767378.6320894;46.975534499999995;7.180356;57.68400192260742;1666767378.802891;-0.10524536669254303;-0.05273032933473587;90.64187622070312
157;1666767378.8419337;46.975534499999995;7.180356;57.81500244140625;1666767379.001023;-0.1148502379655838;0.006028257310390472;90.63549041748047
158;1666767379.0361576;46.975534499999995;7.180356;57.94000244140625;1666767379.291866;-0.05959269031882286;-0.07544173300266266;90.64038848876953
159;1666767379.3299289;46.975534499999995;7.1803561;58.052001953125;1666767379.4929242;-0.05491003021597862;-0.14843939244747162;90.6368408203125
160;1666767379.5329368;46.9755344;7.1803561;58.15400314331055;1666767379.7086158;0.06407229602336884;-0.21061953902244568;90.625
161;1666767379.7466943;46.9755344;7.180356199999999;58.25100326538086;1666767379.9165025;1.8552178144454956;-1.81382155418396;89.14382934570312
162;1666767380.4446228;46.975534499999995;7.1803561;58.340003967285156;1666767380.6066406;6.232830047607422;-7.935346603393555;81.70697784423828
163;1666767380.6476352;46.975534599999996;7.1803558999999995;58.432003021240234;1666767380.8164804;8.817389488220215;-15.413642883300781;71.76605224609375
164;1666767380.8604019;46.975535199999996;7.1803551;58.52100372314453;1666767381.0253456;7.945476531982422;-22.869924545288086;62.456871032714844
165;1666767381.060481;46.975536299999995;7.1803535;58.612003326416016;1666767381.2586102;3.198739528656006;-27.231306076049805;54.012596130371094
166;1666767381.295696;46.9755381;7.1803507;58.7030029296875;1666767381.473327;-1.443137526512146;-29.23319435119629;45.164363861083984
167;1666767381.5143213;46.9755408;7.180346999999999;58.78400421142578;1666767381.68707;-7.069538593292236;-30.515098571777344;36.29241943359375
168;1666767381.7212307;46.9755441;7.1803422999999995;58.858001708984375;1666767381.888129;-13.156105995178223;-30.671472549438477;27.161252975463867
169;1666767381.936929;46.9755481;7.1803367;58.92400360107422;1666767382.0882056;-19.407085418701172;-29.451309204101562;17.807552337646484
170;1666767382.128223;46.9755526;7.1803304;58.98500442504883;1666767382.2990227;-25.353557586669922;-26.930601119995117;8.091558456420898
171;1666767382.33611;46.9755578;7.1803232999999995;59.038002014160156;1666767382.5088663;-30.510549545288086;-22.8839054107666;-2.1312098503112793
172;1666767382.543999;46.975563699999995;7.1803152;59.08000183105469;1666767382.7235825;-33.401248931884766;-17.26641082763672;-12.702049255371094
173;1666767382.7714055;46.975569899999996;7.180306799999999;59.10700225830078;1666767382.927569;-35.19242858886719;-11.470165252685547;-22.724716186523438
174;1666767382.966609;46.9755764;7.1802978;59.12900161743164;1666767383.1335022;-36.20659255981445;-5.98861837387085;-32.282752990722656
175;1666767383.1823027;46.975583;7.1802889;59.137001037597656;1666767383.3189425;-36.644309997558594;-0.6546615958213806;-41.56866455078125
176;1666767383.3648157;46.97559;7.180279199999999;59.1400032043457;1666767383.523904;-36.685279846191406;4.474987506866455;-48.26089096069336
177;1666767383.5639176;46.9755973;7.1802693;59.13500213623047;1666767383.7259338;-36.86442184448242;6.355342388153076;-49.581119537353516
178;1666767383.7639995;46.9756048;7.1802592;59.130001068115234;1666767383.925041;-37.43668746948242;6.1346964836120605;-49.01231384277344
179;1666767383.968957;46.9756125;7.180249099999999;59.121002197265625;1666767384.1387808;-38.05372619628906;5.581536769866943;-48.19295120239258
180;1666767384.19539;46.9756204;7.1802389;59.11100387573242;1666767384.3525262;-38.56689453125;4.995547771453857;-47.274478912353516
181;1666767384.3866847;46.9756285;7.1802287;59.10000228881836;1666767384.5535812;-38.99610137939453;4.491512775421143;-46.45161056518555
182;1666767384.5965247;46.975637;7.1802179;59.08200454711914;1666767384.7556133;-39.386653900146484;4.048194885253906;-45.73301315307617
183;1666767384.795634;46.9756451;7.1802076999999995;59.070003509521484;1666767384.9517899;-39.73234558105469;3.6574368476867676;-45.068824768066406
184;1666767384.9927835;46.975653699999995;7.180197;59.061004638671875;1666767385.1577244;-40.03786849975586;3.3966689109802246;-44.501792907714844
185;1666767385.197747;46.9756625;7.1801862;59.051002502441406;1666767385.3734221;-40.30849838256836;3.0613303184509277;-43.95642852783203
186;1666767385.409532;46.975671299999995;7.180175299999999;59.0420036315918;1666767385.5764296;-40.56984329223633;2.7589364051818848;-43.49088668823242
187;1666767385.6125422;46.9756803;7.1801642;59.03400421142578;1666767385.785291;-40.82013702392578;2.5393590927124023;-43.11643600463867
188;1666767385.8301885;46.9756894;7.180153;59.02000427246094;1666767386.5085068;-41.047882080078125;2.36492919921875;-42.74882125854492
189;1666767386.5495024;46.9756986;7.1801417;59.01100158691406;1666767386.7446997;-41.24760055541992;2.2341649532318115;-42.45043182373047
190;1666767386.776908;46.975708;7.1801302;59.00100326538086;1666767386.9467323;-41.44188690185547;2.1058285236358643;-42.1913948059082
191;1666767386.983825;46.9757174;7.180118599999999;58.996002197265625;1666767387.1702373;-41.6212272644043;1.94228196144104;-41.92052459716797
192;1666767387.2170844;46.975727;7.1801068;58.99400329589844;1666767387.378124;-41.79979705810547;1.828738808631897;-41.71426010131836
193;1666767387.4181395;46.9757367;7.180095;58.99100112915039;1666767387.5830836;-41.976131439208984;1.6485346555709839;-41.51899719238281
194;1666767387.6133413;46.9757465;7.1800831;58.98500442504883;1666767387.7909722;-42.11576461791992;1.5209813117980957;-41.37937927246094
195;1666767387.832941;46.975756399999995;7.180071099999999;58.974002838134766;1666767387.9842207;-42.27104949951172;1.4007453918457031;-41.25537109375
196;1666767388.0349715;46.9757664;7.180059;58.96600341796875;1666767388.1969903;-42.411659240722656;1.3031079769134521;-41.14571762084961
197;1666767388.2409174;46.9757764;7.1800467999999995;58.96000289916992;1666767388.405852;-42.54220962524414;1.2348295450210571;-41.02610778808594
198;1666767388.4458795;46.9757866;7.1800345;58.952003479003906;1666767388.6049566;-42.657630920410156;1.1888644695281982;-40.94131851196289
199;1666767388.648874;46.9757968;7.180021999999999;58.948001861572266;1666767388.8274822;-42.7867317199707;1.1124241352081299;-40.82478332519531
200;1666767388.863594;46.975806999999996;7.1800095;58.94900131225586;1666767389.0197535;-42.88842010498047;1.0763989686965942;-40.75815963745117
201;1666767389.0607488;46.975817299999996;7.1799969;58.94700241088867;1666767389.2120275;-42.99895095825195;1.0486657619476318;-40.7108154296875
202;1666767389.2500918;46.975827699999996;7.1799842;58.948001861572266;1666767389.4121065;-43.0871467590332;0.7205812931060791;-40.563724517822266
203;1666767389.4579842;46.9758382;7.1799713999999994;58.952003479003906;1666767389.61609;-43.188873291015625;0.420074462890625;-40.50928497314453
204;1666767389.6561146;46.9758492;7.179958;58.95500183105469;1666767389.826906;-43.26484680175781;0.6860899329185486;-40.623504638671875
205;1666767389.8630178;46.975859299999996;7.179945399999999;58.958003997802734;1666767390.0269845;-43.33578872680664;0.8013131022453308;-40.5196533203125
206;1666767390.0670013;46.9758699;7.1799323;58.958003997802734;1666767390.2319458;-43.42275619506836;0.7825131416320801;-40.45029067993164
207;1666767390.2690327;46.975880499999995;7.1799192;58.9530029296875;1666767390.4310505;-43.504703521728516;0.7785738110542297;-40.443199157714844
208;1666767390.4661856;46.9758912;7.179906;58.94900131225586;1666767390.64284;-43.59001922607422;0.7305294871330261;-40.41116714477539
209;1666767390.6789567;46.9759019;7.1798927;58.948001861572266;1666767390.8497524;-43.66054153442383;0.7037432789802551;-40.407955169677734
210;1666767390.887819;46.975912699999995;7.1798794;58.94900131225586;1666767391.0488553;-43.727108001708984;0.6818296909332275;-40.39719772338867
211;1666767391.087896;46.975923599999994;7.179866;58.95000457763672;1666767391.2508886;-43.774234771728516;0.6812257766723633;-40.3642578125
212;1666767391.290905;46.9759344;7.179852599999999;58.952003479003906;1666767391.7210104;-43.841373443603516;0.6890473961830139;-40.34183120727539
213;1666767391.7590735;46.9759453;7.1798392;58.95100402832031;1666767391.9250026;-43.90224838256836;0.7422435283660889;-40.35026550292969
214;1666767391.966961;46.9759561;7.179825699999999;58.945003509521484;1666767392.1358116;-43.95371627807617;0.7662823796272278;-40.349308013916016
215;1666767392.1719224;46.975967;7.1798122;58.94000244140625;1666767392.347602;-43.99430847167969;0.722143292427063;-40.30024337768555
216;1666767392.3866472;46.975978;7.1797987;58.93700408935547;1666767392.5642738;-44.072174072265625;0.7219281196594238;-40.29079055786133
217;1666767392.609169;46.975989;7.179785099999999;58.93700408935547;1666767392.7614272;-44.10805892944336;0.4711269438266754;-40.21830368041992
218;1666767392.7955866;46.976;7.179771499999999;58.93800354003906;1666767392.952722;-44.151397705078125;0.23776087164878845;-40.23350524902344
219;1666767392.9898095;46.9760115;7.1797572;58.94000244140625;1666767393.1606078;-44.18935012817383;0.16530153155326843;-40.301475524902344
220;1666767393.1986735;46.976022099999994;7.1797439999999995;58.941001892089844;1666767393.3597147;-44.226932525634766;0.1181408166885376;-40.33714294433594
221;1666767393.3997285;46.976033199999996;7.1797302;58.94400405883789;1666767393.5646741;-44.25865936279297;0.40871766209602356;-40.47505187988281
222;1666767393.60176;46.9760443;7.1797163;58.94700241088867;1666767393.7686586;-44.286380767822266;0.5463844537734985;-40.41051483154297
223;1666767393.808674;46.9760554;7.1797024;58.95000457763672;1666767394.424212;-44.31980514526367;0.5742093920707703;-40.35980987548828
224;1666767394.4329941;46.976066599999996;7.1796884;58.9530029296875;1666767394.5042446;-44.343101501464844;0.714627206325531;-40.371917724609375
225;1666767394.5169313;46.9760778;7.1796744;58.95500183105469;1666767394.6164842;-44.37935256958008;0.6670701503753662;-40.28074264526367
226;1666767394.642834;46.976088999999995;7.1796605;58.95500183105469;1666767394.7745955;-44.41354751586914;0.6452570557594299;-40.26779556274414
227;1666767394.81754;46.9761002;7.1796465;58.954002380371094;1666767394.9502764;-44.441585540771484;0.7051979303359985;-40.30889129638672
228;1666767394.9834578;46.9761114;7.1796326;58.954002380371094;1666767395.2401457;-44.44746017456055;0.6332706809043884;-40.28148651123047
229;1666767395.2762587;46.9761227;7.1796185999999995;58.954002380371094;1666767395.4343722;-44.482906341552734;0.4625767171382904;-40.25494384765625
230;1666767395.4792657;46.976134099999996;7.1796047;58.9530029296875;1666767395.631524;-44.5110969543457;0.3954906165599823;-40.28403854370117
231;1666767395.6705618;46.9761454;7.1795906;58.95900344848633;1666767395.8257477;-44.54154968261719;0.49522316455841064;-40.34048843383789
232;1666767395.8608851;46.9761568;7.1795766;58.967002868652344;1666767396.027778;-44.53839111328125;0.59449303150177;-40.336368560791016
233;1666767396.071698;46.976168099999995;7.1795624;58.96900177001953;1666767396.2454357;-44.56911849975586;0.6725893020629883;-40.33234786987305
234;1666767396.2922754;46.9761795;7.1795482999999995;58.970001220703125;1666767396.4611228;-44.59359359741211;0.6196827292442322;-40.29711151123047
235;1666767396.5001624;46.9761909;7.1795342;58.974002838134766;1666767396.6660812;-44.60984420776367;0.5948233008384705;-40.3295783996582
236;1666767396.7041454;46.9762024;7.1795200999999995;58.97700119018555;1666767396.8710444;-44.627044677734375;0.5800393223762512;-40.33870315551758
237;1666767396.9061778;46.9762139;7.1795059;58.980003356933594;1666767397.0779533;-44.631866455078125;0.5837253928184509;-40.342811584472656
238;1666767397.117971;46.9762254;7.1794918;58.983001708984375;1666767397.2897463;-44.651084899902344;0.6218389868736267;-40.3603630065918
239;1666767397.332689;46.976236799999995;7.179477599999999;58.98500442504883;1666767397.5044672;-44.67976760864258;0.7835859060287476;-40.40254592895508
240;1666767397.5386243;46.976248299999995;7.1794633999999995;58.98400115966797;1666767397.704546;-44.696292877197266;0.7269794940948486;-40.31527328491211
241;1666767397.7435873;46.9762597;7.1794492;58.983001708984375;1666767397.9016955;-44.72005081176758;0.7654849290847778;-40.3640251159668
242;1666767397.9397604;46.9762717;7.179434499999999;58.983001708984375;1666767398.1027555;-44.73855972290039;0.6015948057174683;-40.3284912109375
243;1666767398.1408162;46.9762832;7.179420299999999;58.98500442504883;1666767398.3008819;-44.680381774902344;0.6844216585159302;-40.41887664794922
244;1666767398.348705;46.9762948;7.1794061;58.98600387573242;1666767398.515601;-42.972843170166016;0.5280370712280273;-40.34851837158203
245;1666767398.5556152;46.9763063;7.179392;58.98800277709961;1666767398.81377;-41.182403564453125;0.42471879720687866;-40.36107635498047
246;1666767398.8567138;46.9763172;7.179378499999999;58.983001708984375;1666767399.0216627;-40.04774475097656;0.5870764851570129;-40.421199798583984
247;1666767399.058744;46.9763283;7.1793648;58.97500228881836;1666767399.2275906;-39.11179733276367;0.5927329659461975;-40.3913688659668
248;1666767399.2627273;46.9763392;7.1793512999999995;58.967002868652344;1666767399.4306011;-38.06829071044922;0.34975185990333557;-40.354248046875
249;1666767399.4667168;46.976349899999995;7.1793381;58.95900344848633;1666767399.6277523;-37.10444259643555;0.548517644405365;-40.532073974609375
250;1666767399.6667905;46.976360199999995;7.1793252999999995;58.9430046081543;1666767399.8346648;-36.157081604003906;0.6910985708236694;-40.5883903503418
251;1666767399.873703;46.9763703;7.1793128;58.923004150390625;1666767400.0396254;-35.240875244140625;0.5430244207382202;-40.55961608886719
252;1666767400.0825708;46.97638;7.1793007;58.90200424194336;1666767400.2484875;-34.15715789794922;0.6888168454170227;-40.708030700683594
253;1666767400.2845984;46.976389399999995;7.179289;58.88600158691406;1666767400.4602785;-32.99208068847656;0.8402900099754333;-40.783912658691406
254;1666767400.4993234;46.976398499999995;7.1792777;58.87200164794922;1666767400.6632874;-31.92287826538086;0.650954008102417;-40.742408752441406
255;1666767400.7033026;46.9764072;7.1792668;58.858001708984375;1666767400.872151;-30.691265106201172;0.7362285256385803;-40.91728591918945
256;1666767400.9102173;46.976416;7.179255899999999;58.840003967285156;1666767401.569094;-30.11029052734375;0.8761520385742188;-40.97488021850586
257;1666767401.6081328;46.9764237;7.1792462;58.823001861572266;1666767401.7740524;-31.76485252380371;0.8848382830619812;-41.037601470947266
258;1666767401.8140671;46.9764315;7.179236599999999;58.81200408935547;1666767401.9751093;-31.140056610107422;1.0271509885787964;-41.1590461730957
259;1666767402.0131736;46.976439;7.179227099999999;58.80000305175781;1666767402.1751895;-29.50959587097168;0.8603050708770752;-41.13093566894531
260;1666767402.217155;46.9764464;7.179218;58.790000915527344;1666767402.3742905;-27.440189361572266;0.7382711172103882;-41.172340393066406
261;1666767402.4113853;46.9764536;7.1792091;58.78200149536133;1666767402.7354133;-25.00701141357422;0.5988156795501709;-41.26728439331055
262;1666767402.7734785;46.976460499999995;7.1792007;58.77100372314453;1666767403.4400835;-22.35947036743164;0.587837278842926;-41.34791564941406
263;1666767403.482055;46.976467;7.1791925999999995;58.75400161743164;1666767403.6391869;-19.873416900634766;0.5645747780799866;-41.464778900146484
264;1666767403.674325;46.976473;7.1791849999999995;58.73100280761719;1666767403.8421962;-17.328460693359375;0.6187873482704163;-41.54745101928711
265;1666767403.8802578;46.9764786;7.1791779;58.708003997802734;1666767404.0510657;-14.870182991027832;0.7652739882469177;-41.66257095336914
266;1666767404.092052;46.976483699999996;7.1791715;58.685001373291016;1666767404.2462602;-12.794540405273438;0.6631404161453247;-41.72812271118164
267;1666767404.2813938;46.9764883;7.1791656999999995;58.6660041809082;1666767404.5556507;-10.848592758178711;0.506065845489502;-41.82300567626953
268;1666767404.7264497;46.9764925;7.1791605999999994;58.650001525878906;1666767404.8943229;-9.161748886108398;0.3420812785625458;-42.005130767822266
269;1666767404.9362903;46.9764961;7.179156;58.637001037597656;1666767405.0856209;-7.620699405670166;0.24786978960037231;-42.201255798339844
270;1666767405.123681;46.9764993;7.179151999999999;58.62700271606445;1666767405.2896032;-6.292351722717285;0.2475934624671936;-42.36064147949219
271;1666767405.3354743;46.9765022;7.1791484;58.625003814697266;1666767405.5101798;-5.18163537979126;0.2520616948604584;-42.48927688598633
272;1666767405.546293;46.9765046;7.1791453;58.62900161743164;1666767405.7288034;-4.19775390625;0.3768155574798584;-42.59218978881836
273;1666767405.76882;46.976506699999995;7.1791426;58.63900375366211;1666767405.953282;-3.5568747520446777;0.28422123193740845;-42.65608215332031
274;1666767405.9923215;46.9765084;7.179140299999999;58.65800094604492;1666767406.1484823;-3.065545082092285;0.27550560235977173;-42.715030670166016
275;1666767406.1836293;46.97651;7.1791382;58.676002502441406;1666767406.3612497;-2.640847682952881;0.21231144666671753;-42.78425979614258
276;1666767406.4959397;46.9765113;7.1791366;58.689002990722656;1666767406.6618595;-2.3552517890930176;0.2711167633533478;-42.84793472290039
277;1666767406.7018762;46.9765124;7.1791351;58.7030029296875;1666767406.8814566;-2.0951027870178223;0.2684057652950287;-42.88600540161133
278;1666767406.9214725;46.976513399999995;7.1791338;58.71800231933594;1666767407.1186252;-1.6833311319351196;0.39529505372047424;-42.894283294677734
279;1666767407.1576645;46.9765142;7.179132699999999;58.73400115966797;1666767407.3323696;-1.5706349611282349;0.2609454095363617;-42.794063568115234
280;1666767407.3665419;46.9765149;7.1791317999999995;58.74900436401367;1666767407.5422075;-1.4254511594772339;0.3870726227760315;-42.72592544555664
281;1666767407.5792978;46.9765155;7.179131;58.763004302978516;1666767407.8496573;-1.511728286743164;0.2026594579219818;-42.6797981262207
282;1666767407.890641;46.976516;7.1791303;58.78000259399414;1666767408.0575352;-5.116774559020996;0.3571437895298004;-45.04121780395508
283;1666767408.0897455;46.976516499999995;7.1791297;58.802001953125;1666767408.248832;-13.271172523498535;0.8404114842414856;-49.32338333129883
284;1666767408.2849438;46.976517199999996;7.1791287;58.82500457763672;1666767408.4625773;-21.728012084960938;2.3707215785980225;-50.78977584838867
285;1666767408.5055208;46.9765182;7.1791272;58.853004455566406;1666767408.6665628;-28.989866256713867;2.999704599380493;-51.1463623046875
286;1666767408.7085385;46.9765199;7.1791247;58.89600372314453;1666767408.8910394;-32.548431396484375;1.5015228986740112;-51.01352310180664
287;1666767408.9271553;46.9765223;7.1791209;58.9530029296875;1666767409.0823379;-34.358924865722656;1.7980924844741821;-50.733524322509766
288;1666767409.1233284;46.976525599999995;7.1791158;59.013004302978516;1666767409.3029146;-36.15782928466797;1.4980454444885254;-50.377479553222656
289;1666767409.3497632;46.9765295;7.1791095;59.07400131225586;1666767409.5176349;-37.810630798339844;1.245318055152893;-50.14591979980469
290;1666767409.55179;46.976534099999995;7.179101999999999;59.137001037597656;1666767409.7059984;-39.35953903198242;1.048024296760559;-49.979103088378906
291;1666767409.7411373;46.9765392;7.1790935;59.19900131225586;1666767409.9041262;-40.10296630859375;0.9072710275650024;-49.823238372802734
292;1666767409.9431674;46.9765449;7.179084;59.255001068115234;1666767410.107136;-39.58708953857422;0.6796176433563232;-49.643131256103516
293;1666767410.1461766;46.9765509;7.179073799999999;59.29600143432617;1666767410.4428787;-39.30038833618164;0.5414583086967468;-49.54981994628906
294;1666767410.4760616;46.976557299999996;7.179062999999999;59.323001861572266;1666767410.6283185;-39.221839904785156;0.43071308732032776;-49.4610481262207
295;1666767410.6634567;46.976563999999996;7.179051599999999;59.33700180053711;1666767410.832306;-39.29622268676758;0.2913523316383362;-49.36155700683594
296;1666767410.8713434;46.9765709;7.179039899999999;59.34700393676758;1666767411.6279376;-39.45058822631836;0.13917942345142365;-49.352447509765625
297;1666767411.6611254;46.9765782;7.1790274;59.35100173950195;1666767411.8260639;-39.64570236206055;0.16943562030792236;-49.392242431640625
298;1666767411.8563218;46.9765854;7.1790151;59.34800338745117;1666767412.2291546;-39.87138366699219;0.178031325340271;-49.36351776123047
299;1666767412.2672162;46.9765927;7.179002499999999;59.340003967285156;1666767412.432161;-40.100223541259766;0.12067173421382904;-49.338623046875
300;1666767412.4682765;46.9765997;7.178990199999999;59.33000183105469;1666767412.6312668;-40.3457145690918;0.07870404422283173;-49.321014404296875
301;1666767412.6712813;46.9766073;7.178977199999999;59.31700134277344;1666767412.8352473;-40.58533477783203;0.026841824874281883;-49.304832458496094
302;1666767412.8742895;46.9766149;7.178964;59.303001403808594;1666767413.640379;-40.794586181640625;-0.03933154046535492;-49.28395080566406
303;1666767413.6823158;46.9766225;7.1789508;59.288002014160156;1666767413.856073;-41.028839111328125;0.2896675169467926;-49.38520431518555
304;1666767413.8950808;46.9766304;7.1789372;59.27300262451172;1666767414.1556716;-41.23664093017578;0.05587724596261978;-49.24118423461914
305;1666767414.1888895;46.9766383;7.1789235;59.259002685546875;1666767414.3538013;-41.41525650024414;-0.11573400348424911;-49.27886962890625
306;1666767414.3889387;46.9766463;7.178909699999999;59.2400016784668;1666767414.6553855;-41.607513427734375;-0.17121605575084686;-49.33237075805664
307;1666767414.6895447;46.9766543;7.1788957;59.224002838134766;1666767414.8496485;-41.77885818481445;-0.2015775740146637;-49.33918380737305
308;1666767414.8906002;46.976662399999995;7.178881499999999;59.20700454711914;1666767415.0506668;-41.932064056396484;-0.31719592213630676;-49.31058120727539
309;1666767415.0906794;46.9766706;7.178867299999999;59.19200134277344;1666767415.2497692;-42.09211349487305;-0.4337664842605591;-49.32503128051758
310;1666767415.2858803;46.976678799999995;7.178852999999999;59.18100357055664;1666767415.451356;-42.236568450927734;-0.5527008771896362;-49.32806396484375
311;1666767415.48942;46.9766871;7.1788384;59.169002532958984;1666767415.6543615;-42.37384033203125;-0.6505345702171326;-49.337764739990234
312;1666767415.6924279;46.9766954;7.1788237;59.15800094604492;1666767415.859321;-42.50149154663086;-0.41558581590652466;-49.45384216308594
313;1666767415.8934844;46.976703799999996;7.1788088;59.14600372314453;1666767416.0564735;-42.60930633544922;0.24348358809947968;-49.49700164794922
314;1666767416.0945363;46.9767125;7.178793199999999;59.137001037597656;1666767416.2624083;-42.7337760925293;0.5744801759719849;-49.332374572753906
315;1666767416.3024244;46.976721;7.1787782;59.12900161743164;1666767416.4702992;-42.84409713745117;0.8719390630722046;-49.24090576171875
316;1666767416.5122662;46.976729299999995;7.1787636;59.125003814697266;1666767416.6674476;-42.92809295654297;1.1939904689788818;-49.15535354614258
317;1666767416.7162504;46.9767381;7.178748499999999;59.121002197265625;1666767416.8733854;-43.04179763793945;0.6782126426696777;-48.86715316772461
318;1666767416.9143763;46.9767472;7.178732699999999;59.11900329589844;1666767417.6682107;-43.13457107543945;0.4648909270763397;-48.9056510925293
319;1666767417.7140758;46.9767558;7.178718099999999;59.11600112915039;1666767417.8780446;-43.217525482177734;0.49616220593452454;-49.00748062133789
320;1666767417.9170845;46.9767648;7.1787028;59.11100387573242;1666767418.072267;-43.311004638671875;-0.1508195400238037;-48.851280212402344
321;1666767418.121074;46.9767739;7.1786875;59.10600280761719;1666767418.2811432;-42.11882400512695;-0.4121437668800354;-49.06812286376953
322;1666767418.3279915;46.976782899999996;7.178672199999999;59.09400177001953;1666767418.5026944;-38.84218978881836;-0.2715868651866913;-49.30692672729492
323;1666767418.5427096;46.976791899999995;7.178656999999999;59.07500457763672;1666767418.7183895;-36.89866638183594;0.28690993785858154;-49.42040252685547
324;1666767418.7613335;46.9768007;7.1786419;59.052001953125;1666767419.4215355;-35.26449966430664;0.43227213621139526;-49.273956298828125
325;1666767419.4556947;46.9768092;7.1786274;59.0260009765625;1666767419.633326;-33.669342041015625;0.32499241828918457;-49.15193557739258
326;1666767419.6684616;46.976817399999995;7.178613299999999;58.993003845214844;1666767420.3135417;-32.23830795288086;0.29451316595077515;-49.18475341796875
327;1666767420.3516116;46.9768256;7.1785992;58.954002380371094;1666767420.5126455;-30.861244201660156;0.21900469064712524;-49.21083450317383
328;1666767420.5526633;46.9768328;7.1785869;58.91400146484375;1666767420.7878778;-29.515827178955078;0.21247662603855133;-49.294456481933594
329;1666767420.8249664;46.976839999999996;7.1785746999999995;58.871002197265625;1666767420.9928372;-27.84090232849121;0.14308011531829834;-49.34537887573242
330;1666767421.030904;46.9768468;7.1785631;58.8280029296875;1666767421.199752;-25.983964920043945;0.14183278381824493;-49.423187255859375
331;1666767421.2339103;46.976853299999995;7.1785521;58.78600311279297;1666767421.4008064;-23.69696044921875;0.10043326020240784;-49.45707321166992
332;1666767421.4476593;46.976859399999995;7.178541699999999;58.75100326538086;1666767421.608694;-21.697511672973633;0.3325215280056;-49.5401611328125
333;1666767421.6506624;46.976865;7.178531899999999;58.715003967285156;1666767421.822438;-19.49397850036621;0.2457078993320465;-49.50813674926758
334;1666767421.8595254;46.9768702;7.1785229;58.682003021240234;1666767422.028374;-17.539995193481445;0.3829737901687622;-49.52898025512695
335;1666767422.0664394;46.976875;7.1785147;58.64900207519531;1666767422.233334;-15.661826133728027;0.49953433871269226;-49.51692581176758
336;1666767422.2792046;46.9768794;7.1785071;58.62400436401367;1666767422.4353676;-13.492921829223633;0.37464988231658936;-49.432823181152344
337;1666767422.4695256;46.9768834;7.178500199999999;58.605003356933594;1666767422.628612;-11.521655082702637;0.3599380850791931;-49.42030334472656
338;1666767422.6666765;46.976887;7.178494;58.592002868652344;1666767422.8286958;-9.783230781555176;0.36824795603752136;-49.37598419189453
339;1666767422.866757;46.9768903;7.1784886;58.583003997802734;1666767423.0463436;-8.216251373291016;0.4481968879699707;-49.31961441040039
340;1666767423.080502;46.9768931;7.178483699999999;58.583003997802734;1666767423.2581322;-6.722195148468018;0.4558604061603546;-49.2015266418457
341;1666767423.290342;46.9768956;7.1784794;58.58500289916992;1666767423.4523559;-5.559598922729492;0.5220311880111694;-49.136131286621094
342;1666767423.4894454;46.976897799999996;7.1784757;58.59300231933594;1666767423.65146;-4.522616863250732;0.6760250329971313;-49.03183364868164
343;1666767423.69148;46.9768997;7.1784723999999995;58.60400390625;1666767423.8579245;-3.632063388824463;0.7511180639266968;-48.86192321777344
344;1666767423.8969653;46.976901299999994;7.1784696;58.62000274658203;1666767424.0648375;-2.851101875305176;0.6807770729064941;-48.72746658325195
345;1666767424.1126618;46.9769028;7.1784671;58.63900375366211;1666767424.2722785;-2.355875253677368;0.6214996576309204;-48.64655303955078
346;1666767424.3161974;46.976904;7.1784652;58.65800094604492;1666767424.4791908;-2.0235207080841064;0.6773066520690918;-48.60326385498047
347;1666767424.5143292;46.976904999999995;7.178463499999999;58.68000411987305;1666767424.6763432;-1.7884039878845215;0.5716550946235657;-48.63737869262695
348;1666767424.7417336;46.9769059;7.1784621;58.70600128173828;1666767424.8910632;-1.6480988264083862;0.4081382155418396;-48.84489059448242
349;1666767424.9340088;46.9769067;7.1784609999999995;58.733001708984375;1666767425.096997;-1.4481239318847656;0.23632942140102386;-49.15815734863281
350;1666767425.1448326;46.9769073;7.178459999999999;58.755001068115234;1666767425.3009822;-1.564231038093567;0.32037562131881714;-49.30076217651367
351;1666767425.344905;46.9769079;7.1784592;58.775001525878906;1666767425.513755;-1.4830158948898315;0.1994887739419937;-49.29771423339844
352;1666767425.5527923;46.9769084;7.1784585;58.79700469970703;1666767425.7109044;-0.8854101896286011;2.858464002609253;-47.201202392578125
353;1666767425.7470133;46.9769088;7.1784577999999994;58.8280029296875;1666767425.925621;0.37219464778900146;5.865747928619385;-38.82713317871094
354;1666767425.9666133;46.976909299999996;7.1784574999999995;58.90700149536133;1666767426.1452224;-0.05787966772913933;6.37492036819458;-29.123516082763672
355;1666767426.1784074;46.976909899999995;7.1784577;59.06300354003906;1666767426.448757;-0.9589174389839172;7.213947296142578;-19.688552856445312
356;1666767426.4877963;46.976910499999995;7.178458399999999;59.275001525878906;1666767426.656644;-1.7774471044540405;7.555459022521973;-10.346034049987793
357;1666767426.702517;46.976911199999996;7.1784595;59.51700210571289;1666767426.8655102;-6.598442554473877;10.788776397705078;-1.4642776250839233
358;1666767426.906501;46.9769119;7.1784609999999995;59.77400207519531;1666767427.58357;-14.404786109924316;15.732284545898438;7.2907304763793945
359;1666767427.5943072;46.976912999999996;7.1784634;60.05600357055664;1666767427.623586;-22.580934524536133;16.48889923095703;16.212648391723633
360;1666767427.6548178;46.976914699999995;7.1784669999999995;60.37400436401367;1666767427.7533944;-29.3020076751709;10.93784236907959;26.0303897857666
361;1666767427.7836497;46.9769174;7.178472299999999;60.74100112915039;1666767427.899794;-32.36656951904297;5.6447672843933105;36.330596923828125
362;1666767427.9339535;46.9769207;7.1784783999999995;61.10600280761719;1666767428.566053;-34.55891036987305;0.3641158938407898;46.417842864990234
363;1666767428.598262;46.976925;7.1784859999999995;61.51000213623047;1666767428.7573476;-36.336647033691406;-4.199234485626221;51.04155349731445
364;1666767428.795413;46.976930499999995;7.178495099999999;61.954002380371094;1666767428.9564514;-38.12853240966797;-5.023797512054443;51.646751403808594
365;1666767428.9896355;46.9769363;7.1785044;62.36700439453125;1666767429.1497006;-39.226200103759766;-4.048396587371826;51.19564437866211
366;1666767429.1897168;46.9769432;7.1785147;62.775001525878906;1666767429.3473701;-38.52044677734375;-3.2348668575286865;50.5622444152832
367;1666767429.3873851;46.976950599999995;7.1785258999999995;63.17000198364258;1666767429.5533085;-38.11187744140625;-2.8311686515808105;49.86501693725586
368;1666767429.587466;46.9769584;7.1785377;63.55400466918945;1666767429.8490407;-38.05228805541992;-2.516770362854004;49.23434066772461
369;1666767429.8880727;46.976966499999996;7.178549899999999;63.9170036315918;1666767430.064731;-38.18220520019531;-2.2320683002471924;48.69520568847656
370;1666767430.1049528;46.976974899999995;7.1785624;64.25700378417969;1666767430.2601395;-38.412174224853516;-1.8442137241363525;48.17854309082031
371;1666767430.2972264;46.976983399999995;7.1785749999999995;64.57100677490234;1666767430.468024;-38.69283676147461;-1.6288524866104126;47.81441116333008
372;1666767430.5138967;46.9769921;7.1785878;64.86199951171875;1666767430.6768894;-38.97821807861328;-1.728345513343811;47.47775650024414
373;1666767430.713004;46.9770009;7.178600599999999;65.12200164794922;1666767430.8623302;-39.2813835144043;-1.3406614065170288;47.04084396362305
374;1666767430.8955123;46.977009699999996;7.1786135;65.35800170898438;1666767431.0643601;-39.59358596801758;-1.2338571548461914;46.814117431640625
375;1666767431.1014476;46.9770186;7.178626599999999;65.57500457763672;1666767431.270298;-39.87818145751953;-1.1578224897384644;46.540950775146484
376;1666767431.3093388;46.9770276;7.1786397;65.77300262451172;1666767431.4791603;-40.166961669921875;-1.059198260307312;46.267337799072266
377;1666767431.5142987;46.9770367;7.1786528999999994;65.9540023803711;1666767431.6899776;-40.430179595947266;-0.9401471018791199;46.02860641479492
378;1666767431.7251143;46.9770459;7.1786661;66.11400604248047;1666767431.9037206;-40.692134857177734;-0.7929006218910217;45.81846618652344
379;1666767431.94081;46.977055199999995;7.1786794;66.25900268554688;1666767432.0901356;-40.93794250488281;-0.6082781553268433;45.63641357421875
380;1666767432.125272;46.9770646;7.1786927;66.39500427246094;1666767432.2941222;-41.13908004760742;-0.6667797565460205;45.54846954345703
381;1666767432.3302336;46.977073999999995;7.1787062;66.52100372314453;1666767432.4981055;-41.3558349609375;-0.7612579464912415;45.417015075683594
382;1666767432.7100475;46.9770835;7.1787198;66.64200592041016;1666767432.8730407;-41.558067321777344;-0.39138737320899963;45.11185073852539
383;1666767432.9315994;46.9770931;7.1787335;66.76100158691406;1666767433.093617;-41.74052810668945;0.8480635285377502;44.820091247558594
384;1666767433.1365616;46.977102699999996;7.1787472;66.87300109863281;1666767433.3034585;-41.91594314575195;0.9018083810806274;45.1961669921875
385;1666767433.365923;46.977112299999995;7.178761199999999;66.97600555419922;1666767433.528013;-40.41104507446289;-0.6275252103805542;45.526824951171875
386;1666767433.5670536;46.977122;7.178775099999999;67.06999969482422;1666767433.726142;-37.429317474365234;-0.8483936786651611;44.95057678222656
387;1666767433.7632365;46.9771316;7.1787889;67.1550064086914;1666767433.931099;-35.943931579589844;0.18939636647701263;44.53605270385742
388;1666767433.9662368;46.9771411;7.1788025;67.24000549316406;1666767434.1350844;-34.15208435058594;0.3216603100299835;44.74958801269531
389;1666767434.169244;46.977150599999995;7.1788162;67.31800079345703;1666767434.8144495;-32.379085540771484;0.17947378754615784;44.86390686035156
390;1666767434.8554418;46.977159199999996;7.1788285;67.38500213623047;1666767435.0203876;-30.76743507385254;0.17180608212947845;44.84872817993164
391;1666767435.0682104;46.9771681;7.178841299999999;67.45700073242188;1666767435.2331543;-29.324113845825195;0.26182734966278076;44.78998565673828
392;1666767435.2761016;46.9771759;7.178852399999999;67.52000427246094;1666767435.4420292;-27.88802719116211;0.3163204789161682;44.77336120605469
393;1666767435.4800804;46.9771837;7.1788636;67.58300018310547;1666767435.6342916;-26.01022720336914;0.166660338640213;44.76569747924805
394;1666767435.674305;46.977191;7.1788742999999995;67.64400482177734;1666767435.8529146;-24.011259078979492;0.06562016159296036;44.672061920166016
395;1666767435.8870726;46.977198;7.178884399999999;67.7040023803711;1666767436.0481145;-21.98039436340332;0.0801384374499321;44.577091217041016
396;1666767436.0871549;46.9772045;7.1788937;67.76399993896484;1666767436.2482378;-19.97165870666504;0.15921062231063843;44.49042892456055
397;1666767436.298989;46.9772106;7.178902399999999;67.81999969482422;1666767436.4531991;-18.029645919799805;0.21812660992145538;44.44874954223633
398;1666767436.4922369;46.9772162;7.1789105;67.87700653076172;1666767436.6874378;-16.105907440185547;0.1670203059911728;44.43358612060547
399;1666767436.7186682;46.9772214;7.1789178;67.9330062866211;1666767436.8845901;-14.298171043395996;0.219876229763031;44.40568542480469
400;1666767436.9236298;46.977226099999996;7.1789245;67.98400115966797;1666767437.085644;-12.456571578979492;0.2324390411376953;44.388450622558594
401;1666767437.1207802;46.9772305;7.1789308;68.0320053100586;1666767437.2779174;-10.691452026367188;0.18173597753047943;44.364994049072266
402;1666767437.3159833;46.9772342;7.1789361;68.0770034790039;1666767437.501422;-9.08509635925293;0.20274005830287933;44.33004379272461
403;1666767437.5443661;46.977237599999995;7.178941;68.1240005493164;1666767437.7034512;-7.683879375457764;0.08696550875902176;44.31075668334961
404;1666767437.743474;46.977240699999996;7.1789453;68.17300415039062;1666767437.903534;-6.404195308685303;0.09947197139263153;44.29819869995117
405;1666767437.9425733;46.9772434;7.1789491;68.2229995727539;1666767438.1123986;-5.311426639556885;0.13169367611408234;44.33877182006836
406;1666767438.1504598;46.9772458;7.1789524;68.2760009765625;1666767438.3183308;-4.376142501831055;0.2395298182964325;44.43146896362305
407;1666767438.3573718;46.9772478;7.1789552;68.33000183105469;1666767438.52915;-3.6744844913482666;0.3374641239643097;44.60256576538086
408;1666767438.5623314;46.9772496;7.1789577;68.38200378417969;1666767438.71947;-3.0582668781280518;0.41027992963790894;44.86614227294922
409;1666767438.7575321;46.9772512;7.1789597999999994;68.43000030517578;1666767438.930283;-2.5095293521881104;0.4059465229511261;45.17474365234375
410;1666767438.9712756;46.9772525;7.1789616;68.47200012207031;1666767439.1498857;-2.096339464187622;0.3541408181190491;45.458961486816406
411;1666767439.1869707;46.9772536;7.1789632;68.51200103759766;1666767439.352892;-1.7835205793380737;0.22659704089164734;45.64414978027344
412;1666767439.3899798;46.977254599999995;7.1789646;68.55000305175781;1666767439.5549228;-1.568947672843933;0.1474572718143463;45.73468780517578
413;1666767439.5978673;46.9772554;7.178965799999999;68.58200073242188;1666767439.7526796;-1.4696462154388428;0.12692664563655853;45.831050872802734
414;1666767440.2863863;46.9772561;7.178966699999999;68.61500549316406;1666767440.8459802;-1.244247317314148;0.210002601146698;45.840335845947266
415;1666767440.8811166;46.9772567;7.1789676;68.6520004272461;1666767441.0607035;-1.1614830493927002;0.2043476402759552;45.82936096191406
416;1666767441.0968158;46.9772573;7.178968299999999;68.68600463867188;1666767441.2588313;-0.47824203968048096;4.346277713775635;49.041019439697266
417;1666767441.2998202;46.977257699999996;7.1789689999999995;68.72100067138672;1666767441.471598;2.277261734008789;9.753204345703125;57.46950149536133
