;pos_time;latitude;longitude;altitude;alt_time;pitch;roll;yaw
0;1666767069.6189287;46.9755343;7.1803558;-0.06400000303983688;1666767069.6238093;-0.34187066555023193;-0.19602951407432556;90.5333251953125
1;1666767069.8590226;46.9755343;7.1803558;-0.0650000050663948;1666767069.8609755;-0.2906622886657715;-0.403193861246109;90.58677673339844
2;1666767070.1244946;46.9755343;7.1803558;-0.06200000271201134;1666767070.1274228;-0.28717586398124695;-0.32063260674476624;90.55369567871094
3;1666767070.3489761;46.9755343;7.1803558999999995;-0.06400000303983688;1666767070.352881;-0.27038684487342834;-0.38774555921554565;90.58196258544922
4;1666767070.558818;46.9755343;7.1803558999999995;-0.06599999964237213;1666767070.5666237;-0.22286413609981537;-0.3276422619819641;90.44155883789062
5;1666767070.7676818;46.9755343;7.1803558999999995;-0.0650000050663948;1666767070.7725601;-0.271358460187912;-0.18406827747821808;90.40242004394531
6;1666767071.0673132;46.9755343;7.1803558999999995;-0.06599999964237213;1666767071.0702412;-0.3186550736427307;-0.2515750527381897;90.43458557128906
7;1666767071.2742229;46.9755343;7.1803558999999995;-0.06700000166893005;1666767071.2771516;-0.32756534218788147;-0.3083736002445221;90.49972534179688
8;1666767071.48211;46.9755343;7.1803558999999995;-0.06700000166893005;1666767071.488943;-0.30793794989585876;-0.22472108900547028;90.45736694335938
9;1666767071.7046387;46.9755343;7.1803558999999995;-0.06800000369548798;1666767071.7065923;-0.35162314772605896;-0.4441221356391907;90.53218078613281
10;1666767071.913515;46.9755343;7.1803558;-0.07300000637769699;1666767071.9164312;-0.3566679060459137;-0.41912609338760376;90.50993347167969
11;1666767072.1184635;46.9755343;7.1803557;-0.07600000500679016;1666767072.1204147;-0.18367893993854523;-0.41362813115119934;90.59024047851562
12;1666767072.3322048;46.9755344;7.1803557;-0.07800000160932541;1666767072.336111;-0.30520206689834595;-0.3835815191268921;90.51812744140625
13;1666767072.5927963;46.9755344;7.1803557;0.0;1666767072.595727;-0.46679580211639404;-0.37672024965286255;90.56819915771484
14;1666767073.0959451;46.9755344;7.1803557;0.0;1666767073.0998478;-0.3639780580997467;-0.3377520442008972;90.5742416381836
15;1666767073.3643467;46.9755344;7.1803558;-0.0020000000949949026;1666767073.3662968;-0.29409974813461304;-0.24886323511600494;90.46235656738281
16;1666767073.6112704;46.9755344;7.1803557;-0.007000000216066837;1666767073.6151772;-0.37289077043533325;-0.3984680771827698;90.64265441894531
17;1666767073.8133132;46.9755344;7.1803557;-0.01100000087171793;1666767073.8181865;-0.2864709198474884;-0.3263241648674011;90.5539321899414
18;1666767074.0329027;46.9755344;7.1803557;-0.017000000923871994;1666767074.0358307;-0.15158095955848694;-0.25060808658599854;90.54524230957031
19;1666767074.2368882;46.9755344;7.1803557;-0.024000000208616257;1666767074.2398143;-0.3412218987941742;-0.41052383184432983;90.65452575683594
20;1666767074.4496543;46.9755344;7.1803557;-0.029000001028180122;1666767074.452583;-0.3336147964000702;-0.2853655219078064;90.47869110107422
21;1666767074.659043;46.9755344;7.1803558;0.0;1666767074.6629455;-0.2733604609966278;-0.40505021810531616;90.58599853515625
22;1666767074.9088964;46.9755344;7.1803558;-0.003000000026077032;1666767074.9108486;-0.2454955279827118;-0.21786950528621674;90.49285125732422
23;1666767075.114834;46.9755344;7.1803557;-0.00800000037997961;1666767075.118738;-0.302236944437027;-0.35611748695373535;90.54839324951172
24;1666767075.3237388;46.9755344;7.1803557;-0.007000000216066837;1666767075.3286173;-0.21357589960098267;-0.3155517876148224;90.63299560546875
25;1666767075.5413861;46.9755344;7.1803557;-0.006000000052154064;1666767075.5501704;-0.18916592001914978;-0.3621487617492676;90.60325622558594
26;1666767075.7600083;46.9755344;7.1803557;-0.006000000052154064;1666767075.768796;-0.10442891716957092;-0.31941211223602295;90.60649871826172
27;1666767075.9835148;46.9755343;7.1803557;-0.005000000353902578;1666767075.9854672;-0.10561186820268631;-0.3145124018192291;90.49736022949219
28;1666767076.225564;46.9755343;7.1803557;-0.006000000052154064;1666767076.2304409;-0.26806652545928955;-0.549884021282196;90.45947265625
29;1666767076.4422324;46.9755343;7.1803557;-0.0020000000949949026;1666767076.449065;0.11821458488702774;0.2952057719230652;90.2638168334961
30;1666767076.6813848;46.9755343;7.1803557;0.023000001907348633;1666767076.685288;-0.0967080220580101;0.17310895025730133;90.2958984375
31;1666767076.8871872;46.9755343;7.1803557;0.07500000298023224;1666767076.8901114;-0.22874809801578522;-0.07894566655158997;90.28777313232422
32;1666767077.1267824;46.9755342;7.1803557;0.15400001406669617;1666767077.131665;-0.3085627555847168;-0.2856772840023041;90.29544067382812
33;1666767077.3493624;46.9755341;7.1803558;0.26500001549720764;1666767077.3522892;-0.2834223806858063;-0.49869951605796814;90.3125228881836
34;1666767077.549441;46.9755341;7.1803558;0.41700002551078796;1666767077.5572503;-0.3007194399833679;-0.537390410900116;90.32269287109375
35;1666767077.7700186;46.9755341;7.1803558;0.5910000205039978;1666767077.7709956;-0.3841857612133026;-0.39496463537216187;90.33143615722656
36;1666767077.9798598;46.9755341;7.1803558999999995;0.7890000343322754;1666767077.9837627;-0.3343654274940491;-0.4334739148616791;90.36077880859375
37;1666767078.1838453;46.9755341;7.1803558999999995;1.0099999904632568;1666767078.1877456;-0.20137758553028107;-0.38328418135643005;90.37311553955078
38;1666767078.3858726;46.9755341;7.180356;1.253000020980835;1666767078.434674;-0.1976802498102188;-0.35544413328170776;90.36534118652344
39;1666767078.6142561;46.9755341;7.1803561;1.5190000534057617;1666767078.6171844;-0.16196858882904053;-0.3352825343608856;90.24921417236328
40;1666767079.0007532;46.9755342;7.180356199999999;1.8050000667572021;1666767079.006608;-0.1442657858133316;-0.3265339732170105;90.3084487915039
41;1666767079.1940022;46.9755342;7.180356199999999;2.0870001316070557;1666767079.1988823;-0.08363252878189087;-0.43644657731056213;90.36952209472656
42;1666767079.386272;46.9755342;7.180356199999999;2.369000196456909;1666767079.3901768;-0.1450866311788559;-0.41800037026405334;90.42803192138672
43;1666767079.5931847;46.9755342;7.180356199999999;2.6560001373291016;1666767079.599043;-0.2084464579820633;-0.3871147632598877;90.45773315429688
44;1666767079.803025;46.9755342;7.180356199999999;2.946000099182129;1666767079.80693;-0.12619441747665405;-0.44266873598098755;90.52057647705078
45;1666767080.0148172;46.9755342;7.1803563;3.2360000610351562;1666767080.017746;0.03335197642445564;-0.5219475030899048;90.56969451904297
46;1666767080.2275848;46.9755342;7.1803563;3.5270001888275146;1666767080.230511;0.0909617468714714;-0.6413105726242065;90.54766082763672
47;1666767080.4325423;46.9755342;7.1803563;3.817000150680542;1666767080.4364467;0.09177923202514648;-0.610688328742981;90.51008605957031
48;1666767080.631648;46.9755342;7.180356199999999;4.109000205993652;1666767080.6355524;0.06166591867804527;-0.5345550775527954;90.55254364013672
49;1666767080.8434386;46.9755343;7.180356199999999;4.403000354766846;1666767080.84637;0.057250916957855225;-0.5641146898269653;90.55687713623047
50;1666767081.052338;46.9755344;7.1803561;4.700000286102295;1666767081.056208;-0.037761714309453964;-0.3108828663825989;90.54071044921875
51;1666767081.27483;46.975534499999995;7.1803561;4.999000072479248;1666767081.2787347;0.02513143979012966;-0.15726648271083832;90.54571533203125
52;1666767081.4710083;46.975534599999996;7.1803561;5.297000408172607;1666767081.474913;0.006681862287223339;-0.056953102350234985;90.5068359375
53;1666767081.6701097;46.975534599999996;7.180356;5.5960001945495605;1666767081.674016;0.032888513058423996;0.0004961426020599902;90.48567962646484
54;1666767081.8828788;46.9755347;7.180356;5.901000499725342;1666767081.8877585;0.08157911151647568;0.05052458867430687;90.50394439697266
55;1666767082.1083348;46.9755347;7.180356;6.206000328063965;1666767082.1122406;0.061698656529188156;0.08003971725702286;90.52642822265625
56;1666767082.3006065;46.9755347;7.1803558999999995;6.51300048828125;1666767082.3045113;-0.06468325108289719;-0.029204953461885452;90.5048828125
57;1666767082.5182562;46.975534599999996;7.1803558;6.824000358581543;1666767082.5211816;-0.21690906584262848;-0.1609819531440735;90.489013671875
58;1666767083.7126238;46.975534599999996;7.1803558;7.139000415802002;1666767083.7155526;-0.06141526252031326;-0.14720076322555542;90.5025405883789
59;1666767083.887025;46.975534599999996;7.1803558;7.454000473022461;1666767083.888977;-0.017723258584737778;-0.23043861985206604;90.52465057373047
60;1666767084.0314763;46.975534499999995;7.1803558;7.766000270843506;1666767084.0344033;-0.050249598920345306;-0.21668250858783722;90.5290298461914
61;1666767084.2705944;46.975534499999995;7.1803558;8.077000617980957;1666767084.2725456;-0.024805352091789246;-0.16735303401947021;90.49507904052734
62;1666767084.4501786;46.975534599999996;7.1803558;8.392000198364258;1666767084.4540846;-0.09449838101863861;-0.1235460564494133;90.52165985107422
63;1666767084.6428664;46.975534599999996;7.1803557;8.709000587463379;1666767084.6457915;-0.12067421525716782;-0.07592182606458664;90.52786254882812
64;1666767084.8488033;46.975534599999996;7.1803557;9.029000282287598;1666767084.8517313;-0.3406519293785095;-0.02374701201915741;90.51960754394531
65;1666767085.0361948;46.975534599999996;7.1803555999999995;9.348000526428223;1666767085.039123;-0.3344714939594269;-0.04109090566635132;90.51717376708984
66;1666767085.3455875;46.975534599999996;7.1803555999999995;9.665000915527344;1666767085.351443;-0.2512413561344147;-0.08060876280069351;90.52507019042969
67;1666767085.5667415;46.975534599999996;7.1803557;9.979000091552734;1666767085.5696685;-0.3002408444881439;-0.17236535251140594;90.5251693725586
68;1666767085.8229606;46.975534599999996;7.1803557;10.29900074005127;1666767085.8268652;-0.25601452589035034;-0.15697398781776428;90.51777648925781
69;1666767086.563744;46.975534599999996;7.1803558;10.655000686645508;1666767086.5373921;-0.06188585236668587;-0.10318884998559952;90.51290130615234
70;1666767086.7960339;46.975534599999996;7.1803558999999995;11.075000762939453;1666767086.8048205;0.014947747811675072;-0.0669553205370903;90.51805877685547
71;1666767087.0136833;46.975534599999996;7.1803558999999995;11.583000183105469;1666767087.017587;-0.07118135690689087;-0.07809565216302872;90.52611541748047
72;1666767087.2284002;46.975534599999996;7.1803558999999995;12.1510009765625;1666767087.2313287;-0.15623755753040314;-0.15479809045791626;90.52229309082031
73;1666767087.453855;46.975534599999996;7.180356;12.735000610351562;1666767087.454832;-0.07587049156427383;-0.13571688532829285;90.49880981445312
74;1666767087.6627195;46.975534499999995;7.180356;13.312000274658203;1666767087.666624;-0.09680090099573135;-0.18348121643066406;90.48706817626953
75;1666767087.9106233;46.975534499999995;7.180356;13.88800048828125;1666767087.9320965;-0.013138518668711185;-0.11222103238105774;90.49593353271484
76;1666767088.1580648;46.975534599999996;7.1803561;14.470000267028809;1666767088.1678247;0.07764417678117752;-0.08207990974187851;90.48628234863281
77;1666767088.3869696;46.975534499999995;7.1803561;15.055000305175781;1666767088.3937984;0.10792627185583115;-0.15941867232322693;90.50708770751953
78;1666767088.6338959;46.975534499999995;7.1803561;15.642001152038574;1666767088.6407273;0.022428832948207855;-0.20556248724460602;90.4990005493164
79;1666767088.9481654;46.975534499999995;7.1803561;16.231000900268555;1666767088.968661;-0.012819917872548103;-0.3125465512275696;90.5022201538086
80;1666767089.2419443;46.975534499999995;7.1803561;16.819000244140625;1666767089.2546299;-0.12390583008527756;-0.3045973777770996;90.51376342773438
81;1666767089.5005808;46.975534499999995;7.180356;17.411001205444336;1666767089.5044851;-0.04717645421624184;-0.22919829189777374;90.52501678466797
82;1666767089.7514124;46.975534599999996;7.180356;18.005001068115234;1666767089.7601974;-0.06571680307388306;-0.09637809544801712;90.53182983398438
83;1666767089.9461534;46.975534599999996;7.180356;18.60300064086914;1666767089.9529855;-0.1027514785528183;-0.06948360055685043;90.53160095214844
84;1666767090.244347;46.975534599999996;7.180356;19.203001022338867;1666767090.2472758;-0.040072664618492126;-0.13832205533981323;90.53114318847656
85;1666767090.8016448;46.9755347;7.1803561;19.802000045776367;1666767090.8123782;0.057390689849853516;-0.06116197258234024;90.52677917480469
86;1666767091.011484;46.9755347;7.1803561;20.397001266479492;1666767091.015386;-0.03102313168346882;-0.11221128702163696;90.5246353149414
87;1666767091.2330363;46.9755347;7.1803561;20.9950008392334;1666767091.2486498;-0.09195428341627121;-0.0579187348484993;90.52554321289062
88;1666767091.484844;46.9755347;7.180356;21.588001251220703;1666767091.4877703;-0.07170089334249496;-0.03690427914261818;90.51872253417969
89;1666767091.7171304;46.9755347;7.1803561;22.179000854492188;1666767091.720058;-0.004415263421833515;0.10056863725185394;90.52212524414062
90;1666767091.9382212;46.9755347;7.1803561;22.769001007080078;1666767091.9421253;-0.006329868920147419;0.04170528054237366;90.51761627197266
91;1666767092.143185;46.9755347;7.180356199999999;23.360000610351562;1666767092.1451347;0.11234549432992935;0.04769390448927879;90.50760650634766
92;1666767092.3452778;46.9755347;7.180356199999999;23.951000213623047;1666767092.350157;0.0393107607960701;0.12566983699798584;90.5091323852539
93;1666767092.5707328;46.9755347;7.1803561;24.540000915527344;1666767092.5756128;-0.021203337237238884;0.08159399032592773;90.51611328125
94;1666767092.7854562;46.9755347;7.1803561;25.12900161743164;1666767092.7883832;-0.09035700559616089;-0.020755533128976822;90.51685333251953
95;1666767093.0138373;46.9755347;7.1803561;25.716001510620117;1666767093.0157943;-0.002061649691313505;0.04215462505817413;90.50889587402344
96;1666767093.7155852;46.9755347;7.1803561;26.303001403808594;1666767093.719483;0.07413300126791;0.049957383424043655;90.4990463256836
97;1666767093.9156587;46.9755347;7.1803561;26.89000129699707;1666767093.9205396;-0.034511320292949677;0.028316939249634743;90.51062774658203
98;1666767094.1469712;46.975534599999996;7.1803561;27.472002029418945;1666767094.1489239;-0.115374855697155;-0.018764551728963852;90.52009582519531
99;1666767094.3880434;46.975534599999996;7.1803561;28.058000564575195;1666767094.394877;-0.14882349967956543;0.03707432001829147;90.51254272460938
100;1666767094.7472143;46.975534599999996;7.1803561;28.6460018157959;1666767094.7530692;-0.07882195711135864;0.07041493058204651;90.50057983398438
101;1666767094.9541254;46.975534599999996;7.1803561;29.23400115966797;1666767094.9599805;-0.10802458226680756;0.0632815882563591;90.50752258300781
102;1666767095.1620102;46.975534599999996;7.180356199999999;29.823001861572266;1666767095.1659138;-0.07312227040529251;0.10603077709674835;90.51315307617188
103;1666767095.3840866;46.975534599999996;7.1803563;30.417001724243164;1666767095.38995;-0.028210613876581192;0.08290540426969528;90.51847076416016
104;1666767095.58918;46.975534599999996;7.1803563;31.009000778198242;1666767095.5921087;0.03448095917701721;-0.04419425129890442;90.51031494140625
105;1666767095.8063865;46.975534599999996;7.1803563;31.59600067138672;1666767095.810292;-0.03801364824175835;-0.04110594466328621;90.50428771972656
106;1666767096.0289145;46.975534599999996;7.1803563;32.18400192260742;1666767096.0367222;-0.04150160774588585;-0.034674592316150665;90.50279235839844
107;1666767096.2787707;46.975534499999995;7.1803564;32.772003173828125;1666767096.2836504;-0.012651987373828888;-0.10683782398700714;90.51640319824219
108;1666767096.5335088;46.975534499999995;7.1803564;33.36000061035156;1666767096.5354612;-0.01728280819952488;-0.11796046793460846;90.50621032714844
109;1666767096.7452977;46.975534499999995;7.1803564;33.948001861572266;1666767096.7550592;0.07644066214561462;-0.1451367288827896;90.51212310791016
110;1666767096.9551408;46.975534499999995;7.1803564;34.53300094604492;1666767096.960994;0.03955277055501938;-0.10122165828943253;90.50824737548828
111;1666767097.1532676;46.975534499999995;7.1803563;35.11900329589844;1666767097.1591237;-0.0846630111336708;-0.1972324550151825;90.50607299804688
112;1666767097.5690947;46.975534499999995;7.1803563;35.70900344848633;1666767097.5729966;-0.06801848113536835;-0.22516699135303497;90.50353240966797
113;1666767097.7789314;46.975534599999996;7.1803564;36.297000885009766;1666767097.7847877;-0.05648404732346535;-0.11100130528211594;90.51087188720703
114;1666767098.10882;46.975534599999996;7.1803564;36.88300323486328;1666767098.1195567;0.03960179165005684;-0.08749650418758392;90.52684783935547
115;1666767098.3352644;46.9755347;7.180356499999999;37.46900177001953;1666767098.3381915;0.1004854142665863;0.06595823168754578;90.50923919677734
116;1666767098.5372977;46.9755347;7.180356499999999;38.047000885009766;1666767098.546383;0.08610265702009201;0.1477796733379364;90.52467346191406
117;1666767098.7435348;46.9755347;7.1803564;38.62600326538086;1666767098.7493927;-0.03219455108046532;0.015104232355952263;90.51416778564453
118;1666767098.9348302;46.9755348;7.180356499999999;39.21000289916992;1666767098.947061;-0.009077508002519608;0.08807223290205002;90.51131439208984
119;1666767099.1461625;46.9755348;7.180356499999999;39.79600143432617;1666767099.150068;0.06229110807180405;0.0968954861164093;90.52843475341797
120;1666767099.3765008;46.9755348;7.180356499999999;40.37900161743164;1666767099.380405;0.0909804180264473;0.18832626938819885;90.5368881225586
121;1666767099.7415226;46.9755348;7.180356499999999;40.96000289916992;1666767099.7434742;0.09061377495527267;0.24445600807666779;90.5407485961914
122;1666767099.9064674;46.9755348;7.180356499999999;41.53700256347656;1666767099.9181783;0.12427273392677307;0.1767885982990265;90.52987670898438
123;1666767100.0967894;46.9755347;7.1803564;42.11300277709961;1666767100.0997145;0.016586054116487503;-0.028143148869276047;90.5327377319336
124;1666767100.2919867;46.9755347;7.1803564;42.69200134277344;1666767100.2949145;0.03690600395202637;-0.048086490482091904;90.52871704101562
125;1666767100.474507;46.9755347;7.1803563;43.27300262451172;1666767100.4803586;0.01644170470535755;0.0282937902957201;90.52438354492188
126;1666767100.6687212;46.9755347;7.1803563;43.85400390625;1666767100.6950736;0.05309222638607025;0.05810694396495819;90.5323715209961
127;1666767100.8814895;46.9755347;7.1803563;44.4370002746582;1666767100.8844182;0.031223520636558533;0.09535319358110428;90.52191162109375
128;1666767101.0864537;46.9755347;7.1803563;45.01700210571289;1666767101.0903544;0.057030122727155685;-0.003506286535412073;90.52403259277344
129;1666767101.2933662;46.975534599999996;7.180356199999999;45.59600067138672;1666767101.2953131;0.025190256536006927;-0.10296768695116043;90.53083801269531
130;1666767101.511596;46.9755347;7.180356199999999;46.18000030517578;1666767101.51843;-0.024411791935563087;0.04483996331691742;90.51594543457031
131;1666767101.7253418;46.9755347;7.180356199999999;46.7660026550293;1666767101.7292433;-0.05892999470233917;0.0784185454249382;90.53528594970703
132;1666767101.9459145;46.9755347;7.180356199999999;47.35400390625;1666767101.9527464;0.04426666349172592;0.02442915551364422;90.52555847167969
133;1666767102.1631093;46.9755347;7.180356199999999;47.941001892089844;1666767102.1670134;0.06399819999933243;0.10759816318750381;90.52769470214844
134;1666767102.3710032;46.9755347;7.1803561;48.527000427246094;1666767102.3749034;0.02932848408818245;0.035622239112854004;90.52899932861328
135;1666767102.583765;46.9755347;7.1803561;49.10700225830078;1666767102.5925493;-0.020920518785715103;0.07666861265897751;90.53901672363281
136;1666767102.8141057;46.9755347;7.1803561;49.68600082397461;1666767102.8228855;-0.05486803129315376;0.0525217242538929;90.5378646850586
137;1666767103.0288217;46.9755347;7.180356;50.27100372314453;1666767103.0317495;-0.13481689989566803;0.054106779396533966;90.53755187988281
138;1666767103.2269492;46.9755347;7.180356;50.86100387573242;1666767103.2298791;-0.04236583039164543;0.0712052434682846;90.5264663696289
139;1666767103.419221;46.9755347;7.180356;51.44900131225586;1666767103.424101;-0.07738478481769562;0.09497051686048508;90.51693725585938
140;1666767103.6144226;46.9755347;7.180356;52.03600311279297;1666767103.6173508;-0.10651730746030807;0.08359391987323761;90.5118637084961
141;1666767103.823286;46.9755347;7.1803558999999995;52.6150016784668;1666767103.825237;-0.2084643840789795;0.15545934438705444;90.5235366821289
142;1666767104.021417;46.9755347;7.1803558999999995;53.163002014160156;1666767104.02434;-0.30923065543174744;0.0824672132730484;90.52523803710938
143;1666767104.260532;46.975534599999996;7.1803558;53.669002532958984;1666767104.248825;-0.262606680393219;0.012337598949670792;90.5198974609375
144;1666767104.4489024;46.9755347;7.1803558;54.14400100708008;1666767104.4528053;-0.22834430634975433;0.05342479050159454;90.51990509033203
145;1666767104.6587424;46.9755347;7.1803558;54.58700180053711;1666767104.662646;-0.24870413541793823;0.13234727084636688;90.5398941040039
146;1666767104.8890777;46.9755347;7.1803558;54.99800109863281;1666767104.892006;-0.20628666877746582;0.19620008766651154;90.52763366699219
147;1666767105.111603;46.9755347;7.1803558;55.37400436401367;1666767105.1145318;-0.1660497784614563;0.14018933475017548;90.53173828125
148;1666767105.3248632;46.9755347;7.1803558;55.71900177001953;1666767105.3268073;-0.1504301130771637;0.1589699387550354;90.51640319824219
149;1666767105.5346982;46.975534599999996;7.1803558;56.03400421142578;1666767105.5386014;-0.15436077117919922;0.07144252210855484;90.5285415649414
150;1666767105.749418;46.975534599999996;7.1803558999999995;56.32600402832031;1666767105.7582014;-0.16353166103363037;0.0953250527381897;90.52230834960938
151;1666767105.953401;46.975534599999996;7.1803558999999995;56.59300231933594;1666767105.957304;-0.15159428119659424;0.13563518226146698;90.52960205078125
152;1666767106.1612864;46.975534599999996;7.1803558999999995;56.83400344848633;1666767106.164215;-0.12053416669368744;0.09062105417251587;90.52208709716797
153;1666767106.348914;46.975534599999996;7.1803558;57.05000305175781;1666767106.353796;-0.221488356590271;0.033840589225292206;90.51535034179688
154;1666767106.547042;46.975534499999995;7.1803558;57.246002197265625;1666767106.5519214;-0.20237192511558533;-0.0509612075984478;90.52950286865234
155;1666767106.7588308;46.975534499999995;7.1803558;57.42100143432617;1666767106.7617588;-0.23823677003383636;-0.048117347061634064;90.51760864257812
156;1666767106.9637926;46.975534499999995;7.1803558;57.583003997802734;1666767106.9725754;-0.18337692320346832;0.0009249616414308548;90.52655029296875
157;1666767107.1892467;46.975534499999995;7.1803558;57.73400115966797;1666767107.1931524;-0.1471167504787445;0.08651378005743027;90.52286529541016
158;1666767107.3854322;46.975534499999995;7.1803558999999995;57.87000274658203;1666767107.3873756;-0.1721937209367752;0.06880871951580048;90.52555847167969
159;1666767107.7143345;46.975534499999995;7.1803558999999995;57.99100112915039;1666767107.7172668;-0.1182698979973793;0.15070274472236633;90.53205871582031
160;1666767107.9163685;46.975534499999995;7.1803558999999995;58.10200119018555;1666767107.922223;-0.10331401973962784;0.16223859786987305;90.53630065917969
161;1666767108.1252327;46.975534499999995;7.1803558999999995;58.19600296020508;1666767108.1291351;-0.0804271548986435;0.1948452889919281;90.53793334960938
162;1666767108.3311665;46.975534499999995;7.1803558999999995;58.275001525878906;1666767108.3350706;-0.008111859671771526;0.08418276160955429;90.4362564086914
163;1666767108.5351603;46.975534599999996;7.1803558;58.36300277709961;1666767108.538082;4.194204807281494;-4.626150131225586;85.48165130615234
164;1666767108.7362058;46.9755348;7.1803555;58.44700241088867;1666767108.7401123;7.942472457885742;-11.419824600219727;76.4166259765625
165;1666767109.4184291;46.9755355;7.1803544;58.52900314331055;1666767109.422337;9.039542198181152;-19.33575439453125;66.5884017944336
166;1666767109.6312003;46.9755368;7.1803523;58.6140022277832;1666767109.6370547;5.315236568450928;-25.642845153808594;57.86543273925781
167;1666767109.83323;46.9755389;7.180349199999999;58.698001861572266;1666767109.8371384;0.6331867575645447;-28.223966598510742;49.152339935302734
168;1666767110.0381887;46.9755417;7.180345;58.7760009765625;1666767110.0411177;-4.695054054260254;-29.837413787841797;40.05704879760742
169;1666767110.2421758;46.9755452;7.180339999999999;58.853004455566406;1666767110.245103;-10.579207420349121;-30.471593856811523;31.240856170654297
170;1666767110.4403005;46.9755494;7.1803341;58.92500305175781;1666767110.444212;-16.81849479675293;-29.82345962524414;21.989055633544922
171;1666767110.6374521;46.9755541;7.1803275;58.98500442504883;1666767110.6423347;-22.978328704833984;-27.69111442565918;12.236912727355957
172;1666767110.8316798;46.975559499999996;7.180320099999999;59.03300094604492;1666767110.8355823;-28.425174713134766;-24.44465446472168;2.5953128337860107
173;1666767111.0298042;46.9755654;7.180312;59.06700134277344;1666767111.0327342;-32.46897888183594;-19.5843505859375;-7.710837364196777
174;1666767111.2425747;46.975571699999996;7.1803034;59.09300231933594;1666767111.2523334;-34.56676483154297;-13.764636039733887;-18.1829776763916
175;1666767111.4446046;46.975578399999996;7.180294399999999;59.10900115966797;1666767111.4475698;-35.85685729980469;-8.116766929626465;-28.061674118041992
176;1666767111.6466358;46.9755854;7.180284899999999;59.12000274658203;1666767111.6476119;-36.47896957397461;-2.769930601119995;-37.45316696166992
177;1666767112.3280463;46.9755925;7.1802752;59.12400436401367;1666767112.3329263;-36.599021911621094;2.682922124862671;-45.900367736816406
178;1666767112.5261745;46.9755998;7.1802652;59.11700439453125;1666767112.5300782;-36.630924224853516;6.112349510192871;-49.27289962768555
179;1666767112.7360125;46.9756074;7.1802551;59.10700225830078;1666767112.7389433;-37.0764274597168;6.538040637969971;-49.180625915527344
180;1666767112.9439;46.9756152;7.180244999999999;59.095001220703125;1666767112.9468305;-37.6857795715332;6.064121246337891;-48.41446304321289
181;1666767113.1478841;46.9756231;7.1802348;59.079002380371094;1666767113.1527667;-38.25886154174805;5.486407279968262;-47.57046890258789
182;1666767113.3596785;46.975631299999996;7.1802245;59.06300354003906;1666767113.3626063;-38.742591857910156;4.910343647003174;-46.74640655517578
183;1666767113.5607352;46.975639699999995;7.1802141;59.05000305175781;1666767113.5636618;-39.153804779052734;4.430925369262695;-46.00214385986328
184;1666767113.756911;46.975648199999995;7.180203499999999;59.03700256347656;1666767113.7598362;-39.522274017333984;4.0368499755859375;-45.328163146972656
185;1666767113.953084;46.9756569;7.1801927999999995;59.02400207519531;1666767113.956991;-39.84348678588867;3.7208683490753174;-44.74106979370117
186;1666767114.150236;46.9756657;7.1801819;59.013004302978516;1666767114.1541417;-40.1472053527832;3.390817642211914;-44.205528259277344
187;1666767114.3590994;46.9756747;7.180170899999999;59.000003814697266;1666767114.3630068;-40.419456481933594;3.085709571838379;-43.723876953125
188;1666767114.555276;46.9756837;7.180159799999999;58.9900016784668;1666767114.561133;-40.67633056640625;2.8751842975616455;-43.320091247558594
189;1666767114.7582843;46.9756929;7.1801486;58.98200225830078;1666767114.7612128;-40.906822204589844;2.6018331050872803;-42.94340896606445
190;1666767114.960315;46.975702299999995;7.180137299999999;58.978004455566406;1666767114.9632435;-41.12532424926758;2.375220537185669;-42.65270233154297
191;1666767115.1711311;46.9757117;7.1801258;58.97600173950195;1666767115.1779637;-41.34413528442383;2.161803722381592;-42.345481872558594
192;1666767115.374141;46.9757213;7.1801141;58.96800231933594;1666767115.3770678;-41.53497314453125;2.0195024013519287;-42.10203552246094
193;1666767115.5703154;46.975730899999995;7.1801024;58.95900344848633;1666767115.6981733;-41.70418167114258;1.8665270805358887;-41.84895706176758
194;1666767115.8855631;46.975740699999996;7.1800904999999995;58.95100402832031;1666767115.886541;-41.8919563293457;1.7122342586517334;-41.654388427734375
195;1666767116.0807624;46.9757505;7.1800785;58.945003509521484;1666767116.0836906;-42.056312561035156;1.5825104713439941;-41.47269058227539
196;1666767116.2896287;46.9757604;7.1800665;58.941001892089844;1666767116.2906015;-42.19647979736328;1.496002197265625;-41.330257415771484
197;1666767116.4828775;46.975770499999996;7.1800543;58.93800354003906;1666767116.4858043;-42.355899810791016;1.3704841136932373;-41.17792510986328
198;1666767116.6946654;46.9757805;7.180041999999999;58.93400192260742;1666767116.6985705;-42.46994400024414;1.3168073892593384;-41.06467056274414
199;1666767116.8966978;46.9757907;7.180029599999999;58.92900466918945;1666767116.8996289;-42.58460998535156;1.2379528284072876;-40.9506721496582
200;1666767117.0958016;46.975800899999996;7.1800172;58.92400360107422;1666767117.098731;-42.70048904418945;1.1580162048339844;-40.851722717285156
201;1666767117.2851472;46.975811199999995;7.180004599999999;58.923004150390625;1666767117.2880743;-42.83251190185547;1.086371660232544;-40.79265594482422
202;1666767117.491082;46.975821599999996;7.1799919999999995;58.92100143432617;1666767117.494987;-42.934837341308594;1.0430021286010742;-40.73371124267578
203;1666767117.7048254;46.975832;7.179979299999999;58.92000198364258;1666767117.7058017;-43.02449035644531;0.8642293214797974;-40.61433410644531
204;1666767117.9029555;46.9758425;7.1799665;58.91800308227539;1666767117.9068584;-43.131465911865234;0.4527971148490906;-40.524627685546875
205;1666767118.0991604;46.975853099999995;7.179953599999999;58.913002014160156;1666767118.1020756;-43.20846939086914;0.522964358329773;-40.646942138671875
206;1666767118.2982354;46.9758637;7.1799406;58.90700149536133;1666767118.303114;-43.298831939697266;0.7015230059623718;-40.6319580078125
207;1666767118.5002663;46.9758743;7.1799275;58.90200424194336;1666767118.504171;-43.37610626220703;0.7275630831718445;-40.562625885009766
208;1666767118.708155;46.975885;7.1799143;58.89900207519531;1666767118.7110808;-43.463233947753906;0.6726938486099243;-40.45476531982422
209;1666767118.9004273;46.975895699999995;7.179901;58.89900207519531;1666767118.906282;-43.51836013793945;0.636077344417572;-40.44031524658203
210;1666767119.094648;46.9759065;7.1798877;58.897003173828125;1666767119.1014807;-43.59085464477539;0.6033340692520142;-40.38056945800781
211;1666767119.2947578;46.9759173;7.1798743;58.893001556396484;1666767119.2996159;-43.66035461425781;0.5724743008613586;-40.344085693359375
212;1666767119.5006642;46.9759281;7.179860799999999;58.888004302978516;1666767119.5026188;-43.72234344482422;0.5661337375640869;-40.33622741699219
213;1666767119.7007804;46.975939;7.1798473;58.88500213623047;1666767119.7066002;-43.787269592285156;0.5824641585350037;-40.35062026977539
214;1666767119.90278;46.97595;7.1798337;58.88500213623047;1666767119.9076583;-43.834007263183594;0.6024502515792847;-40.35096740722656
215;1666767120.115544;46.975961;7.1798201;58.887001037597656;1666767120.1233542;-43.89256286621094;0.6166119575500488;-40.3458366394043
216;1666767120.3165998;46.975972;7.1798065;58.8900032043457;1666767120.3253858;-43.939693450927734;0.5818554162979126;-40.32811737060547
217;1666767120.5167167;46.9759831;7.1797927999999995;58.8910026550293;1666767120.5186315;-43.974693298339844;0.6269474029541016;-40.335140228271484
218;1666767120.7235909;46.975994199999995;7.179779099999999;58.8900032043457;1666767120.7314003;-44.03953170776367;0.48222851753234863;-40.263729095458984
219;1666767120.925623;46.9760053;7.1797653;58.887001037597656;1666767120.9295273;-44.090423583984375;0.1357637345790863;-40.204227447509766
220;1666767121.2672276;46.9760164;7.1797514;58.884002685546875;1666767121.2750633;-44.12799835205078;0.04458668455481529;-40.3087043762207
221;1666767121.469255;46.976027599999995;7.1797375;58.887001037597656;1666767121.4731584;-44.17678451538086;0.011740095913410187;-40.344024658203125
222;1666767121.6693354;46.9760388;7.179723399999999;58.89500427246094;1666767121.6703131;-44.20991516113281;0.22553667426109314;-40.44401931762695
223;1666767121.8811293;46.97605;7.1797093;58.90300369262695;1666767121.8889353;-44.23097610473633;0.44376954436302185;-40.418846130371094
224;1666767122.087064;46.9760612;7.179695199999999;58.90800094604492;1666767122.0938966;-44.25563049316406;0.4759555160999298;-40.32969665527344
225;1666767122.2871435;46.9760724;7.1796811;58.91200256347656;1666767122.2910469;-44.29422378540039;0.5883536338806152;-40.31876754760742
226;1666767122.4969819;46.9760837;7.1796669;58.91400146484375;1666767122.5008864;-44.317134857177734;0.6344795823097229;-40.24367904663086
227;1666767122.69999;46.976095;7.1796527;58.913002014160156;1666767122.7029183;-44.36077880859375;0.5729878544807434;-40.1802978515625
228;1666767122.9059331;46.9761064;7.179638499999999;58.915000915527344;1666767122.9069095;-44.38620376586914;0.5762175917625427;-40.18307113647461
229;1666767123.0982065;46.976117699999996;7.1796242999999995;58.91800308227539;1666767123.104063;-44.43999481201172;0.6719896197319031;-40.20952606201172
230;1666767123.3041408;46.9761291;7.1796101;58.92100143432617;1666767123.3070703;-44.466453552246094;0.5487695932388306;-40.160099029541016
231;1666767123.505197;46.9761406;7.1795959;58.923004150390625;1666767123.5091019;-44.486942291259766;0.5281583070755005;-40.20624542236328
232;1666767123.714063;46.976152;7.1795817;58.92400360107422;1666767123.716018;-44.50603485107422;0.5827906727790833;-40.23755645751953
233;1666767123.9180446;46.9761634;7.1795675999999995;58.923004150390625;1666767123.9209733;-44.537689208984375;0.581247091293335;-40.242584228515625
234;1666767124.130337;46.9761749;7.1795535;58.923004150390625;1666767124.1361938;-44.556800842285156;0.5189126133918762;-40.2171745300293
235;1666767124.3362741;46.976186399999996;7.1795393;58.928001403808594;1666767124.3392005;-44.576812744140625;0.555770993232727;-40.26053237915039
236;1666767124.545338;46.976197899999995;7.179525;58.932003021240234;1666767124.5482657;-44.6005744934082;0.6761659383773804;-40.293643951416016
237;1666767124.756154;46.976209399999995;7.1795108;58.93400192260742;1666767124.7610338;-44.60310363769531;0.6654431223869324;-40.246212005615234
238;1666767124.9774616;46.9762209;7.1794965;58.93700408935547;1666767124.9813657;-44.62217330932617;0.700063169002533;-40.25348663330078
239;1666767125.193156;46.9762324;7.1794823;58.94200134277344;1666767125.1960833;-44.66509246826172;0.7064998149871826;-40.25071334838867
240;1666767125.391285;46.976244;7.179468;58.95000457763672;1666767125.3951867;-44.65035629272461;0.6655734777450562;-40.242515563964844
241;1666767125.593363;46.9762555;7.1794537;58.95700454711914;1666767125.5972707;-44.683773040771484;0.6250743269920349;-40.22134780883789
242;1666767125.794506;46.9762671;7.1794394;58.96000289916992;1666767125.7993867;-44.681182861328125;0.7259432673454285;-40.28853988647461
243;1666767126.0433877;46.976278699999995;7.1794251;58.961002349853516;1666767126.0453403;-44.70913314819336;0.6650644540786743;-40.265464782714844
244;1666767126.2405393;46.976290299999995;7.1794109;58.961002349853516;1666767126.2434683;-44.61493682861328;0.6848999261856079;-40.2884407043457
245;1666767126.4415936;46.976301799999995;7.1793966;58.95900344848633;1666767126.4503784;-42.909141540527344;0.6856632828712463;-40.2889404296875
246;1666767126.639723;46.9763133;7.1793824;58.9530029296875;1666767126.6426513;-41.13656997680664;0.49071308970451355;-40.20197677612305
247;1666767127.3424413;46.9763246;7.1793683999999995;58.9430046081543;1666767127.3443942;-39.91876983642578;0.6333107352256775;-40.2855224609375
248;1666767127.387338;46.9763356;7.179354699999999;58.93100357055664;1666767127.3892908;-38.83477783203125;0.6909907460212708;-40.25471878051758
249;1666767127.4839625;46.9763464;7.179341399999999;58.923004150390625;1666767127.4878666;-38.03564453125;0.5215258598327637;-40.198177337646484
250;1666767127.6450014;46.9763569;7.179328399999999;58.91200256347656;1666767127.6469543;-37.132362365722656;0.5589658617973328;-40.311065673828125
251;1666767127.8148317;46.976366999999996;7.1793157999999995;58.900001525878906;1666767127.8177555;-36.14424514770508;0.7531234622001648;-40.40033721923828
252;1666767128.0051444;46.9763769;7.1793036;58.888004302978516;1666767128.0080733;-35.16628646850586;0.7282134890556335;-40.398319244384766
253;1666767128.1886346;46.9763865;7.179291699999999;58.87400436401367;1666767128.192538;-34.189414978027344;0.6791884303092957;-40.46217727661133
254;1666767128.3896883;46.9763957;7.1792802;58.85600280761719;1666767128.3935926;-32.91990661621094;0.7956960201263428;-40.578704833984375
255;1666767128.595625;46.976404599999995;7.1792691;58.83700180053711;1666767128.5985522;-31.91147804260254;0.7546879649162292;-40.59638214111328
256;1666767128.7965376;46.976413199999996;7.1792584999999995;58.820003509521484;1666767128.7994668;-30.660430908203125;0.7111645340919495;-40.69206237792969
257;1666767128.9956443;46.9764214;7.179248299999999;58.803001403808594;1666767128.9995458;-29.391775131225586;0.8169723153114319;-40.79410171508789
258;1666767129.2035308;46.9764293;7.1792386;58.790000915527344;1666767129.2054813;-30.96559715270996;0.8157637715339661;-40.83710479736328
259;1666767129.4055607;46.976436899999996;7.1792291;58.78000259399414;1666767129.4084923;-31.051780700683594;1.0853122472763062;-40.96883010864258
260;1666767129.6056402;46.9764443;7.1792199;58.77100372314453;1666767129.6095476;-29.501853942871094;1.0049569606781006;-40.93358612060547
261;1666767129.8086486;46.976451499999996;7.179211;58.75700378417969;1666767129.8125556;-27.50924301147461;1.2212574481964111;-41.014793395996094
262;1666767130.0038583;46.9764584;7.179202399999999;58.74400329589844;1666767130.0067785;-25.34933090209961;0.9965320229530334;-40.971309661865234
263;1666767130.6936722;46.976465;7.1791944;58.72900390625;1666767130.6965992;-22.762683868408203;1.0216923952102661;-41.08888626098633
264;1666767130.8937519;46.9764712;7.1791867;58.71200180053711;1666767130.896679;-20.246944427490234;0.7621129751205444;-41.143455505371094
265;1666767131.0938325;46.976476899999994;7.1791797;58.69400405883789;1666767131.0977345;-17.800939559936523;0.7745466232299805;-41.29335403442383
266;1666767131.7023687;46.9764822;7.1791731;58.676002502441406;1666767131.7052984;-15.317405700683594;0.9039553999900818;-41.47249984741211
267;1666767131.9102588;46.976487;7.179167199999999;58.660003662109375;1666767131.915139;-13.11423110961914;0.7474209666252136;-41.565399169921875
268;1666767132.117177;46.9764913;7.179161799999999;58.647003173828125;1666767132.1201036;-11.082986831665039;0.7135968804359436;-41.7398567199707
269;1666767132.3162808;46.976495199999995;7.179157099999999;58.638004302978516;1666767132.318232;-9.10346508026123;0.6585021018981934;-41.92849349975586
270;1666767132.7183921;46.9764986;7.1791529;58.634002685546875;1666767132.7222955;-7.528894901275635;0.5544697046279907;-42.119956970214844
271;1666767132.9174957;46.9765015;7.1791491999999995;58.634002685546875;1666767132.9214;-6.2609758377075195;0.4446733593940735;-42.33346176147461
272;1666767133.2385995;46.9765041;7.1791461;58.6400032043457;1666767133.2444582;-5.14531946182251;0.30553147196769714;-42.58061599731445
273;1666767133.4747918;46.9765064;7.1791434;58.6510009765625;1666767133.4767437;-4.139987945556641;0.23402798175811768;-42.9269905090332
274;1666767133.6866167;46.9765083;7.1791409999999996;58.66400146484375;1666767133.7022324;-3.4741475582122803;0.006280374247580767;-43.296905517578125
275;1666767133.9101183;46.976509899999996;7.179138999999999;58.68000411987305;1666767133.9159756;-3.0067176818847656;-0.06186113506555557;-43.759315490722656
276;1666767134.1277654;46.9765113;7.1791371999999996;58.69700241088867;1666767134.1365516;-2.3164238929748535;0.008511073887348175;-44.16484069824219
277;1666767134.3356552;46.9765124;7.1791357;58.71600341796875;1666767134.3415098;-2.0893919467926025;0.06155804917216301;-44.4069709777832
278;1666767134.5445216;46.976513399999995;7.1791345;58.73400115966797;1666767134.5513494;-1.9843175411224365;0.010509852319955826;-44.60353469848633
279;1666767134.7485173;46.9765142;7.1791333999999996;58.750003814697266;1666767134.7543705;-1.8910444974899292;-0.07154887914657593;-44.888771057128906
280;1666767134.9593325;46.9765149;7.1791325;58.76400375366211;1666767134.964213;-1.845223307609558;-0.04888350889086723;-45.13993835449219
281;1666767135.150629;46.9765155;7.1791316;58.77900314331055;1666767135.1564822;-1.7497801780700684;0.03481631353497505;-45.198604583740234
282;1666767135.3477783;46.976516;7.1791309;58.7910041809082;1666767135.3507066;-1.6135220527648926;0.1313575655221939;-45.16199493408203
283;1666767135.5483813;46.976516499999995;7.1791301;58.810001373291016;1666767135.556191;-4.208167552947998;0.029475746676325798;-46.72867965698242
284;1666767135.7572446;46.976517;7.1791293;58.83400344848633;1666767135.7640774;-12.121539115905762;0.6874051094055176;-49.71503829956055
285;1666767135.95147;46.976517799999996;7.1791279;58.858001708984375;1666767135.9553735;-20.746356964111328;1.8896253108978271;-50.685420989990234
286;1666767136.150573;46.9765192;7.179125699999999;58.89500427246094;1666767136.1622858;-28.35723304748535;2.7183127403259277;-50.94293975830078
287;1666767136.3633428;46.976521299999995;7.1791222999999995;58.94400405883789;1666767136.369197;-32.16716003417969;1.221580982208252;-50.76512145996094
288;1666767136.6629755;46.9765243;7.179117499999999;59.00100326538086;1666767136.6707819;-34.040061950683594;1.443411946296692;-50.55106735229492
289;1666767136.8786688;46.976527999999995;7.1791114;59.061004638671875;1666767136.8874545;-35.7421875;1.3257381916046143;-50.23228454589844
290;1666767137.0836287;46.976532299999995;7.179104199999999;59.118003845214844;1666767137.088511;-37.466583251953125;1.1593178510665894;-50.03060531616211
291;1666767137.2729726;46.976537199999996;7.1790959;59.178001403808594;1666767137.2759018;-39.145206451416016;1.0927234888076782;-49.86973190307617
292;1666767137.5042872;46.976542699999996;7.1790867;59.23800277709961;1666767137.507215;-40.13821792602539;0.9292091131210327;-49.699729919433594
293;1666767137.7033908;46.976548699999995;7.1790766999999995;59.28700256347656;1666767137.7141252;-39.65803146362305;0.6847964525222778;-49.541168212890625
294;1666767137.899977;46.976555;7.179066;59.32400131225586;1666767137.9058328;-39.308902740478516;0.47459492087364197;-49.41476821899414
295;1666767138.1059122;46.9765616;7.179054799999999;59.353004455566406;1666767138.1117668;-39.21277618408203;0.3068087100982666;-49.32228088378906
296;1666767138.3099198;46.9765684;7.1790432;59.371002197265625;1666767138.3138278;-39.277584075927734;0.20500746369361877;-49.27650451660156
297;1666767138.5193;46.976575399999994;7.1790313;59.37400436401367;1666767138.525152;-39.41379165649414;0.07578620314598083;-49.23318862915039
298;1666767138.7281642;46.9765826;7.1790191;59.36900329589844;1666767138.7306478;-39.61094284057617;0.06884901970624924;-49.27024841308594
299;1666767138.9215817;46.9765898;7.179006599999999;59.36000442504883;1666767138.925493;-39.82451629638672;0.07398836314678192;-49.25241470336914
300;1666767139.1265466;46.9765972;7.1789939;59.35200119018555;1666767139.1324046;-40.0692253112793;0.06091807410120964;-49.23587417602539
301;1666767139.333454;46.976604599999995;7.178980999999999;59.34300231933594;1666767139.3412611;-40.304935455322266;0.02680061385035515;-49.22398376464844
302;1666767139.542333;46.9766122;7.1789679;59.33400344848633;1666767139.5452626;-40.53997039794922;0.07106537371873856;-49.25504684448242
303;1666767140.2391968;46.976619799999995;7.1789546;59.32100296020508;1666767140.2431016;-40.753692626953125;0.06307704001665115;-49.242027282714844
304;1666767140.7769723;46.9766276;7.178941099999999;59.30400466918945;1666767140.779899;-40.982086181640625;0.43217435479164124;-49.33744812011719
305;1666767140.9819329;46.9766354;7.1789274999999995;59.28600311279297;1666767140.9848585;-41.19766616821289;0.26904165744781494;-49.16539764404297
306;1666767141.6661067;46.9766434;7.1789137;59.26900100708008;1666767141.6700113;-41.392940521240234;0.04507223144173622;-49.156837463378906
307;1666767141.869149;46.976651399999994;7.1788998;59.25400161743164;1666767141.87302;-41.57491683959961;-0.07549523562192917;-49.188743591308594
308;1666767142.0740733;46.9766595;7.1788858;59.2390022277832;1666767142.0770018;-41.75605010986328;-0.11581774055957794;-49.22019577026367
309;1666767142.2790349;46.9766677;7.1788716;59.224002838134766;1666767142.2819622;-41.93383026123047;-0.1574678272008896;-49.24835205078125
310;1666767142.4752145;46.976676;7.1788571999999995;59.20600128173828;1666767142.4781387;-42.07654571533203;-0.22748792171478271;-49.26757049560547
311;1666767142.6782174;46.976684299999995;7.178842599999999;59.189002990722656;1666767142.68017;-42.218994140625;-0.3058319091796875;-49.279212951660156
312;1666767142.883176;46.9766926;7.178827999999999;59.176002502441406;1666767142.8861063;-42.362308502197266;-0.37816882133483887;-49.284427642822266
313;1666767143.092042;46.976701;7.1788132;59.16200256347656;1666767143.0959454;-42.490814208984375;-0.3607918322086334;-49.323307037353516
314;1666767143.297004;46.9767095;7.1787982999999995;59.150001525878906;1666767143.3018816;-42.6063117980957;0.345556378364563;-49.4438591003418
315;1666767143.5029373;46.976718;7.1787833;59.1410026550293;1666767143.5068402;-42.720916748046875;0.6531378626823425;-49.306800842285156
316;1666767143.7118044;46.9767266;7.1787681999999995;59.134002685546875;1666767143.7157068;-42.82463073730469;0.9668720364570618;-49.2274169921875
317;1666767143.916762;46.976735399999995;7.1787531;59.12800216674805;1666767143.920664;-42.917110443115234;1.3223806619644165;-49.16585159301758
318;1666767144.1139116;46.9767442;7.178738;59.12600326538086;1666767144.1168416;-43.02281188964844;0.7691529989242554;-48.867218017578125
319;1666767144.31985;46.976753099999996;7.1787228;59.121002197265625;1666767144.3227785;-43.10947036743164;0.6813456416130066;-48.998146057128906
320;1666767144.53457;46.976762099999995;7.1787076;59.112003326416016;1666767144.5374975;-43.19410705566406;0.740686297416687;-49.05017852783203
321;1666767144.7297688;46.976771199999995;7.1786923;59.105003356933594;1666767144.7336721;-43.288429260253906;0.15360434353351593;-48.90361404418945
322;1666767144.9318004;46.976780299999994;7.178676899999999;59.099002838134766;1666767144.9357033;-42.31194305419922;-0.044569965451955795;-49.09790802001953
323;1666767145.125049;46.9767893;7.1786616;59.08400344848633;1666767145.1279752;-39.01502990722656;-0.09160329401493073;-49.23402404785156
324;1666767145.3300066;46.9767982;7.178646499999999;59.06200408935547;1666767145.3329363;-36.93418884277344;0.6005457043647766;-49.4350471496582
325;1666767145.5359423;46.9768068;7.1786319;59.03600311279297;1666767145.5398476;-35.4452018737793;0.6739551424980164;-49.258087158203125
326;1666767145.7321208;46.976815099999996;7.178617699999999;59.00200271606445;1666767145.7360225;-33.95364761352539;0.5608304142951965;-49.170989990234375
327;1666767145.933175;46.976822999999996;7.178604099999999;58.96200180053711;1666767145.9370787;-32.66289138793945;0.6721855401992798;-49.295692443847656
328;1666767146.1371622;46.9768307;7.178591099999999;58.92200469970703;1666767146.1410642;-31.188465118408203;0.6313793659210205;-49.310997009277344
329;1666767146.3343134;46.976838099999995;7.1785786;58.881004333496094;1666767146.3382168;-29.73021697998047;0.6214881539344788;-49.41356658935547
330;1666767146.5392704;46.976845;7.1785668;58.840003967285156;1666767146.5422008;-27.944721221923828;0.5235499739646912;-49.515037536621094
331;1666767146.7510655;46.9768517;7.178555599999999;58.798004150390625;1666767146.7569182;-25.86711883544922;0.4510611295700073;-49.6171875
332;1666767146.9540706;46.9768579;7.1785451;58.75800323486328;1666767146.9560244;-23.954544067382812;0.4205891788005829;-49.73926544189453
333;1666767147.1522033;46.976863599999994;7.1785352;58.721004486083984;1666767147.156103;-21.97730255126953;0.5721974968910217;-49.86392593383789
334;1666767147.3561864;46.976869;7.1785261;58.68800354003906;1666767147.3610623;-19.917755126953125;0.6180490255355835;-49.916046142578125
335;1666767147.563093;46.9768739;7.178517599999999;58.65800094604492;1666767147.5660233;-17.851909637451172;0.6653304100036621;-49.95406723022461
336;1666767147.7739096;46.9768785;7.1785098;58.630001068115234;1666767147.7817175;-15.84144115447998;0.6555256843566895;-50.04118728637695
337;1666767147.979846;46.9768827;7.1785027999999995;58.605003356933594;1666767147.9827738;-13.63335132598877;0.5140036344528198;-50.087894439697266
338;1666767148.1867578;46.9768864;7.178496399999999;58.58400344848633;1666767148.1945662;-11.75331974029541;0.5390807390213013;-50.188232421875
339;1666767148.4024534;46.976889799999995;7.178490699999999;58.56900405883789;1666767148.40636;-9.897576332092285;0.4823969602584839;-50.29615020751953
340;1666767148.601557;46.9768927;7.178485599999999;58.560001373291016;1666767148.604485;-8.3024263381958;0.4937947392463684;-50.35389709472656
341;1666767148.9168053;46.976895299999995;7.1784811;58.557003021240234;1666767148.9236367;-6.911155700683594;0.5016717910766602;-50.40187454223633
342;1666767149.1276207;46.9768976;7.1784772;58.55600357055664;1666767149.130549;-5.668168544769287;0.4866069257259369;-50.446044921875
343;1666767149.3228207;46.976899599999996;7.1784738;58.560001373291016;1666767149.3247745;-4.651085376739502;0.42483916878700256;-50.5092887878418
344;1666767149.5287585;46.976901299999994;7.1784709;58.570003509521484;1666767149.5307126;-3.7115962505340576;0.2299443930387497;-50.58605194091797
345;1666767149.7259083;46.9769027;7.1784684;58.58500289916992;1666767149.7346923;-3.1077194213867188;0.26733529567718506;-50.68035125732422
346;1666767149.9455082;46.976904;7.178466299999999;58.60600280761719;1666767149.9474607;-2.701138734817505;0.30618682503700256;-50.731815338134766
347;1666767150.147546;46.976904999999995;7.178464399999999;58.630001068115234;1666767150.155351;-2.1708288192749023;0.19390995800495148;-50.751277923583984
348;1666767150.3476207;46.9769059;7.1784628999999995;58.65300369262695;1666767150.353476;-1.9270448684692383;0.19303268194198608;-50.70766830444336
349;1666767150.5564902;46.9769066;7.1784615;58.67400360107422;1666767150.5584393;-1.7678381204605103;0.16641636192798615;-50.588340759277344
350;1666767150.7585204;46.9769072;7.1784604;58.69600296020508;1666767150.7643743;-1.6371535062789917;0.21774137020111084;-50.373573303222656
351;1666767150.964454;46.9769077;7.1784593999999995;58.71800231933594;1666767150.9742131;-1.6662756204605103;0.3381606340408325;-50.24142837524414
352;1666767151.1684377;46.9769082;7.178458399999999;58.73800277709961;1666767151.1723397;-1.4453567266464233;0.16838477551937103;-50.182003021240234
353;1666767151.3938944;46.976908599999994;7.1784576;58.7650032043457;1666767151.4026794;-0.8057262897491455;2.464240789413452;-48.367855072021484
354;1666767151.6154425;46.9769091;7.178457099999999;58.829002380371094;1666767151.6252036;0.5989570617675781;5.802987098693848;-40.31660842895508
355;1666767151.9424052;46.9769096;7.178457;58.95600128173828;1666767151.9433846;0.15324720740318298;6.352757453918457;-30.82984733581543
356;1666767152.1405354;46.9769102;7.1784574;59.160003662109375;1666767152.142484;-0.6666942238807678;7.35816764831543;-21.185470581054688
357;1666767152.3474424;46.9769108;7.178458399999999;59.40200424194336;1666767152.354278;-1.430836796760559;7.713334083557129;-11.831745147705078
358;1666767152.547525;46.9769115;7.178459699999999;59.6510009765625;1666767152.5543568;-5.085620880126953;9.093607902526855;-2.8570375442504883
359;1666767152.752483;46.9769125;7.1784615;59.919002532958984;1666767152.7573636;-12.63435173034668;14.652411460876465;6.038846969604492
360;1666767152.9554925;46.9769139;7.1784645;60.220001220703125;1666767152.958418;-20.290761947631836;16.147907257080078;14.775921821594238
361;1666767153.146785;46.976915899999995;7.1784688;60.55000305175781;1666767153.1506925;-27.887008666992188;12.350130081176758;24.329923629760742
362;1666767153.3507721;46.9769189;7.1784745;60.90700149536133;1666767153.353698;-31.925825119018555;6.284816265106201;34.592594146728516
363;1666767153.5713475;46.9769228;7.178481499999999;61.28900146484375;1666767153.5742745;-34.019798278808594;1.1142067909240723;45.10111618041992
364;1666767153.798753;46.976927599999996;7.1784896;61.6930046081543;1666767153.7997308;-35.76231002807617;-3.8481433391571045;50.77614212036133
365;1666767154.0027375;46.9769333;7.1784987;62.11300277709961;1666767154.0056665;-37.65836715698242;-5.329232692718506;51.732276916503906
366;1666767154.1930575;46.9769398;7.1785087;62.53600311279297;1666767154.195988;-39.143043518066406;-4.364943504333496;51.4337272644043
367;1666767154.3853307;46.976946999999996;7.178519499999999;62.94200134277344;1666767154.3921633;-38.73481750488281;-3.717071533203125;50.80291748046875
368;1666767154.5824819;46.9769546;7.178530899999999;63.329002380371094;1666767154.587361;-38.14935302734375;-3.205747365951538;50.00208282470703
369;1666767154.79232;46.9769625;7.1785428;63.698001861572266;1666767154.7952492;-38.0396842956543;-2.707300901412964;49.38066482543945
370;1666767154.9836173;46.9769708;7.178554999999999;64.05000305175781;1666767154.9875221;-38.13480758666992;-2.3705058097839355;48.838932037353516
371;1666767155.171984;46.976979199999995;7.1785675;64.3800048828125;1666767155.174914;-38.334678649902344;-2.1321518421173096;48.37493896484375
372;1666767155.3798735;46.976987799999996;7.1785802;64.68400573730469;1666767155.38378;-38.59772491455078;-1.8932626247406006;47.982269287109375
373;1666767155.5809288;46.9769966;7.1785929;64.95800018310547;1666767155.583856;-38.864837646484375;-1.7197290658950806;47.62228012084961
374;1666767155.7771044;46.977005399999996;7.1786059;65.20899963378906;1666767155.7810075;-39.17698287963867;-1.5754836797714233;47.28727722167969
375;1666767155.9849932;46.9770143;7.1786189;65.43600463867188;1666767155.988898;-39.489105224609375;-1.4484658241271973;46.97275924682617
376;1666767156.1772635;46.9770232;7.1786319999999995;65.64200592041016;1666767156.1801915;-39.77433395385742;-1.323225975036621;46.69712829589844
377;1666767156.378319;46.9770323;7.1786452;65.8290023803711;1666767156.3900323;-40.066646575927734;-1.1999239921569824;46.43642807006836
378;1666767156.598901;46.9770415;7.1786584;65.99500274658203;1666767156.604751;-40.34663772583008;-1.039400577545166;46.18824768066406
379;1666767156.808737;46.9770507;7.1786717;66.14800262451172;1666767156.8097117;-40.609397888183594;-0.8924050331115723;45.97903060913086
380;1666767156.9951518;46.977059999999994;7.1786851;66.28800201416016;1666767156.9980805;-40.8494987487793;-0.7844218015670776;45.815975189208984
381;1666767157.2127984;46.9770693;7.1786986;66.42200469970703;1666767157.2196329;-41.08116149902344;-0.7931457161903381;45.67063522338867
382;1666767157.4206886;46.9770787;7.178712099999999;66.54900360107422;1666767157.4275181;-41.291805267333984;-0.7732550501823425;45.53275680541992
383;1666767157.6227186;46.9770882;7.1787258;66.66600036621094;1666767157.625648;-41.492469787597656;-0.7943963408470154;45.413970947265625
384;1666767157.8062096;46.977097799999996;7.1787395;66.77799987792969;1666767157.8159678;-41.666343688964844;-0.5160526037216187;45.1714973449707
385;1666767158.002383;46.9771074;7.1787532999999994;66.88200378417969;1666767158.0072672;-41.855289459228516;0.5550405383110046;44.95499801635742
386;1666767158.1946845;46.9771171;7.178767199999999;66.9800033569336;1666767158.1985593;-41.17353439331055;-0.5166159868240356;45.511600494384766
387;1666767158.3986375;46.9771268;7.178781099999999;67.06700134277344;1666767158.402543;-38.49053955078125;-0.7739655375480652;45.138648986816406
388;1666767158.6094558;46.9771364;7.1787947999999995;67.1520004272461;1666767158.6182404;-36.591678619384766;-0.08169667422771454;44.8252067565918
389;1666767158.8397937;46.977145799999995;7.1788082;67.23400115966797;1666767158.8407671;-34.80437469482422;-0.08524059504270554;44.99443435668945
390;1666767159.0740314;46.977154899999995;7.1788213;67.31200408935547;1666767159.0779347;-33.04996871948242;-0.08872291445732117;45.018775939941406
391;1666767159.2965574;46.9771636;7.1788338;67.38700103759766;1666767159.297533;-31.438758850097656;-0.10018257796764374;45.04557800292969
392;1666767159.4878533;46.977171999999996;7.1788457999999995;67.46200561523438;1666767159.488829;-30.001720428466797;-0.10835308581590652;45.056854248046875
393;1666767159.6908612;46.97718;7.1788571999999995;67.53500366210938;1666767159.6967206;-28.429553985595703;-0.0631551519036293;45.049827575683594
394;1666767159.887042;46.977187699999995;7.1788681;67.6050033569336;1666767159.890943;-26.657733917236328;-0.04471288621425629;45.06778335571289
395;1666767160.0822375;46.9771949;7.1788785;67.67300415039062;1666767160.0841906;-24.81324005126953;0.08758118748664856;45.04750442504883
396;1666767160.282319;46.977201699999995;7.178888199999999;67.73800659179688;1666767160.2881727;-22.803773880004883;0.07501844316720963;45.093658447265625
397;1666767160.473619;46.977208;7.1788972;67.79400634765625;1666767160.477519;-20.787132263183594;0.009384240955114365;45.116031646728516
398;1666767160.6649082;46.9772138;7.1789057;67.84700012207031;1666767160.668812;-18.83648681640625;-0.03868415206670761;45.11714172363281
399;1666767160.864015;46.9772192;7.1789134;67.9000015258789;1666767160.8688922;-17.01595687866211;-0.10955042392015457;45.10306930541992
400;1666767161.0719004;46.9772241;7.1789204;67.9520034790039;1666767161.0748296;-15.173431396484375;0.029190903529524803;45.07984924316406
401;1666767161.7599797;46.9772286;7.1789268999999996;68.0009994506836;1666767161.763886;-13.361045837402344;0.07548168301582336;45.118831634521484
402;1666767161.9668953;46.977232699999995;7.1789327;68.04800415039062;1666767161.970796;-11.56391716003418;0.10576296597719193;45.167015075683594
403;1666767162.1786838;46.9772363;7.178937899999999;68.09200286865234;1666767162.1825898;-9.872739791870117;0.2327646166086197;45.248756408691406
404;1666767162.3865728;46.9772396;7.1789425;68.13700103759766;1666767162.389501;-8.436370849609375;0.33527642488479614;45.3795166015625
405;1666767162.5983644;46.977242399999994;7.1789466;68.18400573730469;1666767162.6012936;-7.247870445251465;0.23829975724220276;45.51131820678711
406;1666767162.785756;46.977244999999996;7.1789502;68.23400115966797;1666767162.7906368;-6.17063045501709;0.29161545634269714;45.64140701293945
407;1666767162.9946215;46.9772472;7.178953399999999;68.28600311279297;1666767162.9985251;-5.155159950256348;0.311027467250824;45.80321502685547
408;1666767163.1907964;46.977249199999996;7.1789562;68.33600616455078;1666767163.193723;-4.174282073974609;0.4465582072734833;46.00170135498047
409;1666767163.3908749;46.9772509;7.1789586;68.38400268554688;1666767163.393804;-3.339128017425537;0.42428702116012573;46.26534652709961
410;1666767163.7793293;46.977252299999996;7.178960699999999;68.43099975585938;1666767163.782258;-2.588571310043335;0.4995843470096588;46.57514953613281
411;1666767163.9228003;46.977253499999996;7.1789625;68.47600555419922;1666767163.9247525;-2.186128854751587;0.4840361773967743;46.94857406616211
412;1666767164.084817;46.9772545;7.1789641;68.51700592041016;1666767164.0867708;-1.8736985921859741;0.289465993642807;47.159149169921875
413;1666767164.2549634;46.9772554;7.1789654;68.55400085449219;1666767164.257892;-1.6090818643569946;0.15130069851875305;47.19270706176758
414;1666767164.456998;46.9772561;7.1789665;68.58600616455078;1666767164.4599245;-1.4086188077926636;0.03294416889548302;47.173370361328125
415;1666767164.6610835;46.9772568;7.1789675;68.61500549316406;1666767164.6620588;-1.2609734535217285;-0.009993279352784157;47.14009475708008
