;pos_time;latitude;longitude;altitude;alt_time;pitch;roll;yaw
0;1673336245.218894;46.9755342;7.1803557;-0.0860000029206276;1673336245.385319;-0.3114543557167053;0.06729543209075928;90.32874298095703
1;1673336245.4380636;46.9755342;7.1803557;-0.08500000089406967;1673336245.5908427;-0.27068567276000977;-0.0844820886850357;90.34381866455078
2;1673336245.6383352;46.9755342;7.1803557;-0.08000000566244125;1673336245.7974622;-0.28342539072036743;-0.0698341354727745;90.4352035522461
3;1673336245.8442714;46.9755341;7.1803558;-0.07900000363588333;1673336245.996527;-0.3731473386287689;-0.0735202357172966;90.4242172241211
4;1673336246.0472796;46.9755341;7.1803558;-0.07200000435113907;1673336246.207389;-0.342860609292984;-0.030474048107862473;90.33235168457031
5;1673336246.263054;46.9755342;7.1803558;-0.06599999964237213;1673336246.409035;-0.26927489042282104;-0.40962842106819153;90.39234924316406
6;1673336246.4519773;46.9755342;7.1803557;-0.0650000050663948;1673336246.6149702;-0.4383544325828552;-0.38375124335289;90.24015045166016
7;1673336246.6579115;46.9755342;7.1803557;-0.06100000441074371;1673336246.8192446;-0.14987722039222717;-0.17192937433719635;90.44937133789062
8;1673336246.8755617;46.9755342;7.1803558;-0.058000002056360245;1673336247.0513208;-0.42354443669319153;-0.31605568528175354;90.48503112792969
9;1673336247.094265;46.9755342;7.1803558;-0.0010000000474974513;1673336247.267018;-0.35527223348617554;-0.4866570830345154;90.45130157470703
10;1673336247.3154376;46.9755342;7.1803558;-0.0010000000474974513;1673336247.4647007;-0.3528147339820862;-0.6096971035003662;90.54257202148438
11;1673336247.509664;46.9755343;7.1803558;0.0;1673336247.664933;-0.3262960612773895;-0.7349815964698792;90.63201904296875
12;1673336247.7153301;46.9755343;7.1803558999999995;-0.005000000353902578;1673336247.8841453;-0.40057894587516785;-0.7522497773170471;90.5876235961914
13;1673336247.9463894;46.9755344;7.1803558999999995;-0.009000000543892384;1673336248.1037335;-0.24203158915042877;-0.811842143535614;90.58109283447266
14;1673336248.159328;46.975534499999995;7.180356;-0.009000000543892384;1673336248.3101113;-0.23638533055782318;-0.7076865434646606;90.55435180664062
15;1673336248.350105;46.975534599999996;7.180356;-0.013000000268220901;1673336248.513515;-0.26350173354148865;-0.5676302313804626;90.40481567382812
16;1673336248.5552812;46.975534599999996;7.1803561;-0.009000000543892384;1673336248.7209387;-0.43505802750587463;-0.8701887130737305;90.59859466552734
17;1673336248.767738;46.9755347;7.1803561;-0.00800000037997961;1673336248.925269;-0.24503879249095917;-0.795219898223877;90.54411315917969
18;1673336248.9680314;46.9755347;7.180356;-0.00800000037997961;1673336249.1203604;-0.1509830355644226;-0.5441917181015015;90.48870086669922
19;1673336249.1658742;46.9755347;7.180356;-0.006000000052154064;1673336249.3269782;-0.3172917366027832;-0.519697368144989;90.3828125
20;1673336249.3779116;46.9755347;7.180356;-0.004000000189989805;1673336249.5229194;-0.32231032848358154;-0.13408389687538147;90.3737564086914
21;1673336249.568806;46.9755348;7.180356;-0.0020000000949949026;1673336249.729005;-0.144855797290802;-0.09130081534385681;90.5304946899414
22;1673336249.772002;46.9755348;7.1803561;-0.003000000026077032;1673336249.946703;-0.13502541184425354;-0.1599859595298767;90.41939544677734
23;1673336249.9936318;46.9755348;7.1803561;-0.0010000000474974513;1673336250.163463;-0.005938442423939705;0.07621239125728607;91.28941345214844
24;1673336250.201526;46.9755348;7.1803561;0.0010000000474974513;1673336250.353656;-0.02344062179327011;1.1440565586090088;92.00113677978516
25;1673336250.4069974;46.9755347;7.1803561;0.007000000216066837;1673336250.5566642;0.4967880845069885;3.114827871322632;92.91261291503906
26;1673336250.6034894;46.975534499999995;7.1803561;0.015000000596046448;1673336250.768359;0.7988533973693848;5.230923652648926;94.98906707763672
27;1673336250.8193016;46.9755343;7.1803561;0.02200000174343586;1673336250.9738169;1.6552023887634277;4.093522071838379;95.56986999511719
28;1673336251.0149307;46.9755341;7.180356;0.02200000174343586;1673336251.1638987;-0.5075017809867859;-0.043563805520534515;94.22176361083984
29;1673336251.205546;46.9755337;7.1803558;0.039000000804662704;1673336251.364587;-1.2021785974502563;-4.523116588592529;93.1429443359375
30;1673336251.4094427;46.975533299999995;7.1803557;0.07000000029802322;1673336251.5666518;-0.8482264280319214;-0.030042598024010658;92.10973358154297
31;1673336251.6188538;46.9755332;7.1803557;0.11800000816583633;1673336251.778521;-0.05492785573005676;-2.8222663402557373;91.50260162353516
32;1673336251.8220384;46.9755331;7.1803558;0.18700000643730164;1673336251.9694178;0.08768300712108612;-5.6165080070495605;90.84273529052734
33;1673336252.0221176;46.9755331;7.1803558999999995;0.2680000066757202;1673336252.181206;-0.38718295097351074;0.8885583281517029;90.19828796386719
34;1673336252.2320187;46.975533299999995;7.180356;0.3620000183582306;1673336252.3883934;-0.5896124243736267;-0.6666739583015442;90.05516815185547
35;1673336252.4299595;46.9755337;7.1803561;0.47200003266334534;1673336252.6774144;-0.25269433856010437;-3.0141220092773438;89.94934844970703
36;1673336252.7281585;46.9755341;7.1803563;0.5950000286102295;1673336252.8845952;0.4107755124568939;2.1022040843963623;89.4308090209961
37;1673336252.9282396;46.975534499999995;7.180356499999999;0.7300000190734863;1673336253.0903091;1.2978925704956055;1.9226924180984497;89.4435043334961
38;1673336253.1371787;46.975534599999996;7.1803566;0.8820000290870667;1673336253.29536;1.3420586585998535;-2.3037214279174805;89.39949035644531
39;1673336253.3402548;46.9755347;7.180356499999999;1.0509999990463257;1673336253.496417;0.6436242461204529;1.5658138990402222;88.97454833984375
40;1673336253.5432656;46.9755348;7.180356499999999;1.2310000658035278;1673336253.7121778;-0.09142883867025375;2.633659839630127;88.62724304199219
41;1673336253.7747798;46.9755348;7.1803564;1.4170000553131104;1673336253.9272065;-0.4671573340892792;-2.0992379188537598;89.0698471069336
42;1673336253.9813502;46.9755349;7.1803564;1.6070001125335693;1673336254.1427689;-0.11346173286437988;1.2154821157455444;89.13520812988281
43;1673336254.188663;46.975535;7.1803564;1.7970000505447388;1673336254.3406298;0.19389022886753082;3.0541207790374756;88.867431640625
44;1673336254.392269;46.9755349;7.1803563;1.9880000352859497;1673336254.551478;0.7383624315261841;-2.6607513427734375;88.80380249023438
45;1673336254.6022298;46.9755347;7.1803563;2.180999994277954;1673336254.7666755;0.19100239872932434;-0.9834829568862915;88.31269836425781
46;1673336254.8097408;46.975534599999996;7.1803563;2.376000165939331;1673336254.9653425;-0.046474210917949677;2.3663408756256104;88.06842041015625
47;1673336255.0180442;46.975534599999996;7.1803563;2.571000099182129;1673336255.1786275;-0.56072998046875;-1.7051695585250854;88.20991516113281
48;1673336255.2230978;46.975534599999996;7.1803563;2.76200008392334;1673336255.3915694;-0.3073491156101227;-0.19067995250225067;88.21488189697266
49;1673336255.4452827;46.9755347;7.1803564;2.957000255584717;1673336255.5887206;0.25756654143333435;3.7817046642303467;87.78492736816406
50;1673336255.6313345;46.975534599999996;7.1803564;3.1550002098083496;1673336255.782558;0.8858197331428528;-1.9329270124435425;88.1311264038086
51;1673336255.8410501;46.9755344;7.1803564;3.3560001850128174;1673336255.9958894;0.6672515273094177;-2.562539577484131;87.76211547851562
52;1673336256.0437162;46.9755343;7.1803564;3.557000160217285;1673336256.1960313;-0.04791805148124695;2.653960943222046;87.85165405273438
53;1673336256.2415338;46.9755343;7.1803564;3.756000280380249;1673336256.3996453;-0.2877311110496521;-0.4669342637062073;88.26880645751953
54;1673336256.449961;46.9755343;7.1803564;3.952000141143799;1673336256.6047223;-0.3688918352127075;-2.0311901569366455;88.49935150146484
55;1673336256.6584392;46.9755344;7.1803564;4.151000022888184;1673336256.8126128;0.21144647896289825;3.0342564582824707;88.02189636230469
56;1673336256.8604386;46.9755344;7.180356499999999;4.353000164031982;1673336257.0225506;0.9407380223274231;-0.8272029757499695;87.90621185302734
57;1673336257.0645156;46.9755342;7.180356499999999;4.561000347137451;1673336257.2251306;0.9276884198188782;-2.949331760406494;88.12772369384766
58;1673336257.2797868;46.975533999999996;7.180356499999999;4.76800012588501;1673336257.44972;0.5117018222808838;0.9328452944755554;88.04360961914062
59;1673336257.58929;46.975533999999996;7.1803564;4.974000453948975;1673336257.7432907;-0.43562889099121094;0.7584951519966125;88.19538116455078
60;1673336257.788024;46.975533999999996;7.180356199999999;5.178000450134277;1673336257.9953392;-0.8148688077926636;-3.0815088748931885;88.34620666503906
61;1673336258.0426316;46.975533999999996;7.1803561;5.37600040435791;1673336258.194338;-0.5136739015579224;1.0795950889587402;88.07654571533203
62;1673336258.2422082;46.975533999999996;7.1803561;5.581000328063965;1673336258.4042537;0.5196584463119507;1.4119471311569214;88.04742431640625
63;1673336258.4550312;46.9755338;7.180356199999999;5.7900004386901855;1673336258.6140282;0.4843326508998871;-3.315335750579834;88.01547241210938
64;1673336258.6618795;46.9755337;7.180356199999999;6.00100040435791;1673336258.827132;0.5628646612167358;0.10110098868608475;87.96039581298828
65;1673336258.8720393;46.9755338;7.180356199999999;6.215000152587891;1673336259.0345864;-0.22355607151985168;1.6645292043685913;88.1396255493164
66;1673336259.077532;46.9755338;7.180356199999999;6.429000377655029;1673336259.225884;-0.470975399017334;-3.536978006362915;88.4863510131836
67;1673336259.2816203;46.975533899999995;7.180356199999999;6.633000373840332;1673336259.4324648;-0.33537912368774414;0.6834009289741516;88.00102996826172
68;1673336259.481269;46.975533999999996;7.180356199999999;6.836000442504883;1673336259.6442566;0.24504274129867554;2.0837223529815674;87.85537719726562
69;1673336259.6920855;46.975533999999996;7.180356199999999;7.0400004386901855;1673336259.8441806;0.7337359189987183;-3.4318413734436035;87.91036987304688
70;1673336259.8924563;46.975533999999996;7.180356199999999;7.248000144958496;1673336260.0559733;0.4084377586841583;0.08915191143751144;87.88326263427734
71;1673336260.1028233;46.9755341;7.180356199999999;7.457000255584717;1673336260.2713666;-0.2654285132884979;2.9663259983062744;88.02371215820312
72;1673336260.3328502;46.9755343;7.180356199999999;7.669000148773193;1673336260.4973555;-0.5771753191947937;-1.743600845336914;88.51164245605469
73;1673336260.542311;46.9755342;7.180356199999999;7.886000156402588;1673336260.6965175;-0.25747621059417725;-0.4028901159763336;88.34647369384766
74;1673336260.7549303;46.9755342;7.180356199999999;8.093000411987305;1673336260.9116216;0.3351491391658783;2.4061264991760254;87.89225006103516
75;1673336260.9575648;46.975533999999996;7.1803563;8.301000595092773;1673336261.1150208;0.7020950317382812;-2.7483229637145996;87.99395751953125
76;1673336261.164798;46.975533999999996;7.1803563;8.510000228881836;1673336261.320577;0.3670833110809326;-1.238716721534729;87.898681640625
77;1673336261.3605907;46.9755341;7.1803563;8.7160005569458;1673336261.5168068;0.21325403451919556;2.764150857925415;87.87112426757812
78;1673336261.574096;46.9755342;7.1803563;8.92300033569336;1673336261.729869;-0.4916590750217438;-1.6304563283920288;88.19276428222656
79;1673336261.772838;46.9755342;7.1803563;9.12700080871582;1673336261.9280267;-0.2136324644088745;-1.349285364151001;88.38912963867188
80;1673336261.9934206;46.9755342;7.1803564;9.325000762939453;1673336262.1521792;-0.027626514434814453;2.700505018234253;87.95553588867188
81;1673336262.200003;46.9755341;7.1803564;9.527000427246094;1673336262.35425;0.905481219291687;-0.909739077091217;87.91568756103516
82;1673336262.404927;46.9755341;7.1803564;9.735000610351562;1673336262.562807;0.5663930177688599;-2.389061689376831;88.17346954345703
83;1673336262.606729;46.9755341;7.1803564;9.942000389099121;1673336262.7664425;0.30873531103134155;2.2623353004455566;88.05069732666016
84;1673336262.8171444;46.9755342;7.1803564;10.153000831604004;1673336262.9773726;-0.1394018530845642;0.8713996410369873;88.15229797363281
85;1673336263.0278654;46.9755342;7.180356499999999;10.410000801086426;1673336263.1801605;-0.3402090072631836;-3.48278546333313;88.4522476196289
86;1673336263.228962;46.9755342;7.180356499999999;10.759000778198242;1673336263.3909156;-0.0196545347571373;0.7218302488327026;88.30511474609375
87;1673336263.4337692;46.9755342;7.180356499999999;11.142000198364258;1673336263.6035297;0.4239640533924103;1.3837367296218872;87.87376403808594
88;1673336263.654803;46.9755341;7.180356499999999;11.541000366210938;1673336263.807058;0.8269643783569336;-3.0890016555786133;88.08295440673828
89;1673336263.8559167;46.9755342;7.180356499999999;11.94800090789795;1673336264.0155525;0.6439976692199707;-0.10106372088193893;88.03067016601562
90;1673336264.0746956;46.9755343;7.180356499999999;12.358000755310059;1673336264.226913;0.09733898937702179;2.632596015930176;87.97351837158203
91;1673336264.2747653;46.9755344;7.180356499999999;12.770000457763672;1673336264.4236526;-0.28474774956703186;-1.99287748336792;88.40750122070312
92;1673336264.4724507;46.9755344;7.1803566;13.184000968933105;1673336264.6214023;-0.3736446499824524;0.06315834820270538;88.19883728027344
93;1673336265.0496123;46.9755343;7.180356499999999;13.592000961303711;1673336265.2083244;0.22489282488822937;1.9771599769592285;87.90239715576172
94;1673336265.2522447;46.9755342;7.180356499999999;14.00200080871582;1673336265.4094207;0.5102807283401489;-2.5273678302764893;87.9487533569336
95;1673336265.4513881;46.9755342;7.1803566;14.41300106048584;1673336265.6124299;0.6235159039497375;-0.7158523201942444;87.99227905273438
96;1673336265.6670856;46.9755343;7.180356499999999;14.82300090789795;1673336265.8175318;0.3321912884712219;2.759563684463501;87.94117736816406
97;1673336265.8741376;46.9755344;7.180356499999999;15.233000755310059;1673336266.1239243;-0.12734246253967285;-1.3591382503509521;88.3232650756836
98;1673336266.1691587;46.9755344;7.180356499999999;15.644001007080078;1673336266.3282027;-0.3968655467033386;-1.1226052045822144;88.3788833618164
99;1673336266.3697736;46.9755344;7.1803566;16.04800033569336;1673336266.5347135;0.033692896366119385;2.962031602859497;87.88243103027344
100;1673336266.5747294;46.9755344;7.1803566;16.44300079345703;1673336266.7260463;0.30508267879486084;-1.1530838012695312;87.92583465576172
101;1673336266.7753496;46.9755344;7.1803566;16.836999893188477;1673336266.9398935;0.3990170359611511;-1.921561360359192;88.10428619384766
102;1673336266.9834223;46.975534499999995;7.180356499999999;17.229000091552734;1673336267.1322951;0.46489787101745605;2.9845149517059326;88.02647399902344
103;1673336267.1874058;46.975534599999996;7.180356499999999;17.6200008392334;1673336267.349424;-0.03501105681061745;-0.32189083099365234;88.27125549316406
104;1673336267.3992288;46.975534599999996;7.180356499999999;18.01300048828125;1673336267.550304;-0.35759973526000977;-1.910815715789795;88.28794860839844
105;1673336267.5977495;46.975534599999996;7.180356499999999;18.405000686645508;1673336267.7574737;-0.4399799108505249;2.180344820022583;87.82048797607422
106;1673336267.8052213;46.975534499999995;7.180356499999999;18.793001174926758;1673336267.9652503;0.016869325190782547;0.2658262848854065;87.97900390625
107;1673336268.0120986;46.975534499999995;7.180356499999999;19.18400001525879;1673336268.1673238;0.2464907318353653;-3.005699634552002;88.19292449951172
108;1673336268.2208266;46.975534499999995;7.180356499999999;19.577001571655273;1673336268.3684506;0.7349306344985962;2.0883214473724365;88.11328887939453
109;1673336268.4079103;46.975534599999996;7.180356499999999;19.96900177001953;1673336268.5663037;0.6081603169441223;1.2759610414505005;88.10991668701172
110;1673336268.6141276;46.975534599999996;7.180356499999999;20.35900115966797;1673336268.776801;-0.034646134823560715;-2.476349353790283;88.15374755859375
111;1673336268.820724;46.975534599999996;7.180356499999999;20.749000549316406;1673336268.9779897;-0.3757941722869873;0.8578353524208069;87.97335052490234
112;1673336269.0258148;46.975534599999996;7.180356499999999;21.141000747680664;1673336269.1889307;-0.2881065309047699;1.169901728630066;87.885498046875
113;1673336269.2513983;46.975534599999996;7.180356499999999;21.527000427246094;1673336269.4115112;0.0615273155272007;-2.5751094818115234;88.10688781738281
114;1673336269.4525685;46.975534599999996;7.180356499999999;21.920001983642578;1673336269.6160228;0.5039398670196533;2.0308914184570312;88.0554428100586
115;1673336269.6579912;46.9755347;7.180356499999999;22.312000274658203;1673336269.8170815;0.6343761086463928;2.3210041522979736;88.05640411376953
116;1673336269.8639278;46.9755347;7.180356499999999;22.70600128173828;1673336270.0532713;0.45328041911125183;-2.4843132495880127;88.19123840332031
117;1673336270.0948453;46.975534499999995;7.180356499999999;23.09800148010254;1673336270.2471757;-0.2815277576446533;-0.30553242564201355;87.96166229248047
118;1673336270.2881682;46.975534499999995;7.180356499999999;23.487001419067383;1673336270.4423778;-0.2364444136619568;2.1653506755828857;87.73890686035156
119;1673336270.4876077;46.9755344;7.1803564;23.871000289916992;1673336270.6512775;-0.2552407383918762;-2.4858174324035645;88.24029541015625
120;1673336270.6961725;46.9755344;7.1803564;24.260000228881836;1673336270.8591642;0.2640830874443054;-0.44993171095848083;88.18270111083984
121;1673336270.9069877;46.975534499999995;7.1803564;24.654001235961914;1673336271.057294;0.5233725309371948;3.0260872840881348;88.115478515625
122;1673336271.0988486;46.975534499999995;7.1803564;25.049001693725586;1673336271.26474;0.7819920778274536;-1.4078664779663086;88.18255615234375
123;1673336271.3096337;46.9755344;7.1803564;25.441001892089844;1673336271.4716523;0.2442377358675003;-1.2208751440048218;88.08157348632812
124;1673336271.526847;46.9755344;7.1803564;25.83100128173828;1673336271.680633;-0.22277528047561646;2.462869644165039;87.98577117919922
125;1673336271.726478;46.9755344;7.1803564;26.215002059936523;1673336271.8807611;-0.4835071563720703;-1.2889435291290283;88.15408325195312
126;1673336271.9276078;46.9755344;7.1803563;26.606000900268555;1673336272.0984557;0.11149842292070389;-1.2715178728103638;88.27606201171875
127;1673336272.1463075;46.975534499999995;7.1803563;27.001001358032227;1673336272.3093367;0.3546120226383209;3.0484578609466553;88.00677490234375
128;1673336272.361064;46.975534499999995;7.1803563;27.400001525878906;1673336272.5308905;0.6188348531723022;0.12612785398960114;88.14694213867188
129;1673336272.578492;46.975534499999995;7.1803563;27.798002243041992;1673336272.7248373;0.31763288378715515;-1.7389434576034546;88.07927703857422
130;1673336272.7775404;46.9755344;7.180356199999999;28.190000534057617;1673336272.9378116;0.10353915393352509;1.803434133529663;87.91959381103516
131;1673336272.9827073;46.9755344;7.180356199999999;28.578001022338867;1673336273.1611462;-0.37223368883132935;0.8868972659111023;88.0475845336914
132;1673336273.2099812;46.9755344;7.1803561;28.964000701904297;1673336273.3706298;-0.7159861326217651;-2.519416570663452;88.44249725341797
133;1673336273.411558;46.975534499999995;7.1803561;29.35500144958496;1673336273.564463;-0.12717106938362122;1.9830546379089355;87.92850494384766
134;1673336273.613631;46.975534499999995;7.1803561;29.748001098632812;1673336273.7808156;0.48842936754226685;1.6852810382843018;87.88330078125
135;1673336273.8316307;46.975534499999995;7.180356199999999;30.139001846313477;1673336273.9737673;0.5654867887496948;-2.4713573455810547;88.0614013671875
136;1673336274.0183046;46.9755344;7.180356199999999;30.53400230407715;1673336274.1895301;0.5952879190444946;-0.15295659005641937;87.92709350585938
137;1673336274.2344503;46.9755343;7.180356199999999;30.930002212524414;1673336274.388211;0.41725799441337585;2.0785679817199707;88.11798858642578
138;1673336274.4348223;46.9755343;7.180356199999999;31.322002410888672;1673336274.603702;-0.04198325425386429;-2.6663413047790527;88.40878295898438
139;1673336274.6573813;46.9755343;7.180356199999999;31.716001510620117;1673336274.808729;-0.22129087150096893;-0.7310246229171753;88.15652465820312
140;1673336274.8546617;46.9755343;7.180356199999999;32.1140022277832;1673336275.010761;0.05301657319068909;2.504605531692505;87.76648712158203
141;1673336275.0595636;46.9755343;7.1803563;32.51000213623047;1673336275.2216752;0.44090536236763;-2.0992085933685303;88.1629867553711
142;1673336275.2655962;46.9755342;7.1803563;32.906002044677734;1673336275.4194567;0.7991861701011658;-1.153442621231079;88.1373062133789
143;1673336275.4642525;46.9755342;7.1803563;33.303001403808594;1673336275.6268787;0.8733224272727966;2.8397955894470215;88.06566619873047
144;1673336275.6746736;46.9755343;7.180356199999999;33.69700241088867;1673336275.8308368;0.22014766931533813;-1.2820340394973755;88.33464050292969
145;1673336275.8786583;46.9755342;7.180356199999999;34.09100341796875;1673336276.0374303;-0.06674259155988693;-2.0719730854034424;88.20557403564453
146;1673336276.082326;46.9755342;7.180356199999999;34.4900016784668;1673336276.2394965;-0.31118258833885193;2.5500073432922363;87.89289855957031
147;1673336276.280486;46.9755342;7.1803561;34.89200210571289;1673336276.4325986;-0.013600907288491726;-0.7668417692184448;87.97032165527344
148;1673336276.4795187;46.9755341;7.180356;35.28600311279297;1673336276.6385317;0.3882412314414978;-2.814114570617676;88.2059326171875
149;1673336276.6951425;46.975533999999996;7.1803558999999995;35.68000030517578;1673336276.8508713;0.6434588432312012;2.2898941040039062;88.11961364746094
150;1673336276.9035707;46.9755341;7.1803558;36.073001861572266;1673336277.0646503;0.19305814802646637;0.63912433385849;88.25039672851562
151;1673336277.113505;46.9755341;7.1803558;36.46200180053711;1673336277.2803783;-0.02512751705944538;-2.6334903240203857;88.17963409423828
152;1673336277.3341238;46.9755342;7.1803558;36.85900115966797;1673336277.4892406;-0.4212324619293213;1.8162074089050293;87.81827545166016
153;1673336277.5371158;46.9755343;7.1803558;37.25699996948242;1673336277.7124116;-0.41130372881889343;2.3617424964904785;87.84942626953125
154;1673336277.7563398;46.9755342;7.1803558;37.65700149536133;1673336277.921823;-0.07508983463048935;-2.707740545272827;88.23991394042969
155;1673336277.9668126;46.9755341;7.1803558;38.05900192260742;1673336278.1273973;0.3129313886165619;0.06483708322048187;88.1624526977539
156;1673336278.1703424;46.9755341;7.1803558;38.46000289916992;1673336278.336837;0.5901426076889038;1.7860159873962402;88.06356048583984
157;1673336278.3807585;46.9755341;7.1803558;38.85700225830078;1673336278.5384183;0.6843258738517761;-1.9572471380233765;88.18668365478516
158;1673336278.5989318;46.9755341;7.1803558;39.25100326538086;1673336278.7424543;-0.30744463205337524;-0.25046229362487793;87.96257781982422
159;1673336278.7883272;46.9755342;7.1803558;39.64600372314453;1673336278.9493737;-0.26264846324920654;3.162940740585327;87.85562133789062
160;1673336278.9971924;46.9755342;7.1803558;40.04500198364258;1673336279.1588247;-0.33959200978279114;-0.7944700121879578;88.12908935546875
161;1673336279.1920087;46.9755341;7.1803558;40.445003509521484;1673336279.3488238;0.31787779927253723;-1.68886399269104;88.29900360107422
162;1673336279.3907888;46.975533999999996;7.1803557;40.84800338745117;1673336279.5401165;0.6015610098838806;2.919459819793701;88.11494445800781
163;1673336279.5908694;46.975533999999996;7.1803557;41.24700164794922;1673336279.7617311;0.5171521306037903;-1.3933417797088623;88.16593170166016
164;1673336279.8056512;46.975533999999996;7.1803557;41.64400100708008;1673336279.984202;0.30909091234207153;-1.9346129894256592;88.12637329101562
165;1673336280.0349534;46.9755341;7.1803555999999995;42.044002532958984;1673336280.1813574;-0.3727981746196747;2.7756645679473877;87.80012512207031
166;1673336280.2291784;46.975533999999996;7.1803555999999995;42.44600296020508;1673336280.384365;-0.4589986205101013;-0.09372644871473312;88.14261627197266
167;1673336280.434179;46.975533899999995;7.1803555999999995;42.845001220703125;1673336280.601745;-0.5715307593345642;-2.7721498012542725;88.32164764404297
168;1673336280.647291;46.9755338;7.1803555999999995;43.24400329589844;1673336280.7996607;-0.07901421189308167;2.048919916152954;88.01992797851562
169;1673336280.8480558;46.9755338;7.1803555999999995;43.64600372314453;1673336281.018055;0.487307608127594;0.24121972918510437;87.98744201660156
170;1673336281.0824726;46.9755338;7.1803555999999995;44.04600143432617;1673336281.247986;0.5102538466453552;-2.346416473388672;88.16716766357422
171;1673336281.299715;46.975533899999995;7.1803555;44.452003479003906;1673336281.4607534;-0.10851799696683884;1.703359842300415;87.85490417480469
172;1673336281.5047615;46.975533999999996;7.1803555;44.855003356933594;1673336281.6606724;-0.35023611783981323;1.8064314126968384;87.87273406982422
173;1673336281.7153385;46.975533899999995;7.1803555;45.26300048828125;1673336281.868728;-0.4950004816055298;-2.4604485034942627;88.29724884033203
174;1673336281.9097188;46.9755338;7.1803555999999995;45.66800308227539;1673336282.0736876;-0.36161887645721436;0.5975576639175415;88.07018280029297
175;1673336282.133269;46.9755338;7.1803557;46.06900405883789;1673336282.286897;0.2700965404510498;2.073153257369995;87.83364868164062
176;1673336282.3298855;46.9755338;7.1803557;46.470001220703125;1673336282.5009053;0.44042932987213135;-2.1073215007781982;88.1364517211914
177;1673336282.5552027;46.9755338;7.1803558;46.8650016784668;1673336282.703556;0.5324860215187073;-0.3292757570743561;88.0584487915039
178;1673336282.7520442;46.975533899999995;7.1803558;47.26100158691406;1673336282.9064288;0.3311094343662262;3.235307216644287;87.99373626708984
179;1673336282.9533124;46.975533899999995;7.1803557;47.660003662109375;1673336283.1216636;-0.2626108229160309;-1.8931643962860107;88.24382781982422
180;1673336283.163194;46.9755338;7.1803557;48.05600357055664;1673336283.3239863;-0.7962592244148254;-0.7964122891426086;88.24845123291016
181;1673336283.3718405;46.9755337;7.1803557;48.45000076293945;1673336283.5289896;-0.2517659366130829;2.5870559215545654;87.883544921875
182;1673336283.5797455;46.9755338;7.1803558;48.84600067138672;1673336283.7355258;0.24093803763389587;-1.2109156847000122;88.07171630859375
183;1673336283.785301;46.9755338;7.1803558;49.24100112915039;1673336283.9389498;0.6158325672149658;-1.5347250699996948;88.23966217041016
184;1673336283.979945;46.975533899999995;7.1803558999999995;49.637001037597656;1673336284.126109;0.6612010598182678;2.8521459102630615;87.94627380371094
185;1673336284.171728;46.975533899999995;7.1803558999999995;50.035003662109375;1673336284.3505185;-0.025514252483844757;-0.46409520506858826;88.23130798339844
186;1673336284.397367;46.9755338;7.1803558;50.428001403808594;1673336284.559384;-0.28125667572021484;-1.9128987789154053;88.28190612792969
187;1673336284.6033082;46.9755338;7.1803558;50.81900405883789;1673336284.7760692;-0.4529210329055786;2.4017891883850098;87.98579406738281
188;1673336284.8190422;46.9755338;7.1803558;51.20900344848633;1673336284.969947;0.1667119413614273;0.3968872129917145;87.87820434570312
189;1673336285.0236683;46.9755338;7.1803558999999995;51.59800338745117;1673336285.1882415;0.3173384964466095;-2.3008294105529785;88.1436996459961
190;1673336285.2359786;46.975533899999995;7.1803558;51.99100112915039;1673336285.3926477;0.618643045425415;2.4390974044799805;87.94977569580078
191;1673336285.4365704;46.975533999999996;7.1803558;52.38600158691406;1673336285.592129;0.5220783948898315;1.5100301504135132;88.12008666992188
192;1673336285.6536179;46.975533899999995;7.1803558;52.78000259399414;1673336285.8030474;-0.09870940446853638;-2.972968578338623;88.18791198730469
193;1673336285.8455398;46.9755338;7.1803557;53.17400360107422;1673336286.0009787;-0.42986157536506653;1.5484079122543335;87.80353546142578
194;1673336286.0526123;46.975533899999995;7.1803557;53.57100296020508;1673336286.2137089;-0.4094860553741455;2.1636009216308594;87.76835632324219
195;1673336286.2644944;46.975533899999995;7.1803557;53.96200180053711;1673336286.4154947;0.02111414074897766;-2.35660457611084;88.24293518066406
196;1673336286.462997;46.975533899999995;7.1803558;54.353004455566406;1673336286.6255221;0.1019102931022644;0.3177153468132019;88.24726104736328
197;1673336286.6763074;46.975533999999996;7.1803558;54.737003326416016;1673336286.8344004;0.3765874207019806;2.456590414047241;87.98555755615234
198;1673336286.8837445;46.975533899999995;7.1803558;55.12900161743164;1673336287.0366077;0.6371573805809021;-1.0032742023468018;88.19206237792969
199;1673336287.08452;46.9755338;7.1803558;55.525001525878906;1673336287.2555828;0.47099098563194275;-2.477163791656494;88.10059356689453
200;1673336287.3014932;46.9755338;7.1803557;55.92400360107422;1673336287.4587626;-0.06164150685071945;2.509593963623047;87.89651489257812
201;1673336287.4997873;46.975533899999995;7.1803557;56.32100296020508;1673336287.6559184;-0.40591058135032654;0.410525381565094;88.07848358154297
202;1673336287.6959295;46.975533999999996;7.1803557;56.721004486083984;1673336287.852648;-0.40040621161460876;-1.49679434299469;88.31498718261719
203;1673336287.8936412;46.9755341;7.1803557;57.096004486083984;1673336288.0518148;0.2806214690208435;3.195408582687378;87.82328033447266
204;1673336288.1013799;46.9755341;7.1803557;57.422000885009766;1673336288.2552173;0.4407446086406708;-0.3294764459133148;88.08609008789062
205;1673336288.295236;46.975533999999996;7.1803558;57.69600296020508;1673336288.456891;0.1915293186903;-2.6184465885162354;88.31966400146484
206;1673336288.5076437;46.975533999999996;7.1803558;57.923004150390625;1673336288.6677084;0.024073107168078423;2.4180550575256348;88.09781646728516
207;1673336288.7135792;46.975533999999996;7.1803558;58.11000442504883;1673336288.8849628;0.12125013768672943;-0.3379645347595215;87.98192596435547
208;1673336288.9248898;46.975533999999996;7.1803558;58.26700210571289;1673336289.094748;7.381861209869385;-9.668667793273926;85.66783142089844
209;1673336289.1474824;46.9755342;7.1803557;58.40300369262695;1673336289.3104594;21.939125061035156;-31.313188552856445;73.2593002319336
210;1673336289.3553264;46.9755349;7.1803545;58.53000259399414;1673336289.5251362;24.677309036254883;-47.340118408203125;62.246829986572266
211;1673336289.5758836;46.9755373;7.180350499999999;58.6510009765625;1673336289.737903;11.026206970214844;-57.179649353027344;54.08965301513672
212;1673336289.7906075;46.975541899999996;7.1803428;58.73600387573242;1673336290.0426307;-10.955628395080566;-58.916812896728516;43.066654205322266
213;1673336290.0846777;46.9755493;7.1803317;58.802001953125;1673336290.3511739;-28.353759765625;-53.676002502441406;31.514066696166992
214;1673336290.404743;46.9755592;7.180317499999999;58.845001220703125;1673336290.5959556;-37.95106506347656;-44.195926666259766;19.408973693847656
215;1673336290.6486628;46.9755714;7.1803009;58.86600112915039;1673336290.816141;-46.73039245605469;-37.9693489074707;8.654067039489746
216;1673336290.8713472;46.9755853;7.180282399999999;58.86900329589844;1673336291.0295331;-52.90413284301758;-33.76128387451172;-2.3129069805145264
217;1673336291.0744476;46.9756007;7.1802622;58.84700393676758;1673336291.237404;-48.15831756591797;-24.2839412689209;-11.247336387634277
218;1673336291.2901065;46.975617299999996;7.1802402999999995;58.794002532958984;1673336291.4374826;-45.86628341674805;-18.498645782470703;-16.697282791137695
219;1673336291.4915771;46.9756346;7.1802174999999995;58.737003326416016;1673336291.7457325;-48.347618103027344;-13.754399299621582;-23.6082820892334
220;1673336291.799423;46.975652499999995;7.180193999999999;58.68700408935547;1673336291.9638727;-46.13294219970703;-8.622925758361816;-31.266128540039062
221;1673336292.0292606;46.975670699999995;7.1801699;58.64600372314453;1673336292.2002716;-46.66423416137695;-4.4477410316467285;-37.98508071899414
222;1673336292.2461545;46.975688899999994;7.1801454;58.62400436401367;1673336292.4118552;-46.470516204833984;2.870365619659424;-44.580745697021484
223;1673336292.454796;46.9757074;7.1801207;58.60900115966797;1673336292.7066479;-42.8231201171875;5.786584854125977;-36.69989013671875
224;1673336292.7476387;46.975725999999995;7.1800963;58.5880012512207;1673336292.9213684;-34.5304069519043;1.2170060873031616;-21.14979362487793
225;1673336292.9702013;46.9757448;7.1800730999999995;58.552001953125;1673336293.1351123;-33.01455307006836;-3.5043861865997314;-10.671647071838379
226;1673336293.1848862;46.9757635;7.1800516;58.53400421142578;1673336293.3391309;-36.05598449707031;-8.551246643066406;-1.5696938037872314
227;1673336293.3869867;46.975782099999996;7.1800317;58.54300308227539;1673336293.5582728;-41.27709197998047;-21.924097061157227;-1.5360355377197266
228;1673336293.6057808;46.975800799999995;7.1800128;58.58500289916992;1673336293.768944;-49.42717361450195;-23.608871459960938;-18.813854217529297
229;1673336293.816938;46.9758199;7.1799934;58.6400032043457;1673336293.9780552;-49.660648345947266;-13.185028076171875;-32.096553802490234
230;1673336294.0297825;46.975839099999995;7.1799724;58.68400192260742;1673336294.1738155;-47.13759994506836;-8.67345142364502;-40.17994689941406
231;1673336294.222666;46.975858099999996;7.1799501999999995;58.72600173950195;1673336294.383462;-46.46736526489258;-2.984952688217163;-45.436405181884766
232;1673336294.4215598;46.9758767;7.179926999999999;58.7660026550293;1673336294.5763483;-48.839786529541016;4.17410135269165;-44.21342086791992
233;1673336294.620231;46.9758952;7.1799031;58.81300354003906;1673336294.782361;-52.65803909301758;4.814819812774658;-42.060386657714844
234;1673336294.8282356;46.9759142;7.179878899999999;58.85200119018555;1673336295.07777;-51.072444915771484;0.868747889995575;-40.735939025878906
235;1673336295.225484;46.9759337;7.179854499999999;58.880001068115234;1673336295.378727;-49.03933334350586;0.49537762999534607;-40.503334045410156
236;1673336295.4174123;46.975953399999995;7.1798299;58.90800094604492;1673336295.57756;-48.94300079345703;0.9679796695709229;-40.2976188659668
237;1673336295.6342113;46.9759733;7.179805099999999;58.927001953125;1673336295.785567;-48.98211669921875;2.9915568828582764;-40.70595169067383
238;1673336295.828511;46.9759934;7.1797802;58.93800354003906;1673336296.1033235;-48.41372299194336;-0.09366665035486221;-39.668521881103516
239;1673336296.1491973;46.976013699999996;7.1797553999999995;58.94600296020508;1673336296.3023481;-47.947784423828125;-0.830960214138031;-39.656219482421875
240;1673336296.3550518;46.976034;7.1797305;58.952003479003906;1673336296.5190232;-47.41701889038086;-0.4958456754684448;-39.823238372802734
241;1673336296.560988;46.9760543;7.1797055;58.954002380371094;1673336296.7124312;-47.42060470581055;-0.1410975605249405;-40.057281494140625
242;1673336296.7583263;46.9760746;7.1796804;58.95600128173828;1673336296.911536;-47.68569564819336;-0.03483213484287262;-40.18400192260742
243;1673336296.9603345;46.976095;7.179655299999999;58.961002349853516;1673336297.1195338;-47.9220085144043;-0.009988315403461456;-40.24415588378906
244;1673336297.1741905;46.9761153;7.1796301;58.96400451660156;1673336297.3387036;-47.9494514465332;-0.0022715083323419094;-40.263824462890625
245;1673336297.4878807;46.9761356;7.1796048;58.967002868652344;1673336297.6454709;-47.804290771484375;0.08170317858457565;-40.32461929321289
246;1673336297.6845114;46.976155899999995;7.179579599999999;58.974002838134766;1673336297.8533595;-47.989959716796875;0.11848165839910507;-40.3608283996582
247;1673336297.9002056;46.9761762;7.1795542999999995;58.978004455566406;1673336298.0491045;-48.01294708251953;0.10176175832748413;-40.370269775390625
248;1673336298.0937455;46.9761965;7.179529;58.98400115966797;1673336298.2625668;-47.8658447265625;0.4985625743865967;-40.49633026123047
249;1673336298.3074586;46.976216799999996;7.1795037;58.9900016784668;1673336298.4654298;-47.98115921020508;-0.36998575925827026;-40.18287658691406
250;1673336298.506465;46.976237;7.1794784;58.9890022277832;1673336298.7633407;-47.976009368896484;-0.5450296998023987;-40.42069625854492
251;1673336298.8072596;46.9762573;7.179453;58.98800277709961;1673336299.0131962;-47.0847282409668;1.3238078355789185;-40.9104118347168
252;1673336299.0590684;46.976277499999995;7.1794275;58.99100112915039;1673336299.2220602;-47.88563919067383;0.2980920672416687;-40.29115676879883
253;1673336299.2659798;46.976297699999996;7.179402199999999;58.99900436401367;1673336299.4315867;-48.64128494262695;0.509383499622345;-40.38304138183594
254;1673336299.4764833;46.976318;7.1793768;59.00400161743164;1673336299.6472836;-48.21685791015625;1.5190092325210571;-40.585567474365234
255;1673336299.6902275;46.976338299999995;7.1793514;59.009002685546875;1673336299.8499076;-46.1710090637207;1.187883734703064;-40.2760009765625
256;1673336299.8908994;46.9763587;7.1793261;59.018001556396484;1673336300.0491822;-37.64479064941406;0.6668321490287781;-40.43000793457031
257;1673336300.0970016;46.9763789;7.179301199999999;59.04900360107422;1673336300.260577;-21.89255142211914;0.4327233135700226;-40.46185302734375
258;1673336300.3015704;46.9763984;7.1792772;59.070003509521484;1673336300.466312;-5.758203983306885;-0.1928657740354538;-40.54343795776367
259;1673336300.5107517;46.9764165;7.1792549;59.07400131225586;1673336300.6830971;5.686944484710693;-0.8057549595832825;-40.82931900024414
260;1673336300.7285066;46.9764325;7.179235299999999;59.064002990722656;1673336300.8882148;12.108053207397461;-2.062986135482788;-40.72006607055664
261;1673336300.9292643;46.9764462;7.179218499999999;59.04300308227539;1673336301.085431;18.818326950073242;-2.8481640815734863;-40.16257095336914
262;1673336301.1313505;46.976457599999996;7.179204299999999;58.9900016784668;1673336301.394873;18.8684139251709;0.4978123903274536;-39.9211540222168
263;1673336301.4696329;46.976466699999996;7.1791931;58.90400314331055;1673336301.624893;15.99777889251709;1.2569279670715332;-41.3856315612793
264;1673336301.669789;46.9764737;7.1791845;58.83000183105469;1673336301.8257961;10.967961311340332;0.4417794346809387;-40.88719177246094
265;1673336301.8667843;46.976479;7.1791779;58.794002532958984;1673336302.0288033;1.925660490989685;-3.9645156860351562;-39.2113151550293
266;1673336302.0727212;46.976482999999995;7.1791728;58.78700256347656;1673336302.2355456;-2.726473093032837;-1.9046860933303833;-39.40756607055664
267;1673336302.279465;46.9764863;7.1791683;58.80000305175781;1673336302.4322765;-7.667816638946533;-2.8492650985717773;-40.144264221191406
268;1673336302.4849806;46.976489099999995;7.1791643999999994;58.83500289916992;1673336302.6345642;-8.55927848815918;0.3416770398616791;-40.840335845947266
269;1673336302.6785116;46.9764919;7.1791604;58.884002685546875;1673336302.8365946;-9.674945831298828;2.9419333934783936;-41.26612091064453
270;1673336302.8834846;46.976494699999996;7.1791566;58.93100357055664;1673336303.0386283;-9.464167594909668;1.298173427581787;-41.30649948120117
271;1673336303.0825481;46.976497599999995;7.1791528;58.970001220703125;1673336303.2412138;-7.375955104827881;1.5339369773864746;-40.94356918334961
272;1673336303.283181;46.9765005;7.1791491;59.000003814697266;1673336303.4442196;-4.533807754516602;-2.517263174057007;-40.36763000488281
273;1673336303.4861875;46.9765033;7.1791455;59.02800369262695;1673336303.6921544;-0.16797466576099396;-0.131954625248909;-40.25398254394531
274;1673336303.8385417;46.9765058;7.1791421;59.05000305175781;1673336304.0337422;3.1461424827575684;1.0015748739242554;-39.77022933959961
275;1673336304.0835547;46.9765081;7.1791393;59.066001892089844;1673336304.2393122;3.6182310581207275;-1.1439863443374634;-39.51412582397461
276;1673336304.2890875;46.97651;7.179137;59.0780029296875;1673336304.4438953;1.607948899269104;1.5618497133255005;-39.887168884277344
277;1673336304.492694;46.976511599999995;7.179135;59.08900451660156;1673336304.6551273;-0.9672536849975586;2.5308704376220703;-40.35976028442383
278;1673336304.700025;46.976513;7.1791333999999996;59.096004486083984;1673336304.861651;-0.5781286358833313;-2.94529390335083;-39.874420166015625
279;1673336304.901632;46.9765142;7.179132;59.10400390625;1673336305.072966;0.6687061190605164;-2.23582124710083;-40.21903610229492
280;1673336305.117863;46.976515199999994;7.179130799999999;59.11000442504883;1673336305.2730482;1.653965950012207;0.3364068567752838;-40.27214050292969
281;1673336305.320867;46.976516;7.1791298;59.11600112915039;1673336305.4913177;2.6430811882019043;-2.9473562240600586;-39.90176010131836
282;1673336305.5430903;46.976516499999995;7.179128899999999;59.11900329589844;1673336305.6993024;-19.101091384887695;2.05316162109375;-41.32963562011719
283;1673336305.73896;46.976517199999996;7.1791278;59.12200164794922;1673336305.9956481;-44.06441116333008;2.955169200897217;-46.85307312011719
284;1673336306.0431888;46.9765188;7.1791255;59.11600112915039;1673336306.2081313;-46.33346176147461;2.784578800201416;-50.29484939575195
285;1673336306.2579532;46.976521999999996;7.1791206999999995;59.07200241088867;1673336306.4189458;-37.15876388549805;-4.925544261932373;-49.23896789550781
286;1673336306.4653769;46.9765265;7.1791136;59.00400161743164;1673336306.6347795;-33.00088882446289;-4.662680625915527;-49.18505096435547
287;1673336306.6796284;46.976531699999995;7.1791046;58.95900344848633;1673336306.8423998;-40.10169982910156;-2.342758893966675;-48.58808898925781
288;1673336306.8872879;46.976537699999994;7.1790937999999995;58.958003997802734;1673336307.0473514;-47.00994110107422;0.9856769442558289;-48.79750061035156
289;1673336307.094283;46.9765449;7.179081;58.98100280761719;1673336307.2572503;-53.55533981323242;0.6914132237434387;-48.73554992675781
290;1673336307.3001957;46.976553599999995;7.1790658999999994;59.018001556396484;1673336307.4544342;-58.26148223876953;0.39110609889030457;-49.01580810546875
291;1673336307.4983554;46.976563899999995;7.179048099999999;59.064002990722656;1673336307.654117;-58.75300979614258;0.5096984505653381;-49.64804458618164
292;1673336307.699989;46.9765759;7.1790277;59.10400390625;1673336307.854808;-55.8326416015625;-1.3017085790634155;-49.3935546875
293;1673336307.9016547;46.9765893;7.179005;59.131004333496094;1673336308.0665991;-55.37912368774414;0.2811642587184906;-49.6289176940918
294;1673336308.1095512;46.9766036;7.1789803999999995;59.150001525878906;1673336308.2667606;-54.50440216064453;0.3027273416519165;-49.562713623046875
295;1673336308.3097372;46.9766189;7.1789543;59.16100311279297;1673336308.466966;-51.853092193603516;-0.1856858730316162;-49.468631744384766
296;1673336308.5177183;46.9766347;7.1789273;59.165000915527344;1673336308.672899;-50.579437255859375;-0.014835314825177193;-49.49889373779297
297;1673336308.7236562;46.976651;7.178899599999999;59.1670036315918;1673336308.884266;-49.58243179321289;-0.2149762064218521;-49.48515701293945
298;1673336308.9301395;46.9766675;7.1788713;59.1670036315918;1673336309.0921538;-47.81809997558594;0.10712634027004242;-49.648250579833984
299;1673336309.1390657;46.9766841;7.178842899999999;59.1660041809082;1673336309.305598;-46.63486862182617;0.09444361925125122;-49.659912109375
300;1673336309.3501992;46.9767009;7.1788142;59.16200256347656;1673336309.522952;-45.846317291259766;0.1508219689130783;-49.67675018310547
301;1673336309.5594172;46.976717699999995;7.1787854;59.160003662109375;1673336309.7165945;-45.23206329345703;0.03511901944875717;-49.634376525878906
302;1673336309.762215;46.9767344;7.1787567;59.15700149536133;1673336309.9154456;-45.155906677246094;0.2532053589820862;-49.685691833496094
303;1673336309.961411;46.976751;7.1787281;59.15700149536133;1673336310.131237;-44.30379104614258;0.13111908733844757;-49.54689407348633
304;1673336310.174807;46.976767599999995;7.1786996;59.15200424194336;1673336310.3338969;-29.994125366210938;1.877394199371338;-49.97795486450195
305;1673336310.3778176;46.9767838;7.1786718;59.138004302978516;1673336310.5369043;-22.715599060058594;-0.6504589915275574;-48.959712982177734
306;1673336310.581802;46.976799199999995;7.1786455;59.11900329589844;1673336310.754753;-16.56471061706543;-0.40816181898117065;-49.74334716796875
307;1673336310.8035474;46.9768137;7.1786208;59.09800338745117;1673336310.9908118;-8.499067306518555;-1.0422120094299316;-49.652286529541016
308;1673336311.039612;46.9768271;7.178598;59.07200241088867;1673336311.1855702;-2.8642706871032715;-0.5368251204490662;-49.7784309387207
309;1673336311.2353458;46.976839;7.1785774;59.04500198364258;1673336311.3850393;1.8266993761062622;1.1257351636886597;-49.92670440673828
310;1673336311.427009;46.9768495;7.1785593;59.025001525878906;1673336311.5793135;5.955537796020508;-2.47709321975708;-48.0987434387207
311;1673336311.6261637;46.9768586;7.1785437;59.00200271606445;1673336311.7833352;7.52414608001709;-1.4960993528366089;-46.57849884033203
312;1673336311.8272545;46.976866199999996;7.1785307;58.98100280761719;1673336311.9873817;9.38921070098877;-0.2643145024776459;-46.62176513671875
313;1673336312.0320892;46.9768725;7.1785197;58.965003967285156;1673336312.1982496;5.43150520324707;2.6175522804260254;-48.033790588378906
314;1673336312.24122;46.976877699999996;7.1785106999999995;58.95500183105469;1673336312.3973064;0.659268319606781;3.3081252574920654;-49.2089729309082
315;1673336312.4451284;46.9768821;7.1785030999999995;58.9530029296875;1673336312.598688;-0.40394070744514465;-4.005246162414551;-48.92344665527344
316;1673336312.6416306;46.9768858;7.1784966;58.95600128173828;1673336312.795925;-0.4009537696838379;0.6020581722259521;-49.512367248535156
317;1673336312.842773;46.976889;7.1784908;58.96200180053711;1673336313.007757;0.38756120204925537;-2.2349536418914795;-49.130367279052734
318;1673336313.0545676;46.976891699999996;7.1784856999999995;58.970001220703125;1673336313.203686;-0.21599039435386658;3.1297757625579834;-49.039588928222656
319;1673336313.2476044;46.9768942;7.1784811;58.980003356933594;1673336313.409621;-2.133169412612915;3.55088210105896;-48.882869720458984
320;1673336313.4545193;46.976896499999995;7.1784772;58.987003326416016;1673336313.6125915;-3.160088062286377;0.852636992931366;-48.19633865356445
321;1673336313.6555364;46.9768986;7.1784737;58.98800277709961;1673336313.824916;-2.9305458068847656;1.9701077938079834;-48.088504791259766
322;1673336313.8659103;46.9769005;7.1784706;58.9890022277832;1673336314.0279684;-0.10611189901828766;-1.2397416830062866;-47.89743423461914
323;1673336314.069938;46.9769023;7.178467899999999;58.99200439453125;1673336314.2305965;2.282363176345825;-2.1182096004486084;-47.99993133544922
324;1673336314.2787154;46.9769037;7.1784655;58.99500274658203;1673336314.4407015;2.4246675968170166;0.2886728048324585;-48.20227813720703
325;1673336314.4939868;46.976904999999995;7.1784634;58.99800109863281;1673336314.6513689;0.7819963693618774;3.699392557144165;-48.01154708862305
326;1673336314.700827;46.9769061;7.1784617;58.99900436401367;1673336314.852822;-0.6881647706031799;1.7596471309661865;-48.30528259277344
327;1673336314.9002054;46.9769071;7.178460299999999;58.99700164794922;1673336315.0868895;-1.465181827545166;-1.2868479490280151;-48.62074661254883
328;1673336315.1395197;46.9769079;7.1784590999999995;58.99400329589844;1673336315.3005605;0.7402870059013367;-1.09380304813385;-48.447975158691406
329;1673336315.3454561;46.9769085;7.178458099999999;58.98800277709961;1673336315.5175064;2.4998152256011963;-1.077033281326294;-48.138580322265625
330;1673336315.5682576;46.976909;7.1784573;58.98600387573242;1673336315.7254376;7.98127555847168;8.812312126159668;-44.50432205200195
331;1673336315.765493;46.9769094;7.178456799999999;58.99900436401367;1673336315.921216;2.9562625885009766;15.343703269958496;-34.29138946533203
332;1673336315.972964;46.97691;7.1784573;59.031002044677734;1673336316.1316183;-4.023477077484131;16.66407012939453;-20.172704696655273
333;1673336316.1761036;46.9769109;7.1784590999999995;59.14500427246094;1673336316.318715;-11.7412748336792;20.795127868652344;-9.48447322845459
334;1673336316.3636124;46.976912399999996;7.1784623;59.35000228881836;1673336316.5110383;-24.031211853027344;23.07798957824707;-0.33426526188850403
335;1673336316.5569124;46.976914799999996;7.1784671;59.62300109863281;1673336316.7151132;-38.573028564453125;25.239501953125;9.507753372192383
336;1673336316.7658641;46.9769188;7.1784741;59.952003479003906;1673336316.9297245;-47.088035583496094;20.256240844726562;19.998605728149414
337;1673336316.970386;46.9769247;7.1784842;60.301002502441406;1673336317.15442;-53.187530517578125;12.427400588989258;29.78399085998535
338;1673336317.1994188;46.976932999999995;7.1784976;60.66100311279297;1673336317.3576524;-54.90387725830078;3.655452251434326;39.550941467285156
339;1673336317.4074779;46.976943399999996;7.1785141999999995;61.02800369262695;1673336317.5747147;-52.83253479003906;-3.6117842197418213;47.21767044067383
340;1673336317.6161041;46.9769556;7.1785331999999995;61.39600372314453;1673336317.7732406;-45.591434478759766;-10.365206718444824;50.58198928833008
341;1673336317.8191495;46.9769691;7.1785536;61.74900436401367;1673336317.986588;-45.97313690185547;-6.084646701812744;48.18280029296875
342;1673336318.0412707;46.9769837;7.1785744;62.09700393676758;1673336318.196964;-43.02699279785156;-4.17312479019165;46.347015380859375
343;1673336318.2379565;46.976999;7.1785958;62.441001892089844;1673336318.3927636;-41.34275817871094;-1.693354845046997;45.248069763183594
344;1673336318.4395828;46.9770147;7.1786173;62.794002532958984;1673336318.5955067;-39.965946197509766;-0.3285418450832367;45.3045654296875
345;1673336318.641241;46.9770305;7.1786389999999995;63.156002044677734;1673336318.9896755;-38.40736389160156;0.5865553617477417;45.25315475463867
346;1673336319.0472605;46.9770464;7.178661;63.51700210571289;1673336319.2093408;-37.667381286621094;1.1563652753829956;45.332576751708984
347;1673336319.2503324;46.9770622;7.1786829999999995;63.88600158691406;1673336319.41389;-37.085914611816406;1.1224781274795532;45.39421844482422
348;1673336319.4727943;46.977077699999995;7.178705099999999;64.25900268554688;1673336319.6213558;-36.9759407043457;1.002099633216858;45.37704086303711
349;1673336319.6730847;46.977092999999996;7.178727299999999;64.63899993896484;1673336319.8311968;-37.16276168823242;0.5565935373306274;45.391510009765625
350;1673336319.8770678;46.977108099999995;7.1787493;65.02400207519531;1673336320.0388718;-37.59163284301758;0.2806948125362396;45.27941131591797
351;1673336320.085633;46.977123;7.178771299999999;65.41400146484375;1673336320.2447114;-38.009761810302734;0.025864414870738983;45.204341888427734
352;1673336320.2917044;46.977137899999995;7.178793199999999;65.8070068359375;1673336320.4338124;-28.817533493041992;-0.2526504397392273;45.156002044677734
353;1673336320.498229;46.9771526;7.1788149;66.18500518798828;1673336320.6491444;-14.32514476776123;0.15603454411029816;44.74127960205078
354;1673336320.6901796;46.9771666;7.1788355;66.53600311279297;1673336320.8463762;-9.796419143676758;-0.061034929007291794;45.24758529663086
355;1673336320.8981166;46.9771796;7.1788545;66.8479995727539;1673336321.0454907;-1.9089581966400146;0.13596336543560028;45.136871337890625
356;1673336321.0923405;46.9771913;7.178871699999999;67.11800384521484;1673336321.2476003;3.076949119567871;1.1219170093536377;44.95218276977539
357;1673336321.2924979;46.9772016;7.1788867;67.3550033569336;1673336321.4457297;6.59202766418457;2.11283278465271;44.26158905029297
358;1673336321.4896486;46.9772105;7.178899599999999;67.56500244140625;1673336321.6488793;7.809711933135986;2.231804132461548;43.789058685302734
359;1673336321.6986563;46.977218099999995;7.1789106;67.74800109863281;1673336321.8602579;6.8834381103515625;-0.9660371541976929;46.477787017822266
360;1673336321.9100676;46.9772244;7.1789197;67.91400146484375;1673336322.0684767;6.0266313552856445;-1.65125572681427;47.61859893798828
361;1673336322.1153572;46.9772296;7.1789271;68.06800079345703;1673336322.2711358;5.847379684448242;-1.4018765687942505;47.4703483581543
362;1673336322.32156;46.977233899999995;7.1789331999999995;68.20100402832031;1673336322.474469;4.913294792175293;-1.1526731252670288;46.88256072998047
363;1673336322.5183601;46.9772375;7.1789382999999996;68.31800079345703;1673336322.6667807;2.9713056087493896;-0.5016245245933533;46.59866714477539
364;1673336322.7107008;46.9772404;7.1789423999999995;68.42000579833984;1673336322.8707645;0.3637872338294983;1.0639562606811523;46.89827346801758
365;1673336322.9176128;46.9772428;7.1789458999999995;68.5060043334961;1673336323.0981746;-1.8467003107070923;1.7048283815383911;47.333675384521484
366;1673336323.1440861;46.977244899999995;7.1789491;68.5770034790039;1673336323.3008142;-3.418123483657837;1.7566938400268555;47.738765716552734
367;1673336323.3456926;46.977246799999996;7.178952;68.63500213623047;1673336323.5145411;-4.370163440704346;0.8236793279647827;47.64302444458008
368;1673336323.5574846;46.977248499999995;7.178954699999999;68.6830062866211;1673336323.711331;-4.400415897369385;-0.020359231159090996;47.484676361083984
369;1673336323.7552507;46.9772502;7.1789572999999995;68.72200012207031;1673336323.9328842;-2.8046441078186035;-0.4932090938091278;47.2606201171875
370;1673336323.9837334;46.9772518;7.1789597;68.75800323486328;1673336324.1413445;-0.7928502559661865;-2.624844551086426;47.428993225097656
371;1673336324.187215;46.9772532;7.1789616999999994;68.79000091552734;1673336324.3332098;1.0936083793640137;-0.5342935919761658;47.89540100097656
372;1673336324.3742013;46.977254599999995;7.1789635;68.81800079345703;1673336324.5265634;2.971318006515503;-0.5110831260681152;49.07261276245117
373;1673336324.5773487;46.977255799999995;7.1789648999999995;68.83900451660156;1673336324.7344904;2.378462791442871;1.8002218008041382;50.875118255615234
374;1673336324.7804008;46.9772567;7.178966099999999;68.85700225830078;1673336324.9414852;1.3244056701660156;1.3500229120254517;51.71683883666992
375;1673336324.991711;46.9772575;7.1789670999999995;68.87300109863281;1673336325.150421;-0.2700996398925781;3.4261255264282227;51.3905029296875
376;1673336325.2002008;46.9772582;7.1789681;68.89000701904297;1673336325.355403;1.4749666452407837;9.038904190063477;52.22307205200195
377;1673336325.405186;46.9772587;7.1789689999999995;68.89700317382812;1673336325.5731475;1.635823130607605;10.808629989624023;60.36306381225586
378;1673336325.6200137;46.9772587;7.1789701;68.89000701904297;1673336325.7780774;-10.973249435424805;28.7016658782959;72.16602325439453
379;1673336325.8239477;46.9772578;7.1789717;68.89000701904297;1673336325.9801068;-29.399608612060547;37.29475402832031;85.78355407714844
380;1673336326.0416768;46.977255299999996;7.178974999999999;68.90800476074219;1673336326.2095187;-48.28483963012695;28.27029037475586;97.41876983642578
381;1673336326.2612858;46.9772505;7.1789811;68.94000244140625;1673336326.4209397;-57.385101318359375;17.06088638305664;108.2908706665039
382;1673336326.4668121;46.9772434;7.178991099999999;68.97500610351562;1673336326.6203501;-60.085819244384766;10.244529724121094;117.01620483398438
383;1673336326.6730554;46.9772341;7.179005699999999;69.00800323486328;1673336326.826286;-60.023193359375;5.484782695770264;125.74100494384766
384;1673336326.878044;46.9772234;7.1790229;69.0260009765625;1673336327.048816;-61.07960510253906;-1.3645880222320557;133.1587677001953
385;1673336327.0976143;46.9772106;7.1790435;69.0300064086914;1673336327.3548315;-58.43803024291992;-9.314895629882812;137.2457275390625
386;1673336327.3958251;46.9771964;7.1790666;69.00700378417969;1673336327.5483131;-53.57052993774414;-8.815353393554688;134.29273986816406
387;1673336327.5941846;46.977181599999994;7.1790917;68.96200561523438;1673336327.7513568;-50.86233901977539;-6.037591457366943;131.12925720214844
388;1673336327.7952754;46.977166499999996;7.179118399999999;68.91300201416016;1673336327.9520354;-49.96030044555664;-1.4160224199295044;129.8285369873047
389;1673336328.0047371;46.977151299999996;7.1791461;68.87700653076172;1673336328.172103;-50.33601379394531;-0.4288918077945709;129.47557067871094
390;1673336328.2225544;46.9771358;7.179174499999999;68.85200500488281;1673336328.37256;-50.499752044677734;0.7847296595573425;129.2730712890625
391;1673336328.4194088;46.97712;7.1792035;68.83000183105469;1673336328.5780728;-49.44114303588867;1.39845871925354;129.4440460205078
392;1673336328.6301425;46.977103899999996;7.179232799999999;68.81000518798828;1673336328.896743;-48.476810455322266;1.2567412853240967;129.84913635253906
393;1673336328.9435916;46.977087499999996;7.1792622999999995;68.79500579833984;1673336329.1231782;-48.0679817199707;1.299695372581482;130.07228088378906
394;1673336329.1688714;46.977070999999995;7.1792918;68.78300476074219;1673336329.3231096;-48.281150817871094;1.057897686958313;130.3333282470703
395;1673336329.3681276;46.9770542;7.1793213;68.7770004272461;1673336329.5223365;-48.370147705078125;0.4993498623371124;130.65086364746094
396;1673336329.5857747;46.9770374;7.179350599999999;68.78300476074219;1673336329.7366014;-48.64501953125;0.22385823726654053;130.76243591308594
397;1673336329.7912974;46.9770204;7.1793800999999995;68.78900146484375;1673336329.9383569;-46.997528076171875;0.6805213093757629;130.61044311523438
398;1673336329.985212;46.9770033;7.1794097;68.79800415039062;1673336330.1608214;-34.56745910644531;0.03947462514042854;131.98281860351562
399;1673336330.199861;46.9769856;7.17944;68.83100128173828;1673336330.342818;-17.763404846191406;-0.9194896221160889;130.6863250732422
400;1673336330.386345;46.9769699;7.179466799999999;68.85400390625;1673336330.5439389;-1.1362038850784302;-1.638726830482483;130.61648559570312
401;1673336330.588927;46.976954899999996;7.1794924;68.85900115966797;1673336330.7435496;9.871110916137695;-1.251596212387085;130.3991241455078
402;1673336330.7906368;46.9769419;7.1795146999999995;68.85200500488281;1673336330.9387116;13.815775871276855;-0.8502083420753479;130.52005004882812
403;1673336330.985479;46.976931099999995;7.1795336;68.83700561523438;1673336331.138026;17.37339210510254;-1.2700951099395752;130.85543823242188
404;1673336331.1946342;46.9769224;7.1795488999999995;68.82600402832031;1673336331.341824;15.218297958374023;-0.738847553730011;130.87623596191406
405;1673336331.3867502;46.9769156;7.1795611;68.81900024414062;1673336331.5496867;10.397948265075684;1.4375476837158203;129.86672973632812
406;1673336331.591707;46.9769104;7.1795705;68.81600189208984;1673336331.7544382;6.6788482666015625;1.8738268613815308;129.7924041748047
407;1673336331.8032703;46.976906199999995;7.179577999999999;68.82300567626953;1673336331.980757;2.020700693130493;3.3055553436279297;130.26263427734375
408;1673336332.0237012;46.9769027;7.1795841;68.84600067138672;1673336332.1775422;-2.713796615600586;0.5303032994270325;130.763916015625
409;1673336332.2322974;46.9768997;7.179589399999999;68.87700653076172;1673336332.388565;-6.478549957275391;-1.0522857904434204;131.3177490234375
410;1673336332.4354584;46.9768969;7.1795941999999995;68.9050064086914;1673336332.8706126;-10.008502006530762;0.30862292647361755;131.66854858398438
411;1673336332.9223866;46.9768942;7.1795987;68.9260025024414;1673336333.0786717;-9.885327339172363;0.12434868514537811;132.21949768066406
412;1673336333.1284442;46.976891599999995;7.1796032;68.93800354003906;1673336333.2923415;-6.919488906860352;0.1938541680574417;132.3304901123047
413;1673336333.3381767;46.9768891;7.1796074999999995;68.94400024414062;1673336333.4921575;-2.340437412261963;-0.00013052280701231211;132.36595153808594
414;1673336333.5329528;46.9768866;7.1796117;68.95000457763672;1673336333.6871364;1.3670562505722046;0.394115149974823;132.36044311523438
415;1673336333.7319996;46.976884299999995;7.1796155;68.95600128173828;1673336333.8845143;0.714180588722229;0.9060156941413879;132.4220733642578
416;1673336333.9381945;46.9768822;7.1796188;68.95700073242188;1673336334.100754;0.27041709423065186;0.462391197681427;132.54833984375
417;1673336334.1514974;46.9768805;7.1796216;68.95500183105469;1673336334.3073015;1.0259270668029785;-0.4168566167354584;132.6486053466797
